timestamp,burst,ins_status,latitude,longitude,altitude,northing,easting,down,utm_zone,velocity_north,velocity_east,velocity_down,roll,pitch,yaw
1403772868967902,1,INS_SOLUTION_GOOD,51.76552,-1.258634,113.088955,5736393.709887,620164.983668,-113.088955,30U,0.022787,-0.016062,0.002881,-0.07489,-0.010724,1.088534
1403772869030401,1,INS_SOLUTION_GOOD,51.76552,-1.258634,113.08878,5736393.711198,620164.98267,-113.08878,30U,0.023884,-0.016298,0.002859,-0.074908,-0.010725,1.088556
1403772869092904,1,INS_SOLUTION_GOOD,51.76552,-1.258634,113.088612,5736393.712621,620164.98167,-113.088612,30U,0.024574,-0.01685,0.002681,-0.074925,-0.010719,1.088588
1403772869155404,1,INS_SOLUTION_GOOD,51.76552,-1.258634,113.088455,5736393.714153,620164.980597,-113.088455,30U,0.02488,-0.017464,0.002492,-0.074924,-0.010707,1.088597
1403772869217906,1,INS_SOLUTION_GOOD,51.76552,-1.258634,113.088329,5736393.715574,620164.979528,-113.088329,30U,0.02474,-0.017577,0.002094,-0.074928,-0.010706,1.08859
1403772869280407,1,INS_SOLUTION_GOOD,51.76552,-1.258634,113.088203,5736393.717105,620164.978387,-113.088203,30U,0.025569,-0.017781,0.002326,-0.074921,-0.010719,1.088573
1403772869342906,1,INS_SOLUTION_GOOD,51.76552,-1.258634,113.087966,5736393.719072,620164.97689,-113.087966,30U,0.025476,-0.01814,0.00349,-0.074894,-0.010729,1.088573
1403772869405409,1,INS_SOLUTION_GOOD,51.76552,-1.258634,113.087758,5736393.720604,620164.975818,-113.087758,30U,0.024945,-0.018103,0.0032,-0.074899,-0.010732,1.088564
1403772869467909,1,INS_SOLUTION_GOOD,51.76552,-1.258635,113.101423,5736393.696373,620164.953613,-113.101423,30U,0.024964,-0.018707,0.00292,-0.074919,-0.010747,1.088545
1403772869530411,1,INS_SOLUTION_GOOD,51.76552,-1.258635,113.101245,5736393.697791,620164.952405,-113.101245,30U,0.025054,-0.019061,0.003311,-0.074904,-0.010758,1.088539
1403772869592912,1,INS_SOLUTION_GOOD,51.76552,-1.258635,113.101021,5736393.699321,620164.951264,-113.101021,30U,0.024448,-0.018882,0.003835,-0.074893,-0.010746,1.088544
1403772869655412,1,INS_SOLUTION_GOOD,51.76552,-1.258635,113.100785,5736393.700739,620164.950057,-113.100785,30U,0.024127,-0.018871,0.003825,-0.074897,-0.010741,1.088549
1403772869717912,1,INS_SOLUTION_GOOD,51.76552,-1.258635,113.100561,5736393.702158,620164.948918,-113.100561,30U,0.024194,-0.018549,0.003775,-0.074878,-0.010747,1.088554
1403772869780415,1,INS_SOLUTION_GOOD,51.76552,-1.258635,113.100328,5736393.703578,620164.94778,-113.100328,30U,0.02415,-0.018713,0.004163,-0.074866,-0.010753,1.088544
1403772869842914,1,INS_SOLUTION_GOOD,51.76552,-1.258635,113.099977,5736393.705432,620164.946216,-113.099977,30U,0.024622,-0.019352,0.004596,-0.074879,-0.010759,1.088535
1403772869905416,1,INS_SOLUTION_GOOD,51.76552,-1.258635,113.099688,5736393.706961,620164.945006,-113.099688,30U,0.024781,-0.020182,0.005055,-0.074878,-0.010763,1.088543
1403772869967916,1,INS_SOLUTION_GOOD,51.76552,-1.258635,113.099384,5736393.708377,620164.94373,-113.099384,30U,0.024277,-0.020551,0.005058,-0.074891,-0.010761,1.088545
1403772870030418,1,INS_SOLUTION_GOOD,51.76552,-1.258635,113.099088,5736393.709793,620164.942453,-113.099088,30U,0.024247,-0.02052,0.00479,-0.074903,-0.010751,1.088541
1403772870092919,1,INS_SOLUTION_GOOD,51.76552,-1.258635,113.098803,5736393.711211,620164.941246,-113.098803,30U,0.024529,-0.020431,0.004534,-0.074876,-0.010744,1.088539
1403772870155420,1,INS_SOLUTION_GOOD,51.76552,-1.258635,113.098552,5736393.712627,620164.939969,-113.098552,30U,0.02478,-0.020429,0.003999,-0.074856,-0.01075,1.088541
1403772870217921,1,INS_SOLUTION_GOOD,51.76552,-1.258635,113.098317,5736393.714154,620164.93869,-113.098317,30U,0.025021,-0.020633,0.004077,-0.074861,-0.010759,1.088542
1403772870280421,1,INS_SOLUTION_GOOD,51.76552,-1.258635,113.09806,5736393.71557,620164.937413,-113.09806,30U,0.025592,-0.021069,0.004525,-0.074853,-0.010755,1.088541
1403772870342923,1,INS_SOLUTION_GOOD,51.76552,-1.258635,113.097671,5736393.717642,620164.935638,-113.097671,30U,0.025579,-0.021632,0.005154,-0.074851,-0.01075,1.088541
1403772870405425,1,INS_SOLUTION_GOOD,51.76552,-1.258635,113.097365,5736393.719167,620164.93429,-113.097365,30U,0.025264,-0.021287,0.004877,-0.074878,-0.010747,1.08854
1403772870467924,1,INS_SOLUTION_GOOD,51.76552,-1.258635,113.097058,5736393.720583,620164.933013,-113.097058,30U,0.025363,-0.021221,0.005191,-0.074865,-0.010747,1.088539
1403772870530427,1,INS_SOLUTION_GOOD,51.76552,-1.258634,113.108155,5736393.690637,620164.965003,-113.108155,30U,0.020656,-0.016705,0.004834,-0.074804,-0.010762,1.088742
1403772870592928,1,INS_SOLUTION_GOOD,51.76552,-1.258634,113.107852,5736393.691837,620164.964008,-113.107852,30U,0.021431,-0.017183,0.005314,-0.074809,-0.010762,1.088744
1403772870655427,1,INS_SOLUTION_GOOD,51.76552,-1.258634,113.107527,5736393.693145,620164.962872,-113.107527,30U,0.022275,-0.017881,0.00533,-0.074826,-0.010762,1.08875
1403772870717929,1,INS_SOLUTION_GOOD,51.76552,-1.258634,113.107205,5736393.694455,620164.961805,-113.107205,30U,0.022592,-0.017941,0.005216,-0.074852,-0.010761,1.088756
1403772870780429,1,INS_SOLUTION_GOOD,51.76552,-1.258635,113.106896,5736393.695763,620164.96067,-113.106896,30U,0.022181,-0.017808,0.004979,-0.074887,-0.010759,1.088749
1403772870842931,1,INS_SOLUTION_GOOD,51.76552,-1.258635,113.106473,5736393.697509,620164.959247,-113.106473,30U,0.021378,-0.016886,0.005586,-0.074879,-0.010764,1.088746
1403772870905434,1,INS_SOLUTION_GOOD,51.76552,-1.258635,113.106109,5736393.698708,620164.958183,-113.106109,30U,0.020949,-0.017144,0.006503,-0.074843,-0.010764,1.08875
1403772870967937,1,INS_SOLUTION_GOOD,51.76552,-1.258635,113.105712,5736393.700017,620164.957116,-113.105712,30U,0.02097,-0.017836,0.006255,-0.074814,-0.010757,1.088754
1403772871030437,1,INS_SOLUTION_GOOD,51.76552,-1.258635,113.105358,5736393.701216,620164.956052,-113.105358,30U,0.021798,-0.017827,0.005544,-0.074796,-0.010751,1.088749
1403772871092939,1,INS_SOLUTION_GOOD,51.76552,-1.258635,113.105029,5736393.702524,620164.954916,-113.105029,30U,0.022456,-0.018169,0.005369,-0.074798,-0.010746,1.088746
1403772871155437,1,INS_SOLUTION_GOOD,51.76552,-1.258635,113.104692,5736393.703943,620164.953777,-113.104692,30U,0.023201,-0.01868,0.00598,-0.074836,-0.010751,1.088743
1403772871217953,1,INS_SOLUTION_GOOD,51.76552,-1.258635,113.104307,5736393.705252,620164.952641,-113.104307,30U,0.022488,-0.018469,0.0066,-0.074863,-0.010762,1.088744
1403772871280440,1,INS_SOLUTION_GOOD,51.76552,-1.258635,113.103922,5736393.70656,620164.951506,-113.103922,30U,0.022011,-0.017997,0.006184,-0.074872,-0.010767,1.088746
1403772871342942,1,INS_SOLUTION_GOOD,51.76552,-1.258635,113.103452,5736393.708304,620164.950014,-113.103452,30U,0.021693,-0.018193,0.005689,-0.07486,-0.010764,1.08874
1403772871405446,1,INS_SOLUTION_GOOD,51.76552,-1.258635,113.103111,5736393.709501,620164.948881,-113.103111,30U,0.021939,-0.018543,0.005606,-0.074831,-0.010758,1.088743
1403772871467946,1,INS_SOLUTION_GOOD,51.76552,-1.258635,113.102742,5736393.710809,620164.947745,-113.102742,30U,0.022342,-0.019132,0.006505,-0.074815,-0.010752,1.088752
1403772871530445,1,INS_SOLUTION_GOOD,51.765519,-1.258634,113.104812,5736393.671376,620164.969192,-113.104812,30U,0.01767,-0.016035,0.005357,-0.074746,-0.010772,1.08886
1403772871592946,1,INS_SOLUTION_GOOD,51.765519,-1.258634,113.104485,5736393.672353,620164.968202,-113.104485,30U,0.018106,-0.016316,0.005451,-0.074756,-0.010777,1.088852
1403772871655450,1,INS_SOLUTION_GOOD,51.765519,-1.258634,113.10416,5736393.673441,620164.96714,-113.10416,30U,0.01848,-0.017033,0.005225,-0.07478,-0.010782,1.08885
1403772871717952,1,INS_SOLUTION_GOOD,51.765519,-1.258634,113.103844,5736393.67453,620164.966148,-113.103844,30U,0.018473,-0.016955,0.005444,-0.0748,-0.010777,1.088855
1403772871780453,1,INS_SOLUTION_GOOD,51.765519,-1.258634,113.103507,5736393.675617,620164.965086,-113.103507,30U,0.017849,-0.016938,0.005761,-0.074806,-0.010769,1.088859
1403772871842952,1,INS_SOLUTION_GOOD,51.765519,-1.258634,113.10302,5736393.676919,620164.963674,-113.10302,30U,0.017708,-0.01685,0.00624,-0.074776,-0.010766,1.088856
1403772871905454,1,INS_SOLUTION_GOOD,51.765519,-1.258634,113.102661,5736393.678008,620164.962682,-113.102661,30U,0.018294,-0.017097,0.005732,-0.074755,-0.010764,1.088856
1403772871967955,1,INS_SOLUTION_GOOD,51.76552,-1.258635,113.102326,5736393.679095,620164.96162,-113.102326,30U,0.019173,-0.017662,0.005423,-0.074739,-0.010763,1.088864
1403772872030456,1,INS_SOLUTION_GOOD,51.76552,-1.258635,113.101994,5736393.680292,620164.960487,-113.101994,30U,0.019717,-0.018328,0.005659,-0.074741,-0.010762,1.08886
1403772872092959,1,INS_SOLUTION_GOOD,51.76552,-1.258635,113.101629,5736393.681378,620164.959356,-113.101629,30U,0.019834,-0.018546,0.006155,-0.074755,-0.010763,1.088859
1403772872155461,1,INS_SOLUTION_GOOD,51.76552,-1.258635,113.10126,5736393.682575,620164.958223,-113.10126,30U,0.019699,-0.018586,0.006177,-0.074772,-0.010764,1.088861
1403772872217960,1,INS_SOLUTION_GOOD,51.76552,-1.258635,113.10089,5736393.683771,620164.95709,-113.10089,30U,0.020047,-0.018472,0.006088,-0.074781,-0.010764,1.088861
1403772872280461,1,INS_SOLUTION_GOOD,51.76552,-1.258635,113.10053,5736393.684967,620164.955887,-113.10053,30U,0.020347,-0.018839,0.005724,-0.074783,-0.010765,1.088861
1403772872342963,1,INS_SOLUTION_GOOD,51.76552,-1.258635,113.100066,5736393.686487,620164.954332,-113.100066,30U,0.020478,-0.018874,0.005675,-0.074769,-0.010766,1.088865
1403772872405464,1,INS_SOLUTION_GOOD,51.76552,-1.258635,113.099719,5736393.687684,620164.953199,-113.099719,30U,0.020821,-0.018843,0.005567,-0.07477,-0.010769,1.08887
1403772872467965,1,INS_SOLUTION_GOOD,51.76552,-1.258635,113.099377,5736393.688992,620164.952063,-113.099377,30U,0.021865,-0.019242,0.005631,-0.074777,-0.010774,1.088862
1403772872530466,1,INS_SOLUTION_GOOD,51.765519,-1.258634,113.10561,5736393.661586,620164.978608,-113.10561,30U,0.018803,-0.015173,0.004678,-0.074751,-0.010803,1.08886
1403772872592968,1,INS_SOLUTION_GOOD,51.765519,-1.258634,113.10533,5736393.662677,620164.977684,-113.10533,30U,0.019129,-0.015163,0.004721,-0.074758,-0.010801,1.088857
1403772872655468,1,INS_SOLUTION_GOOD,51.765519,-1.258634,113.105034,5736393.663768,620164.976761,-113.105034,30U,0.018931,-0.015113,0.005194,-0.074769,-0.010806,1.088854
1403772872717970,1,INS_SOLUTION_GOOD,51.765519,-1.258634,113.104712,5736393.664968,620164.975765,-113.104712,30U,0.019069,-0.015283,0.00544,-0.074765,-0.010808,1.088854
1403772872780472,1,INS_SOLUTION_GOOD,51.765519,-1.258634,113.104362,5736393.666058,620164.974842,-113.104362,30U,0.01918,-0.015611,0.006063,-0.07475,-0.01081,1.08885
1403772872842973,1,INS_SOLUTION_GOOD,51.765519,-1.258634,113.103894,5736393.667584,620164.973494,-113.103894,30U,0.019713,-0.016138,0.005906,-0.07474,-0.010805,1.088843
1403772872905476,1,INS_SOLUTION_GOOD,51.765519,-1.258634,113.103526,5736393.668673,620164.972501,-113.103526,30U,0.020199,-0.016598,0.006312,-0.074729,-0.010801,1.088845
1403772872967976,1,INS_SOLUTION_GOOD,51.765519,-1.258634,113.103146,5736393.669873,620164.971506,-113.103146,30U,0.020538,-0.017049,0.006233,-0.074737,-0.0108,1.088849
1403772873030479,1,INS_SOLUTION_GOOD,51.765519,-1.258634,113.102759,5736393.671183,620164.970439,-113.102759,30U,0.021096,-0.017216,0.006394,-0.074755,-0.010802,1.088847
1403772873092979,1,INS_SOLUTION_GOOD,51.765519,-1.258634,113.102374,5736393.672381,620164.969375,-113.102374,30U,0.020979,-0.017348,0.006358,-0.074762,-0.010806,1.088849
1403772873155481,1,INS_SOLUTION_GOOD,51.765519,-1.258634,113.101992,5736393.67358,620164.968311,-113.101992,30U,0.021143,-0.017484,0.006388,-0.074761,-0.010801,1.088847
1403772873217980,1,INS_SOLUTION_GOOD,51.765519,-1.258634,113.10163,5736393.674888,620164.967175,-113.10163,30U,0.021496,-0.017466,0.005879,-0.074769,-0.010798,1.08885
1403772873280482,1,INS_SOLUTION_GOOD,51.765519,-1.258634,113.101285,5736393.676087,620164.96611,-113.101285,30U,0.021631,-0.017422,0.005824,-0.074758,-0.010802,1.088851
1403772873342983,1,INS_SOLUTION_GOOD,51.765519,-1.258634,113.100826,5736393.677833,620164.964688,-113.100826,30U,0.021369,-0.016979,0.0055,-0.074734,-0.010806,1.088847
1403772873405484,1,INS_SOLUTION_GOOD,51.76552,-1.258634,113.100491,5736393.679143,620164.963621,-113.100491,30U,0.021934,-0.01759,0.005461,-0.07474,-0.010812,1.088841
1403772873467985,1,INS_SOLUTION_GOOD,51.76552,-1.258634,113.100153,5736393.680453,620164.962554,-113.100153,30U,0.022652,-0.018478,0.005669,-0.074749,-0.010822,1.088852
1403772873530486,1,INS_SOLUTION_GOOD,51.765519,-1.258634,113.105251,5736393.651338,620164.982788,-113.105251,30U,0.018467,-0.015816,0.004892,-0.074725,-0.010812,1.089027
1403772873592990,1,INS_SOLUTION_GOOD,51.765519,-1.258634,113.104957,5736393.652427,620164.981795,-113.104957,30U,0.018006,-0.015449,0.004879,-0.07474,-0.010797,1.08902
1403772873655491,1,INS_SOLUTION_GOOD,51.765519,-1.258634,113.104668,5736393.653406,620164.980874,-113.104668,30U,0.017953,-0.015097,0.00456,-0.07473,-0.010805,1.089014
1403772873717990,1,INS_SOLUTION_GOOD,51.765519,-1.258634,113.104411,5736393.654497,620164.979951,-113.104411,30U,0.018022,-0.014587,0.004286,-0.074723,-0.010829,1.089009
1403772873780492,1,INS_SOLUTION_GOOD,51.765519,-1.258634,113.104144,5736393.655588,620164.979027,-113.104144,30U,0.018232,-0.014843,0.004918,-0.074718,-0.010838,1.089016
1403772873842993,1,INS_SOLUTION_GOOD,51.765519,-1.258634,113.103717,5736393.657005,620164.97782,-113.103717,30U,0.018228,-0.015987,0.005479,-0.074696,-0.010813,1.08902
1403772873905494,1,INS_SOLUTION_GOOD,51.765519,-1.258634,113.103395,5736393.658094,620164.976827,-113.103395,30U,0.017979,-0.016108,0.005301,-0.07471,-0.010802,1.089015
1403772873967995,1,INS_SOLUTION_GOOD,51.765519,-1.258634,113.103085,5736393.659183,620164.975835,-113.103085,30U,0.01928,-0.015566,0.004996,-0.074712,-0.010805,1.089013
1403772874030497,1,INS_SOLUTION_GOOD,51.765519,-1.258634,113.102798,5736393.660274,620164.974911,-113.102798,30U,0.01975,-0.015204,0.00463,-0.074714,-0.010816,1.089019
1403772874092998,1,INS_SOLUTION_GOOD,51.765519,-1.258634,113.102528,5736393.661474,620164.973916,-113.102528,30U,0.019671,-0.015656,0.004578,-0.074727,-0.010828,1.089024
1403772874155499,1,INS_SOLUTION_GOOD,51.765519,-1.258634,113.10222,5736393.662674,620164.97292,-113.10222,30U,0.01924,-0.016398,0.005659,-0.074722,-0.010837,1.089025
1403772874218002,1,INS_SOLUTION_GOOD,51.765519,-1.258634,113.101871,5736393.663763,620164.971928,-113.101871,30U,0.019195,-0.016724,0.006001,-0.074716,-0.010821,1.089017
1403772874280502,1,INS_SOLUTION_GOOD,51.765519,-1.258634,113.10152,5736393.664851,620164.970866,-113.10152,30U,0.019782,-0.016643,0.005606,-0.074716,-0.010803,1.089019
1403772874343005,1,INS_SOLUTION_GOOD,51.765519,-1.258634,113.101106,5736393.666488,620164.969515,-113.101106,30U,0.020001,-0.016253,0.004766,-0.074708,-0.010817,1.089029
1403772874405505,1,INS_SOLUTION_GOOD,51.765519,-1.258634,113.100807,5736393.667688,620164.96852,-113.100807,30U,0.020198,-0.016221,0.005361,-0.074706,-0.01083,1.089026
1403772874530508,1,INS_SOLUTION_GOOD,51.765519,-1.258634,113.103031,5736393.640486,620164.98498,-113.103031,30U,0.017041,-0.015435,0.005465,-0.074657,-0.010831,1.089022
1403772874593007,1,INS_SOLUTION_GOOD,51.765519,-1.258634,113.102735,5736393.641577,620164.984057,-113.102735,30U,0.017479,-0.015637,0.004719,-0.074674,-0.01083,1.089023
1403772874655510,1,INS_SOLUTION_GOOD,51.765519,-1.258634,113.102454,5736393.642554,620164.983067,-113.102454,30U,0.017977,-0.015354,0.004611,-0.074685,-0.01083,1.089024
1403772874718010,1,INS_SOLUTION_GOOD,51.765519,-1.258634,113.102171,5736393.643645,620164.982143,-113.102171,30U,0.017859,-0.015216,0.005002,-0.074686,-0.010838,1.089026
1403772874843011,1,INS_SOLUTION_GOOD,51.765519,-1.258634,113.101442,5736393.646039,620164.979877,-113.101442,30U,0.017217,-0.015693,0.005113,-0.074683,-0.01084,1.089032
1403772874905512,1,INS_SOLUTION_GOOD,51.765519,-1.258634,113.101143,5736393.647018,620164.978956,-113.101143,30U,0.017743,-0.015633,0.00486,-0.074685,-0.010831,1.089028
1403772874968013,1,INS_SOLUTION_GOOD,51.765519,-1.258634,113.100854,5736393.648107,620164.977963,-113.100854,30U,0.018316,-0.015299,0.004873,-0.074689,-0.010833,1.089031
1403772875030516,1,INS_SOLUTION_GOOD,51.765519,-1.258634,113.10055,5736393.649198,620164.97704,-113.10055,30U,0.018488,-0.015196,0.005216,-0.074692,-0.010838,1.089038
1403772875155518,1,INS_SOLUTION_GOOD,51.765519,-1.258634,113.099917,5736393.651379,620164.975192,-113.099917,30U,0.018097,-0.015054,0.005181,-0.074681,-0.010842,1.089031
1403772875218018,1,INS_SOLUTION_GOOD,51.765519,-1.258634,113.099616,5736393.652359,620164.974271,-113.099616,30U,0.018078,-0.015616,0.004631,-0.074662,-0.010846,1.089029
1403772875280518,1,INS_SOLUTION_GOOD,51.765519,-1.258634,113.099345,5736393.653448,620164.973279,-113.099345,30U,0.018132,-0.016064,0.004578,-0.074654,-0.010843,1.089034
1403772875405520,1,INS_SOLUTION_GOOD,51.765519,-1.258634,113.09861,5736393.655951,620164.970941,-113.09861,30U,0.018296,-0.015693,0.004951,-0.074641,-0.010814,1.089046
1403772875468024,1,INS_SOLUTION_GOOD,51.765519,-1.258634,113.098353,5736393.657042,620164.970017,-113.098353,30U,0.019008,-0.015308,0.003669,-0.074675,-0.010837,1.08903
1403772875530524,1,INS_SOLUTION_GOOD,51.765519,-1.258634,113.107118,5736393.640783,620164.992775,-113.107118,30U,0.017506,-0.012419,0.002871,-0.074678,-0.010881,1.088967
1403772875655523,1,INS_SOLUTION_GOOD,51.765519,-1.258634,113.106642,5736393.642749,620164.991209,-113.106642,30U,0.016672,-0.013667,0.004746,-0.074687,-0.010868,1.088984
1403772875718026,1,INS_SOLUTION_GOOD,51.765519,-1.258634,113.106363,5736393.64373,620164.990357,-113.106363,30U,0.016708,-0.012805,0.004286,-0.07468,-0.010859,1.088972
1403772875780527,1,INS_SOLUTION_GOOD,51.765519,-1.258634,113.106153,5736393.644824,620164.989571,-113.106153,30U,0.017758,-0.0122,0.002783,-0.074676,-0.010868,1.088958
1403772875905529,1,INS_SOLUTION_GOOD,51.765519,-1.258634,113.105812,5736393.647339,620164.987716,-113.105812,30U,0.018309,-0.013515,0.003229,-0.074672,-0.010889,1.088986
1403772875968029,1,INS_SOLUTION_GOOD,51.765519,-1.258634,113.105585,5736393.648431,620164.986862,-113.105585,30U,0.017665,-0.013746,0.004165,-0.074675,-0.010876,1.088975
1403772876030532,1,INS_SOLUTION_GOOD,51.765519,-1.258634,113.105339,5736393.649412,620164.98601,-113.105339,30U,0.017941,-0.013346,0.00394,-0.074656,-0.010865,1.08895
1403772876155532,1,INS_SOLUTION_GOOD,51.765519,-1.258634,113.105048,5736393.651711,620164.984436,-113.105048,30U,0.02004,-0.013053,0.001872,-0.07466,-0.010887,1.08895
1403772876218034,1,INS_SOLUTION_GOOD,51.765519,-1.258634,113.104905,5736393.652803,620164.983581,-113.104905,30U,0.019807,-0.013584,0.002977,-0.074665,-0.0109,1.088962
1403772876280534,1,INS_SOLUTION_GOOD,51.765519,-1.258634,113.104694,5736393.654007,620164.982724,-113.104694,30U,0.019315,-0.014582,0.003953,-0.074673,-0.010899,1.088947
1403772876405537,1,INS_SOLUTION_GOOD,51.765519,-1.258634,113.104234,5736393.656626,620164.98059,-113.104234,30U,0.019258,-0.014095,0.00206,-0.074704,-0.010869,1.088939
1403772876468038,1,INS_SOLUTION_GOOD,51.765519,-1.258634,113.105076,5736393.632872,620164.996968,-113.105076,30U,0.016352,-0.011005,0.001106,-0.074662,-0.010893,1.088985
1403772876530540,1,INS_SOLUTION_GOOD,51.765519,-1.258634,113.104975,5736393.633745,620164.996257,-113.104975,30U,0.016342,-0.011432,0.002256,-0.074629,-0.010916,1.088987
1403772876593040,1,INS_SOLUTION_GOOD,51.765519,-1.258634,113.104812,5736393.63473,620164.995543,-113.104812,30U,0.016636,-0.012016,0.003096,-0.074636,-0.010923,1.088981
1403772876718040,1,INS_SOLUTION_GOOD,51.765519,-1.258634,113.104531,5736393.636806,620164.993974,-113.104531,30U,0.017733,-0.012644,0.001579,-0.074656,-0.010905,1.088978
1403772876780543,1,INS_SOLUTION_GOOD,51.765519,-1.258634,113.104438,5736393.637789,620164.993191,-113.104438,30U,0.01763,-0.012058,0.001598,-0.074671,-0.010905,1.088981
1403772876843046,1,INS_SOLUTION_GOOD,51.765519,-1.258634,113.104281,5736393.639212,620164.992191,-113.104281,30U,0.01698,-0.012108,0.002206,-0.074681,-0.010915,1.088977
1403772876968046,1,INS_SOLUTION_GOOD,51.765519,-1.258634,113.104051,5736393.641179,620164.990694,-113.104051,30U,0.016789,-0.012375,0.00089,-0.074637,-0.010915,1.088974
1403772877030548,1,INS_SOLUTION_GOOD,51.765519,-1.258634,113.10402,5736393.642161,620164.989911,-113.10402,30U,0.017018,-0.012625,0.000381,-0.074636,-0.01091,1.088978
1403772877093049,1,INS_SOLUTION_GOOD,51.765519,-1.258634,113.103989,5736393.643144,620164.989128,-113.103989,30U,0.017248,-0.012665,0.000692,-0.074643,-0.010905,1.088972
1403772877218049,1,INS_SOLUTION_GOOD,51.765519,-1.258634,113.103818,5736393.645221,620164.98756,-113.103818,30U,0.017373,-0.012137,0.001887,-0.074692,-0.010914,1.088969
1403772877280550,1,INS_SOLUTION_GOOD,51.765519,-1.258634,113.103708,5736393.646205,620164.986846,-113.103708,30U,0.017311,-0.0115,0.001845,-0.074716,-0.010917,1.08897
1403772877405552,1,INS_SOLUTION_GOOD,51.765519,-1.258634,113.103219,5736393.648735,620164.985612,-113.103219,30U,0.020214,-0.002977,0.005916,-0.07473,-0.010755,1.088963
1403772877468053,1,INS_SOLUTION_GOOD,51.765519,-1.258634,113.10508,5736393.62578,620164.993547,-113.10508,30U,0.023211,0.013748,0.009308,-0.074725,-0.010551,1.088937
1403772877530556,1,INS_SOLUTION_GOOD,51.765519,-1.258634,113.104434,5736393.627483,620164.994956,-113.104434,30U,0.03432,0.034617,0.011824,-0.074715,-0.010251,1.088825
1403772877593057,1,INS_SOLUTION_GOOD,51.765519,-1.258634,113.103793,5736393.629992,620164.99752,-113.103793,30U,0.046335,0.053215,0.008819,-0.074711,-0.009985,1.088736
1403772877718059,1,INS_SOLUTION_GOOD,51.765519,-1.258634,113.103185,5736393.63709,620165.005842,-113.103185,30U,0.068663,0.087855,0.000864,-0.074759,-0.009777,1.088741
1403772877780558,1,INS_SOLUTION_GOOD,51.765519,-1.258634,113.103231,5736393.641675,620165.011463,-113.103231,30U,0.077689,0.103427,-0.002162,-0.074727,-0.00979,1.088803
1403772877905559,1,INS_SOLUTION_GOOD,51.765519,-1.258634,113.103652,5736393.654313,620165.028145,-113.103652,30U,0.097206,0.139572,-0.003234,-0.074617,-0.009861,1.089065
1403772877968060,1,INS_SOLUTION_GOOD,51.765519,-1.258633,113.10385,5736393.660642,620165.036901,-113.10385,30U,0.10692,0.155819,-0.003426,-0.07459,-0.009916,1.089242
1403772878030564,1,INS_SOLUTION_GOOD,51.765519,-1.258633,113.104004,5736393.66755,620165.046608,-113.104004,30U,0.117842,0.175047,-0.000842,-0.074598,-0.009974,1.089487
1403772878155563,1,INS_SOLUTION_GOOD,51.76552,-1.258633,113.103334,5736393.684035,620165.070655,-113.103334,30U,0.149257,0.237943,0.011376,-0.074669,-0.00952,1.090156
1403772878218064,1,INS_SOLUTION_GOOD,51.76552,-1.258633,113.102575,5736393.69397,620165.085952,-113.102575,30U,0.169842,0.27944,0.01345,-0.07448,-0.008999,1.090565
1403772878280566,1,INS_SOLUTION_GOOD,51.76552,-1.258632,113.101822,5736393.705298,620165.103701,-113.101822,30U,0.192049,0.323631,0.011302,-0.074135,-0.008463,1.091056
1403772878405581,1,INS_SOLUTION_GOOD,51.76552,-1.258632,113.100772,5736393.737361,620165.155682,-113.100772,30U,0.249312,0.429247,0.004123,-0.073335,-0.007463,1.092847
1403772878468070,1,INS_SOLUTION_GOOD,51.76552,-1.258633,113.229563,5736393.704201,620165.067067,-113.229563,30U,0.273382,0.472215,0.004931,-0.073045,-0.007192,1.093939
1403772878530570,1,INS_SOLUTION_GOOD,51.76552,-1.258633,113.229149,5736393.722035,620165.096328,-113.229149,30U,0.297661,0.51578,0.009404,-0.072962,-0.006852,1.095199
1403772878655571,1,INS_SOLUTION_GOOD,51.76552,-1.258632,113.226944,5736393.762348,620165.162956,-113.226944,30U,0.348459,0.611707,0.027937,-0.072691,-0.005547,1.09813
1403772878718073,1,INS_SOLUTION_GOOD,51.76552,-1.258631,113.225332,5736393.784832,620165.20053,-113.225332,30U,0.371105,0.659273,0.023412,-0.072072,-0.004524,1.099868
1403772878780576,1,INS_SOLUTION_GOOD,51.765521,-1.25863,113.224189,5736393.808606,620165.240903,-113.224189,30U,0.384517,0.704382,0.01391,-0.071142,-0.003677,1.101799
1403772878905576,1,INS_SOLUTION_GOOD,51.765521,-1.258629,113.224244,5736393.866032,620165.343852,-113.224244,30U,0.415694,0.780364,-0.010639,-0.069491,-0.002759,1.106415
1403772878968079,1,INS_SOLUTION_GOOD,51.765521,-1.258628,113.224717,5736393.892974,620165.391054,-113.224717,30U,0.442529,0.814779,-0.002902,-0.068068,-0.002278,1.108887
1403772879030577,1,INS_SOLUTION_GOOD,51.765522,-1.258627,113.224555,5736393.921303,620165.440432,-113.224555,30U,0.462115,0.856201,0.006403,-0.067785,-0.001433,1.111719
1403772879155576,1,INS_SOLUTION_GOOD,51.765522,-1.258626,113.223412,5736393.981148,620165.546844,-113.223412,30U,0.491693,0.937658,0.003916,-0.068874,0.000127,1.117057
1403772879218081,1,INS_SOLUTION_GOOD,51.765522,-1.258625,113.223475,5736394.012541,620165.603398,-113.223475,30U,0.507439,0.971056,-0.003871,-0.069063,0.000176,1.119352
1403772879280578,1,INS_SOLUTION_GOOD,51.765523,-1.258624,113.223889,5736394.044872,620165.661932,-113.223889,30U,0.52661,1.007083,-0.008071,-0.068813,6.2e-05,1.121823
1403772879405578,1,INS_SOLUTION_GOOD,51.765523,-1.258622,113.224164,5736394.124814,620165.80846,-113.224164,30U,0.564053,1.11685,0.006371,-0.067665,0.000326,1.129282
1403772879468080,1,INS_SOLUTION_GOOD,51.765523,-1.258622,113.273687,5736394.130318,620165.824622,-113.273687,30U,0.577889,1.164239,0.012338,-0.066935,0.000719,1.132897
1403772879530579,1,INS_SOLUTION_GOOD,51.765524,-1.258621,113.272722,5736394.167382,620165.894987,-113.272722,30U,0.598824,1.212326,0.018625,-0.066192,0.00147,1.136503
1403772879593080,1,INS_SOLUTION_GOOD,51.765524,-1.25862,113.27148,5736394.20552,620165.968364,-113.27148,30U,0.61643,1.263253,0.020965,-0.065065,0.002443,1.13991
1403772879718081,1,INS_SOLUTION_GOOD,51.765525,-1.258617,113.27,5736394.286329,620166.123294,-113.27,30U,0.668555,1.352195,0.001085,-0.064476,0.003371,1.14751
1403772879780581,1,INS_SOLUTION_GOOD,51.765525,-1.258616,113.270356,5736394.328892,620166.204919,-113.270356,30U,0.679766,1.405219,-0.010989,-0.064513,0.003063,1.151667
1403772879843081,1,INS_SOLUTION_GOOD,51.765526,-1.258615,113.271247,5736394.386246,620166.318847,-113.271247,30U,0.686722,1.477657,-0.00917,-0.06318,0.002573,1.156934
1403772879968082,1,INS_SOLUTION_GOOD,51.765526,-1.258612,113.270284,5736394.474688,620166.499831,-113.270284,30U,0.716731,1.573409,0.019399,-0.061819,0.004116,1.165323
1403772880030583,1,INS_SOLUTION_GOOD,51.765527,-1.258611,113.26925,5736394.520572,620166.594701,-113.26925,30U,0.737311,1.624692,0.012416,-0.06121,0.005519,1.169542
1403772880155582,1,INS_SOLUTION_GOOD,51.765528,-1.258608,113.270706,5736394.615769,620166.792991,-113.270706,30U,0.765836,1.719237,-0.03591,-0.060549,0.005704,1.177448
1403772880218084,1,INS_SOLUTION_GOOD,51.765528,-1.258606,113.273022,5736394.664421,620166.896632,-113.273022,30U,0.77279,1.772449,-0.040585,-0.061078,0.005099,1.180939
1403772880343085,1,INS_SOLUTION_GOOD,51.765529,-1.258602,113.276041,5736394.780755,620167.150616,-113.276041,30U,0.804758,1.896133,-0.000192,-0.05834,0.004538,1.188885
1403772880405584,1,INS_SOLUTION_GOOD,51.765529,-1.258601,113.275612,5736394.832109,620167.264895,-113.275612,30U,0.81312,1.950891,0.011714,-0.056987,0.00454,1.192671
1403772880468086,1,INS_SOLUTION_GOOD,51.76553,-1.258599,113.299568,5736394.862478,620167.353094,-113.299568,30U,0.813392,2.002565,0.022575,-0.055356,0.004855,1.196048
1403772880530586,1,INS_SOLUTION_GOOD,51.76553,-1.258598,113.298305,5736394.914202,620167.473577,-113.298305,30U,0.816603,2.053974,0.016898,-0.053096,0.005726,1.198752
1403772880593086,1,INS_SOLUTION_GOOD,51.765531,-1.258596,113.298076,5736394.966435,620167.596671,-113.298076,30U,0.825481,2.09251,-0.009357,-0.050552,0.006657,1.200974
1403772880655587,1,INS_SOLUTION_GOOD,51.765531,-1.258594,113.299552,5736395.01939,620167.722096,-113.299552,30U,0.844231,2.129153,-0.031318,-0.048302,0.007393,1.203104
1403772880718089,1,INS_SOLUTION_GOOD,51.765531,-1.258592,113.301385,5736395.073955,620167.849692,-113.301385,30U,0.870868,2.165744,-0.028879,-0.048048,0.008352,1.205587
1403772880780589,1,INS_SOLUTION_GOOD,51.765532,-1.25859,113.303454,5736395.130233,620167.979111,-113.303454,30U,0.901782,2.195023,-0.046405,-0.049887,0.009223,1.20828
1403772880843090,1,INS_SOLUTION_GOOD,51.765533,-1.258588,113.307544,5736395.208089,620168.154824,-113.307544,30U,0.932401,2.248595,-0.04697,-0.05252,0.009274,1.211523
1403772880905593,1,INS_SOLUTION_GOOD,51.765533,-1.258586,113.310144,5736395.267282,620168.289834,-113.310144,30U,0.930298,2.297317,-0.040535,-0.05537,0.008777,1.213264
1403772880968093,1,INS_SOLUTION_GOOD,51.765534,-1.258584,113.312495,5736395.326432,620168.427676,-113.312495,30U,0.931282,2.345684,-0.033502,-0.057792,0.008151,1.214507
1403772881030595,1,INS_SOLUTION_GOOD,51.765534,-1.258582,113.313661,5736395.385648,620168.568348,-113.313661,30U,0.931948,2.389188,-0.003277,-0.059067,0.008297,1.21585
1403772881093096,1,INS_SOLUTION_GOOD,51.765535,-1.25858,113.312776,5736395.44493,620168.71171,-113.312776,30U,0.930493,2.439927,0.028374,-0.05812,0.00988,1.217129
1403772881155598,1,INS_SOLUTION_GOOD,51.765535,-1.258577,113.310899,5736395.504066,620168.858321,-113.310899,30U,0.919592,2.490429,0.025579,-0.054362,0.011807,1.218205
1403772881218099,1,INS_SOLUTION_GOOD,51.765536,-1.258575,113.310293,5736395.5626,620169.007707,-113.310293,30U,0.914831,2.537572,-0.00353,-0.049899,0.012938,1.218968
1403772881280600,1,INS_SOLUTION_GOOD,51.765536,-1.258573,113.310543,5736395.621429,620169.160056,-113.310543,30U,0.934673,2.582081,-0.003962,-0.0467,0.013435,1.219637
1403772881343101,1,INS_SOLUTION_GOOD,51.765537,-1.25857,113.311384,5736395.703468,620169.366461,-113.311384,30U,0.99951,2.62796,-0.016654,-0.044383,0.013312,1.220898
1403772881405602,1,INS_SOLUTION_GOOD,51.765537,-1.258568,113.312251,5736395.768532,620169.5237,-113.312251,30U,1.039695,2.66456,-0.008012,-0.0441,0.012639,1.222251
1403772881468103,1,INS_SOLUTION_GOOD,51.765538,-1.258566,113.32901,5736395.820446,620169.666065,-113.32901,30U,1.059674,2.710521,0.021007,-0.044361,0.012573,1.223536
1403772881530605,1,INS_SOLUTION_GOOD,51.765538,-1.258563,113.327559,5736395.88786,620169.828495,-113.327559,30U,1.054579,2.755874,0.018286,-0.045317,0.013462,1.224477
1403772881593106,1,INS_SOLUTION_GOOD,51.765539,-1.258561,113.327458,5736395.954894,620169.993627,-113.327458,30U,1.048617,2.800335,-0.01801,-0.045122,0.014105,1.224864
1403772881655607,1,INS_SOLUTION_GOOD,51.765539,-1.258558,113.329926,5736396.021655,620170.16132,-113.329926,30U,1.046209,2.838988,-0.065636,-0.043524,0.013779,1.225038
1403772881718110,1,INS_SOLUTION_GOOD,51.76554,-1.258556,113.335138,5736396.088689,620170.331147,-113.335138,30U,1.057163,2.874451,-0.101001,-0.041559,0.012609,1.225377
1403772881780612,1,INS_SOLUTION_GOOD,51.765541,-1.258553,113.341705,5736396.157106,620170.502943,-113.341705,30U,1.08835,2.90762,-0.111974,-0.040844,0.011219,1.226115
1403772881843111,1,INS_SOLUTION_GOOD,51.765541,-1.25855,113.349634,5736396.251778,620170.735144,-113.349634,30U,1.140923,2.956185,-0.074867,-0.042035,0.009194,1.227616
1403772881905614,1,INS_SOLUTION_GOOD,51.765542,-1.258547,113.353238,5736396.324989,620170.912003,-113.353238,30U,1.158117,2.997431,-0.046897,-0.043484,0.007948,1.228555
1403772881968114,1,INS_SOLUTION_GOOD,51.765543,-1.258545,113.355697,5736396.398488,620171.091618,-113.355697,30U,1.149871,3.046548,-0.04507,-0.045775,0.00653,1.228796
1403772882030615,1,INS_SOLUTION_GOOD,51.765543,-1.258542,113.358319,5736396.471947,620171.274201,-113.358319,30U,1.155919,3.096894,-0.033157,-0.047564,0.004659,1.22859
1403772882093116,1,INS_SOLUTION_GOOD,51.765544,-1.258539,113.359674,5736396.545922,620171.459742,-113.359674,30U,1.162094,3.146686,-0.017413,-0.048524,0.003529,1.228481
1403772882155617,1,INS_SOLUTION_GOOD,51.765545,-1.258537,113.360498,5736396.620523,620171.648236,-113.360498,30U,1.177984,3.194743,-0.007708,-0.049365,0.002684,1.228682
1403772882218118,1,INS_SOLUTION_GOOD,51.765545,-1.258534,113.360374,5736396.696411,620171.839323,-113.360374,30U,1.199296,3.240084,0.019371,-0.048815,0.002489,1.229235
1403772882280620,1,INS_SOLUTION_GOOD,51.765546,-1.258531,113.358507,5736396.772922,620172.033225,-113.358507,30U,1.195974,3.282605,0.032877,-0.046277,0.003823,1.229682
1403772882343121,1,INS_SOLUTION_GOOD,51.765547,-1.258527,113.357423,5736396.874447,620172.296124,-113.357423,30U,1.187111,3.349864,-0.008762,-0.041181,0.005798,1.229589
1403772882405623,1,INS_SOLUTION_GOOD,51.765547,-1.258524,113.359494,5736396.950668,620172.496523,-113.359494,30U,1.201694,3.393213,-0.054492,-0.037589,0.005687,1.229426
1403772882468124,1,INS_SOLUTION_GOOD,51.765548,-1.258521,113.375613,5736397.018294,620172.686426,-113.375613,30U,1.232901,3.427886,-0.066765,-0.034853,0.004258,1.229604
1403772882530624,1,INS_SOLUTION_GOOD,51.765549,-1.258518,113.379792,5736397.098292,620172.891223,-113.379792,30U,1.269041,3.462914,-0.069866,-0.032157,0.002402,1.230084
1403772882593129,1,INS_SOLUTION_GOOD,51.765549,-1.258515,113.383189,5736397.180351,620173.098456,-113.383189,30U,1.29848,3.507013,-0.037705,-0.031538,0.000685,1.230643
1403772882655629,1,INS_SOLUTION_GOOD,51.76555,-1.258512,113.384388,5736397.263915,620173.308139,-113.384388,30U,1.323085,3.550256,-0.003258,-0.032564,-0.000153,1.230941
1403772882718129,1,INS_SOLUTION_GOOD,51.765551,-1.258509,113.383264,5736397.348991,620173.520547,-113.383264,30U,1.342183,3.599947,0.03888,-0.033927,-0.000114,1.230938
1403772882780632,1,INS_SOLUTION_GOOD,51.765551,-1.258506,113.38017,5736397.435025,620173.735832,-113.38017,30U,1.351818,3.644715,0.057065,-0.035607,0.000652,1.230774
1403772882843131,1,INS_SOLUTION_GOOD,51.765552,-1.258502,113.375743,5736397.550918,620174.027246,-113.375743,30U,1.372094,3.710914,0.056193,-0.03762,0.001899,1.230703
1403772882905633,1,INS_SOLUTION_GOOD,51.765553,-1.258499,113.372647,5736397.639,620174.24904,-113.372647,30U,1.38657,3.748903,0.035204,-0.03855,0.002612,1.230861
1403772882968136,1,INS_SOLUTION_GOOD,51.765554,-1.258495,113.371978,5736397.727914,620174.473094,-113.371978,30U,1.392016,3.790196,-0.014576,-0.036313,0.002509,1.230981
1403772883030637,1,INS_SOLUTION_GOOD,51.765555,-1.258492,113.374276,5736397.816445,620174.699711,-113.374276,30U,1.377987,3.836816,-0.054112,-0.032676,0.001878,1.230784
1403772883093136,1,INS_SOLUTION_GOOD,51.765555,-1.258489,113.37752,5736397.904489,620174.929239,-113.37752,30U,1.378865,3.881202,-0.046565,-0.029708,0.00175,1.230248
1403772883155639,1,INS_SOLUTION_GOOD,51.765556,-1.258485,113.37951,5736397.993478,620175.161092,-113.37951,30U,1.405349,3.918775,-0.022062,-0.027758,0.00265,1.229758
1403772883218141,1,INS_SOLUTION_GOOD,51.765557,-1.258482,113.380399,5736398.084521,620175.395036,-113.380399,30U,1.441469,3.950549,-0.004005,-0.025767,0.003864,1.229489
1403772883280642,1,INS_SOLUTION_GOOD,51.765558,-1.258478,113.379908,5736398.177501,620175.630936,-113.379908,30U,1.46669,3.987868,0.021428,-0.024723,0.005057,1.229389
1403772883343144,1,INS_SOLUTION_GOOD,51.765559,-1.258474,113.377711,5736398.303373,620175.94883,-113.377711,30U,1.489679,4.03578,0.031693,-0.024476,0.006323,1.22922
1403772883405646,1,INS_SOLUTION_GOOD,51.76556,-1.25847,113.375649,5736398.398811,620176.189781,-113.375649,30U,1.498065,4.069391,0.028878,-0.024391,0.006893,1.229088
1403772883468146,1,INS_SOLUTION_GOOD,51.76556,-1.258467,113.38316,5736398.487162,620176.422823,-113.38316,30U,1.506206,4.101974,0.017163,-0.025316,0.006921,1.228904
1403772883530647,1,INS_SOLUTION_GOOD,51.765561,-1.258463,113.38155,5736398.583917,620176.667677,-113.38155,30U,1.519262,4.135667,0.0324,-0.025479,0.007596,1.228577
1403772883593147,1,INS_SOLUTION_GOOD,51.765562,-1.25846,113.380044,5736398.68116,620176.914315,-113.380044,30U,1.525395,4.165777,0.011229,-0.02488,0.008511,1.2281
1403772883655650,1,INS_SOLUTION_GOOD,51.765563,-1.258456,113.380685,5736398.778557,620177.162744,-113.380685,30U,1.526618,4.191412,-0.035167,-0.024198,0.008619,1.227672
1403772883718150,1,INS_SOLUTION_GOOD,51.765564,-1.258452,113.383987,5736398.876654,620177.412537,-113.383987,30U,1.541655,4.212277,-0.070292,-0.024258,0.007687,1.227603
1403772883780651,1,INS_SOLUTION_GOOD,51.765564,-1.258449,113.388746,5736398.975667,620177.663413,-113.388746,30U,1.559787,4.231703,-0.082037,-0.023147,0.006696,1.227835
1403772883843151,1,INS_SOLUTION_GOOD,51.765566,-1.258444,113.394966,5736399.108892,620178.000324,-113.394966,30U,1.568083,4.270662,-0.072575,-0.0204,0.005725,1.228289
1403772883905653,1,INS_SOLUTION_GOOD,51.765566,-1.25844,113.398623,5736399.209111,620178.255107,-113.398623,30U,1.570276,4.300315,-0.04868,-0.019222,0.004738,1.22845
1403772883968154,1,INS_SOLUTION_GOOD,51.765567,-1.258436,113.400633,5736399.309483,620178.511611,-113.400633,30U,1.572405,4.330048,-0.016995,-0.017486,0.003806,1.228447
1403772884030654,1,INS_SOLUTION_GOOD,51.765568,-1.258433,113.40072,5736399.410228,620178.769764,-113.40072,30U,1.583719,4.356947,0.018779,-0.016383,0.003343,1.228377
1403772884093155,1,INS_SOLUTION_GOOD,51.765569,-1.258429,113.399565,5736399.512003,620179.029135,-113.399565,30U,1.607192,4.370258,0.008804,-0.015806,0.003547,1.228593
1403772884218156,1,INS_SOLUTION_GOOD,51.765571,-1.258421,113.399949,5736399.719303,620179.551101,-113.399949,30U,1.62909,4.41526,-0.012964,-0.013501,0.001891,1.230026
1403772884280656,1,INS_SOLUTION_GOOD,51.765572,-1.258417,113.401038,5736399.823174,620179.814357,-113.401038,30U,1.620906,4.444214,-0.024451,-0.013385,0.000532,1.230582
1403772884405656,1,INS_SOLUTION_GOOD,51.765574,-1.258408,113.406311,5736400.06584,620180.433447,-113.406311,30U,1.637059,4.487167,-0.032226,-0.01388,-0.001769,1.230712
1403772884468158,1,INS_SOLUTION_GOOD,51.765574,-1.258404,113.413946,5736400.169425,620180.694017,-113.413946,30U,1.647633,4.505252,-0.011484,-0.014616,-0.001676,1.230654
1403772884530657,1,INS_SOLUTION_GOOD,51.765575,-1.2584,113.414152,5736400.274978,620180.96248,-113.414152,30U,1.654716,4.526702,0.00541,-0.014931,-0.001332,1.230732
1403772884655658,1,INS_SOLUTION_GOOD,51.765577,-1.258393,113.41319,5736400.486295,620181.503543,-113.41319,30U,1.650884,4.579066,0.009036,-0.012808,-0.001234,1.230655
1403772884718161,1,INS_SOLUTION_GOOD,51.765578,-1.258389,113.411921,5736400.591514,620181.77664,-113.411921,30U,1.641575,4.60686,0.027137,-0.010144,-0.001682,1.229904
1403772884780659,1,INS_SOLUTION_GOOD,51.765579,-1.258385,113.409961,5736400.696656,620182.051188,-113.409961,30U,1.647799,4.629399,0.043375,-0.006928,-0.001878,1.228593
1403772884905659,1,INS_SOLUTION_GOOD,51.765581,-1.258375,113.403646,5736400.94771,620182.695346,-113.403646,30U,1.729899,4.651464,0.017425,-0.00595,-0.000304,1.226281
1403772884968164,1,INS_SOLUTION_GOOD,51.765582,-1.258371,113.403677,5736401.058695,620182.97224,-113.403677,30U,1.746142,4.668977,-0.013983,-0.004964,-0.000481,1.226242
1403772885030662,1,INS_SOLUTION_GOOD,51.765583,-1.258367,113.40508,5736401.170152,620183.250297,-113.40508,30U,1.746249,4.685787,-0.032027,-0.005218,-0.001577,1.226243
1403772885093161,1,INS_SOLUTION_GOOD,51.765584,-1.258363,113.407191,5736401.281521,620183.529322,-113.407191,30U,1.742989,4.70643,-0.035487,-0.006104,-0.00319,1.2259
1403772885218174,1,INS_SOLUTION_GOOD,51.765586,-1.258355,113.409961,5736401.50455,620184.090196,-113.409961,30U,1.760456,4.724529,0.01352,-0.009709,-0.008219,1.224001
1403772885280662,1,INS_SOLUTION_GOOD,51.765587,-1.258351,113.407969,5736401.617188,620184.371124,-113.407969,30U,1.765013,4.729531,0.0503,-0.008796,-0.008958,1.22313
1403772885343162,1,INS_SOLUTION_GOOD,51.765588,-1.258345,113.403858,5736401.767236,620184.746158,-113.403858,30U,1.764711,4.737013,0.041552,-0.007994,-0.007988,1.222374
1403772885405664,1,INS_SOLUTION_GOOD,51.765589,-1.258341,113.402469,5736401.879894,620185.027914,-113.402469,30U,1.763748,4.741816,0.004983,-0.006657,-0.008245,1.221853
1403772885468166,1,INS_SOLUTION_GOOD,51.76559,-1.258337,113.408459,5736401.991297,620185.303694,-113.408459,30U,1.748386,4.74538,0.000593,-0.002595,-0.00892,1.220904
1403772885530667,1,INS_SOLUTION_GOOD,51.765591,-1.258333,113.407824,5736402.102409,620185.585901,-113.407824,30U,1.735121,4.746549,0.019608,0.000448,-0.008586,1.219627
1403772885593170,1,INS_SOLUTION_GOOD,51.765592,-1.258329,113.406363,5736402.213622,620185.867691,-113.406363,30U,1.752276,4.731797,0.028203,0.000168,-0.007567,1.218303
1403772885655671,1,INS_SOLUTION_GOOD,51.765593,-1.258325,113.403402,5736402.326698,620186.148332,-113.403402,30U,1.798171,4.707776,0.076464,-0.00227,-0.005669,1.217344
1403772885718170,1,INS_SOLUTION_GOOD,51.765594,-1.258321,113.397783,5736402.442411,620186.42753,-113.397783,30U,1.834348,4.690752,0.104744,-0.005027,-0.002792,1.216887
1403772885780669,1,INS_SOLUTION_GOOD,51.765595,-1.258316,113.392293,5736402.558878,620186.705674,-113.392293,30U,1.818057,4.675079,0.065349,-0.007162,-0.000723,1.21638
1403772885843173,1,INS_SOLUTION_GOOD,51.765596,-1.258311,113.389921,5736402.711479,620187.075814,-113.389921,30U,1.7772,4.668887,0.00422,-0.008445,-0.000632,1.2149
1403772885905673,1,INS_SOLUTION_GOOD,51.765597,-1.258307,113.389167,5736402.824036,620187.353292,-113.389167,30U,1.752558,4.671668,0.03277,-0.006069,-0.001321,1.213443
1403772885968171,1,INS_SOLUTION_GOOD,51.765598,-1.258303,113.386706,5736402.935371,620187.630868,-113.386706,30U,1.736539,4.667129,0.027625,0.000193,-0.001504,1.211995
1403772886030673,1,INS_SOLUTION_GOOD,51.765599,-1.258299,113.38626,5736403.046028,620187.908046,-113.38626,30U,1.729249,4.661529,-0.006922,0.007684,-0.003216,1.211064
1403772886093172,1,INS_SOLUTION_GOOD,51.7656,-1.258295,113.38662,5736403.157016,620188.185078,-113.38662,30U,1.750284,4.657615,-0.007771,0.011837,-0.005054,1.210784
1403772886155673,1,INS_SOLUTION_GOOD,51.765601,-1.258291,113.387316,5736403.269986,620188.461234,-113.387316,30U,1.794862,4.638061,-0.014311,0.011265,-0.005897,1.210982
1403772886218176,1,INS_SOLUTION_GOOD,51.765602,-1.258287,113.388396,5736403.385818,620188.736079,-113.388396,30U,1.844136,4.617413,-0.019542,0.008099,-0.005464,1.211229
1403772886280674,1,INS_SOLUTION_GOOD,51.765603,-1.258283,113.389154,5736403.503527,620189.010327,-113.389154,30U,1.854911,4.619812,-8.1e-05,0.00471,-0.004018,1.211124
1403772886343174,1,INS_SOLUTION_GOOD,51.765604,-1.258277,113.389306,5736403.659713,620189.376791,-113.389306,30U,1.829244,4.636796,-0.005352,-0.001479,-0.001878,1.210136
1403772886405675,1,INS_SOLUTION_GOOD,51.765605,-1.258273,113.389244,5736403.775567,620189.652602,-113.389244,30U,1.815474,4.650806,0.007903,-0.004958,-0.001232,1.209031
1403772886468176,1,INS_SOLUTION_GOOD,51.765606,-1.258269,113.388611,5736403.890554,620189.929331,-113.388611,30U,1.797016,4.664056,0.02035,-0.004477,-0.001682,1.207952
1403772886530675,1,INS_SOLUTION_GOOD,51.765607,-1.258265,113.412739,5736404.015284,620190.231994,-113.412739,30U,1.769935,4.68384,0.077015,-0.00122,-0.001986,1.206707
1403772886593177,1,INS_SOLUTION_GOOD,51.765608,-1.258261,113.407035,5736404.127761,620190.510785,-113.407035,30U,1.759395,4.693398,0.098254,0.003458,-0.001219,1.205407
1403772886655679,1,INS_SOLUTION_GOOD,51.765609,-1.258257,113.402114,5736404.240461,620190.78964,-113.402114,30U,1.782613,4.686883,0.063237,0.006936,-0.000688,1.204437
1403772886718180,1,INS_SOLUTION_GOOD,51.76561,-1.258253,113.400099,5736404.355481,620191.06775,-113.400099,30U,1.830417,4.672568,0.001377,0.008388,-0.001295,1.204139
1403772886780684,1,INS_SOLUTION_GOOD,51.765611,-1.258249,113.401533,5736404.473148,620191.344898,-113.401533,30U,1.866855,4.66168,-0.049903,0.008998,-0.003133,1.204376
1403772886843184,1,INS_SOLUTION_GOOD,51.765612,-1.258243,113.407254,5736404.631744,620191.714411,-113.407254,30U,1.869981,4.671641,-0.077876,0.007656,-0.007003,1.204563
1403772886905685,1,INS_SOLUTION_GOOD,51.765613,-1.258239,113.411016,5736404.750202,620191.992093,-113.411016,30U,1.862836,4.679493,-0.044552,0.006716,-0.009277,1.204289
1403772886968184,1,INS_SOLUTION_GOOD,51.765614,-1.258235,113.412432,5736404.868347,620192.270611,-113.412432,30U,1.853553,4.700416,0.005873,0.006275,-0.010483,1.203973
1403772887030687,1,INS_SOLUTION_GOOD,51.765615,-1.258231,113.410586,5736404.986071,620192.550105,-113.410586,30U,1.850994,4.70748,0.047856,0.005915,-0.010729,1.203683
1403772887093189,1,INS_SOLUTION_GOOD,51.765616,-1.258227,113.40722,5736405.104134,620192.829868,-113.40722,30U,1.861696,4.711196,0.063854,0.006664,-0.010478,1.203543
1403772887155691,1,INS_SOLUTION_GOOD,51.765617,-1.258223,113.403281,5736405.222875,620193.110028,-113.403281,30U,1.868945,4.723865,0.062629,0.008475,-0.010313,1.203682
1403772887218190,1,INS_SOLUTION_GOOD,51.765618,-1.258219,113.399996,5736405.341629,620193.390741,-113.399996,30U,1.869107,4.729734,0.05347,0.00799,-0.010964,1.203853
1403772887280692,1,INS_SOLUTION_GOOD,51.765619,-1.258215,113.396217,5736405.460391,620193.671798,-113.396217,30U,1.871474,4.732824,0.06634,0.006494,-0.010906,1.203832
1403772887343193,1,INS_SOLUTION_GOOD,51.765621,-1.258209,113.390627,5736405.61935,620194.04724,-113.390627,30U,1.878829,4.745879,0.077626,0.003312,-0.0095,1.203346
1403772887405704,1,INS_SOLUTION_GOOD,51.765622,-1.258205,113.386397,5736405.739023,620194.329174,-113.386397,30U,1.879657,4.748332,0.049038,0.003546,-0.008313,1.202921
1403772887468195,1,INS_SOLUTION_GOOD,51.765623,-1.258201,113.384493,5736405.858381,620194.611874,-113.384493,30U,1.866558,4.77286,0.029559,0.005581,-0.008728,1.202507
1403772887530697,1,INS_SOLUTION_GOOD,51.765624,-1.258197,113.39993,5736406.028482,620194.84814,-113.39993,30U,1.863745,4.778625,0.044798,0.006808,-0.009503,1.201954
1403772887593198,1,INS_SOLUTION_GOOD,51.765625,-1.258193,113.396986,5736406.147429,620195.1323,-113.396986,30U,1.874565,4.785372,0.050667,0.009194,-0.009894,1.201881
1403772887655699,1,INS_SOLUTION_GOOD,51.765626,-1.258189,113.39397,5736406.266499,620195.41694,-113.39397,30U,1.868031,4.796486,0.058456,0.012585,-0.010368,1.201893
1403772887718201,1,INS_SOLUTION_GOOD,51.765627,-1.258185,113.389309,5736406.385477,620195.702342,-113.389309,30U,1.873585,4.807322,0.087678,0.012898,-0.009751,1.201788
1403772887780703,1,INS_SOLUTION_GOOD,51.765628,-1.258181,113.384777,5736406.505563,620195.987579,-113.384777,30U,1.908548,4.795635,0.05891,0.011789,-0.008818,1.201807
1403772887843203,1,INS_SOLUTION_GOOD,51.76563,-1.258175,113.382059,5736406.669068,620196.366986,-113.382059,30U,1.946886,4.792846,0.019682,0.010324,-0.008731,1.202404
1403772887905704,1,INS_SOLUTION_GOOD,51.765631,-1.258171,113.380976,5736406.792706,620196.651862,-113.380976,30U,1.944176,4.804381,0.020769,0.0083,-0.009259,1.202857
1403772887968205,1,INS_SOLUTION_GOOD,51.765632,-1.258167,113.378939,5736406.9157,620196.93772,-113.378939,30U,1.928134,4.822383,0.045593,0.006403,-0.009443,1.202956
1403772888030707,1,INS_SOLUTION_GOOD,51.765633,-1.258163,113.375508,5736407.037831,620197.224704,-113.375508,30U,1.911918,4.842,0.069206,0.006018,-0.009193,1.202772
1403772888093207,1,INS_SOLUTION_GOOD,51.765634,-1.258158,113.371761,5736407.158876,620197.512818,-113.371761,30U,1.894401,4.859045,0.057446,0.00727,-0.009633,1.202416
1403772888155709,1,INS_SOLUTION_GOOD,51.765635,-1.258154,113.367813,5736407.279389,620197.80198,-113.367813,30U,1.891925,4.870819,0.070381,0.009306,-0.010526,1.201995
1403772888218210,1,INS_SOLUTION_GOOD,51.765636,-1.25815,113.363913,5736407.400132,620198.091413,-113.363913,30U,1.908131,4.872179,0.055768,0.012146,-0.011313,1.201819
1403772888280712,1,INS_SOLUTION_GOOD,51.765637,-1.258146,113.360879,5736407.521989,620198.380888,-113.360879,30U,1.92592,4.871728,0.049476,0.013719,-0.011881,1.201936
1403772888343213,1,INS_SOLUTION_GOOD,51.765638,-1.25814,113.357318,5736407.686094,620198.76677,-113.357318,30U,1.943721,4.87576,0.046122,0.013752,-0.011405,1.202199
1403772888405715,1,INS_SOLUTION_GOOD,51.765639,-1.258136,113.35452,5736407.809739,620199.056617,-113.35452,30U,1.948405,4.88437,0.039752,0.013398,-0.010615,1.202298
1403772888468215,1,INS_SOLUTION_GOOD,51.76564,-1.258132,113.352396,5736407.933622,620199.34708,-113.352396,30U,1.944106,4.896004,0.033774,0.013337,-0.010788,1.202406
1403772888530717,1,INS_SOLUTION_GOOD,51.765642,-1.258127,113.365318,5736408.130165,620199.674814,-113.365318,30U,1.943877,4.90566,0.048016,0.013142,-0.011041,1.202324
1403772888593218,1,INS_SOLUTION_GOOD,51.765643,-1.258122,113.360848,5736408.253744,620199.966527,-113.360848,30U,1.944515,4.915982,0.102972,0.013177,-0.009945,1.202201
1403772888655719,1,INS_SOLUTION_GOOD,51.765644,-1.258118,113.353893,5736408.377449,620200.258857,-113.353893,30U,1.950453,4.925776,0.119031,0.013277,-0.007723,1.20204
1403772888718222,1,INS_SOLUTION_GOOD,51.765645,-1.258114,113.347013,5736408.50161,620200.551661,-113.347013,30U,1.955389,4.930357,0.106004,0.013661,-0.005795,1.201961
1403772888780721,1,INS_SOLUTION_GOOD,51.765646,-1.25811,113.341698,5736408.626109,620200.844594,-113.341698,30U,1.960604,4.933309,0.068273,0.013377,-0.004855,1.202186
1403772888843222,1,INS_SOLUTION_GOOD,51.765648,-1.258104,113.338945,5736408.79267,620201.235457,-113.338945,30U,1.974309,4.936841,0.002254,0.011037,-0.005597,1.202893
1403772888905724,1,INS_SOLUTION_GOOD,51.765649,-1.2581,113.338818,5736408.918297,620201.529053,-113.338818,30U,1.974914,4.948665,0.012796,0.010787,-0.007057,1.203474
1403772888968225,1,INS_SOLUTION_GOOD,51.76565,-1.258095,113.336906,5736409.043056,620201.823568,-113.336906,30U,1.952698,4.965406,0.050646,0.010807,-0.007374,1.203827
1403772889030726,1,INS_SOLUTION_GOOD,51.765651,-1.258091,113.333699,5736409.167164,620202.118789,-113.333699,30U,1.952086,4.973449,0.04769,0.010501,-0.006491,1.204141
1403772889093230,1,INS_SOLUTION_GOOD,51.765652,-1.258087,113.331644,5736409.291614,620202.414347,-113.331644,30U,1.960264,4.977122,0.02217,0.010772,-0.006417,1.204774
1403772889155729,1,INS_SOLUTION_GOOD,51.765653,-1.258082,113.330411,5736409.416405,620202.710242,-113.330411,30U,1.96322,4.984834,0.018678,0.011086,-0.007495,1.205578
1403772889218234,1,INS_SOLUTION_GOOD,51.765654,-1.258078,113.329514,5736409.54121,620203.006688,-113.329514,30U,1.961977,4.994867,0.016305,0.010937,-0.009287,1.206371
1403772889280732,1,INS_SOLUTION_GOOD,51.765655,-1.258074,113.328056,5736409.666138,620203.303615,-113.328056,30U,1.961178,5.001569,0.032478,0.011761,-0.01117,1.207139
1403772889343235,1,INS_SOLUTION_GOOD,51.765656,-1.258068,113.324317,5736409.832506,620203.700352,-113.324317,30U,1.961157,5.016208,0.067331,0.01241,-0.012622,1.208046
1403772889405736,1,INS_SOLUTION_GOOD,51.765657,-1.258063,113.319664,5736409.957352,620203.998523,-113.319664,30U,1.965684,5.02084,0.08174,0.011321,-0.012423,1.20865
1403772889468239,1,INS_SOLUTION_GOOD,51.765658,-1.258059,113.315375,5736410.082648,620204.296892,-113.315375,30U,1.969469,5.025553,0.057194,0.010704,-0.011951,1.209338
1403772889530739,1,INS_SOLUTION_GOOD,51.76566,-1.258055,113.31238,5736410.204637,620204.563925,-113.31238,30U,1.962161,5.037037,0.019343,0.010258,-0.012554,1.210122
1403772889593239,1,INS_SOLUTION_GOOD,51.765661,-1.258051,113.311177,5736410.329519,620204.863615,-113.311177,30U,1.962632,5.05083,0.024803,0.008506,-0.014702,1.210878
1403772889655739,1,INS_SOLUTION_GOOD,51.765662,-1.258046,113.308529,5736410.454528,620205.163923,-113.308529,30U,1.969184,5.054181,0.067324,0.006497,-0.016705,1.211483
1403772889718241,1,INS_SOLUTION_GOOD,51.765663,-1.258042,113.302974,5736410.579864,620205.463947,-113.302974,30U,1.9642,5.050127,0.118579,0.006426,-0.015999,1.211988
1403772889780742,1,INS_SOLUTION_GOOD,51.765664,-1.258038,113.294846,5736410.704205,620205.764271,-113.294846,30U,1.944038,5.059624,0.142153,0.007711,-0.012077,1.212269
1403772889843243,1,INS_SOLUTION_GOOD,51.765665,-1.258032,113.284777,5736410.868786,620206.165399,-113.284777,30U,1.934083,5.06457,0.099569,0.008937,-0.006124,1.212754
1403772889905747,1,INS_SOLUTION_GOOD,51.765666,-1.258027,113.280017,5736410.992251,620206.466297,-113.280017,30U,1.943193,5.063083,0.058171,0.009741,-0.003402,1.213478
1403772889968246,1,INS_SOLUTION_GOOD,51.765667,-1.258023,113.277699,5736411.115934,620206.766981,-113.277699,30U,1.936407,5.063839,0.026193,0.012585,-0.002601,1.214196
1403772890030750,1,INS_SOLUTION_GOOD,51.765668,-1.258019,113.275486,5736411.238851,620207.068237,-113.275486,30U,1.923009,5.073835,0.059111,0.014108,-0.002387,1.214411
1403772890093249,1,INS_SOLUTION_GOOD,51.765669,-1.258014,113.26957,5736411.361773,620207.369699,-113.26957,30U,1.938287,5.069393,0.138807,0.011051,-0.000722,1.214273
1403772890155752,1,INS_SOLUTION_GOOD,51.76567,-1.25801,113.261385,5736411.486231,620207.670228,-113.261385,30U,1.971959,5.044369,0.11586,0.006416,0.00246,1.214223
1403772890218251,1,INS_SOLUTION_GOOD,51.765671,-1.258005,113.257616,5736411.612103,620207.96941,-113.257616,30U,1.979386,5.031659,0.007294,0.003441,0.003562,1.214374
1403772890280754,1,INS_SOLUTION_GOOD,51.765673,-1.258001,113.259986,5736411.737411,620208.268261,-113.259986,30U,1.960217,5.034291,-0.076809,0.001172,0.001694,1.214562
1403772890343257,1,INS_SOLUTION_GOOD,51.765674,-1.257995,113.266564,5736411.902501,620208.667375,-113.266564,30U,1.927208,5.043402,-0.076677,0.002065,-0.002312,1.214715
1403772890405756,1,INS_SOLUTION_GOOD,51.765675,-1.257991,113.270488,5736412.024273,620208.967277,-113.270488,30U,1.898224,5.051837,-0.045356,0.003488,-0.00477,1.214582
1403772890468256,1,INS_SOLUTION_GOOD,51.765676,-1.257986,113.271332,5736412.145162,620209.267476,-113.271332,30U,1.897651,5.049875,0.008835,0.006042,-0.005558,1.214154
1403772890530757,1,INS_SOLUTION_GOOD,51.765676,-1.257982,113.26895,5736412.190165,620209.535037,-113.26895,30U,1.907357,5.037565,0.034818,0.009008,-0.005488,1.214139
1403772890593273,1,INS_SOLUTION_GOOD,51.765677,-1.257978,113.267065,5736412.312364,620209.834169,-113.267065,30U,1.931431,5.026701,0.017341,0.009892,-0.006038,1.214641
1403772890718260,1,INS_SOLUTION_GOOD,51.765679,-1.257969,113.266378,5736412.560391,620210.430621,-113.266378,30U,1.953623,5.018009,0.023792,0.005348,-0.010076,1.215888
1403772890780762,1,INS_SOLUTION_GOOD,51.76568,-1.257965,113.264954,5736412.684459,620210.728811,-113.264954,30U,1.947142,5.021152,0.023415,0.001255,-0.012076,1.215624
1403772890843262,1,INS_SOLUTION_GOOD,51.765682,-1.257959,113.261751,5736412.849189,620211.126829,-113.261751,30U,1.928347,5.029856,0.052051,0.000685,-0.014388,1.214534
1403772890905764,1,INS_SOLUTION_GOOD,51.765683,-1.257955,113.257953,5736412.971714,620211.425608,-113.257953,30U,1.922599,5.025037,0.069301,0.000284,-0.014674,1.214066
1403772891030765,1,INS_SOLUTION_GOOD,51.765685,-1.257946,113.250809,5736413.216967,620212.022402,-113.250809,30U,1.918863,5.024303,0.06595,0.002851,-0.012638,1.214033
1403772891093266,1,INS_SOLUTION_GOOD,51.765686,-1.257942,113.246782,5736413.338715,620212.321269,-113.246782,30U,1.896266,5.034135,0.070654,0.006074,-0.010946,1.213405
1403772891155767,1,INS_SOLUTION_GOOD,51.765687,-1.257937,113.242503,5736413.459691,620212.62043,-113.242503,30U,1.896944,5.034919,0.071375,0.010344,-0.009758,1.212556
1403772891280769,1,INS_SOLUTION_GOOD,51.765689,-1.257929,113.232251,5736413.704081,620213.218349,-113.232251,30U,1.949502,5.022971,0.109521,0.012713,-0.009367,1.21204
1403772891343270,1,INS_SOLUTION_GOOD,51.765691,-1.257923,113.222967,5736413.870141,620213.616128,-113.222967,30U,1.95616,5.024059,0.10777,0.014832,-0.009889,1.212334
1403772891405771,1,INS_SOLUTION_GOOD,51.765692,-1.257918,113.217827,5736413.994214,620213.914525,-113.217827,30U,1.939065,5.024933,0.063356,0.015231,-0.010929,1.212215
1403772891530775,1,INS_SOLUTION_GOOD,51.765694,-1.25791,113.242799,5736414.238419,620214.500021,-113.242799,30U,1.961558,5.015438,0.002065,0.012521,-0.013234,1.211186
1403772891593274,1,INS_SOLUTION_GOOD,51.765695,-1.257906,113.242766,5736414.363482,620214.797911,-113.242766,30U,1.959841,5.017021,0.003002,0.011723,-0.014529,1.210894
1403772891655776,1,INS_SOLUTION_GOOD,51.765696,-1.257901,113.242331,5736414.487999,620215.096228,-113.242331,30U,1.946066,5.032599,0.011574,0.012626,-0.015863,1.210484
1403772891780778,1,INS_SOLUTION_GOOD,51.765698,-1.257892,113.237429,5736414.733979,620215.69549,-113.237429,30U,1.924094,5.050535,0.088868,0.016429,-0.020393,1.209408
1403772891843277,1,INS_SOLUTION_GOOD,51.765699,-1.257887,113.227445,5736414.89765,620216.095742,-113.227445,30U,1.92968,5.050694,0.162404,0.020687,-0.021627,1.208678
1403772891905780,1,INS_SOLUTION_GOOD,51.7657,-1.257882,113.218047,5736415.020975,620216.395399,-113.218047,30U,1.946476,5.038214,0.141336,0.020923,-0.020433,1.208363
1403772891968280,1,INS_SOLUTION_GOOD,51.765701,-1.257878,113.210411,5736415.145948,620216.694189,-113.210411,30U,1.979982,5.022849,0.115682,0.017829,-0.018582,1.208555
1403772892093282,1,INS_SOLUTION_GOOD,51.765703,-1.257869,113.200198,5736415.400527,620217.290069,-113.200198,30U,2.010797,5.014276,0.064106,0.009667,-0.01512,1.210151
1403772892155782,1,INS_SOLUTION_GOOD,51.765705,-1.257865,113.196721,5736415.527603,620217.588394,-113.196721,30U,1.981574,5.033084,0.061891,0.008635,-0.014444,1.211002
1403772892218285,1,INS_SOLUTION_GOOD,51.765706,-1.25786,113.191477,5736415.652271,620217.888364,-113.191477,30U,1.938057,5.062848,0.118572,0.007852,-0.014461,1.211342
1403772892280787,1,INS_SOLUTION_GOOD,51.765707,-1.257856,113.182002,5736415.775187,620218.18955,-113.182002,30U,1.923919,5.065253,0.182785,0.008074,-0.013731,1.211206
1403772892405788,1,INS_SOLUTION_GOOD,51.765709,-1.257846,113.159778,5736416.06234,620218.891389,-113.159778,30U,1.941092,5.055471,0.097215,0.015243,-0.010277,1.211454
1403772892468288,1,INS_SOLUTION_GOOD,51.76571,-1.257841,113.156238,5736416.186457,620219.191579,-113.156238,30U,1.958495,5.04694,0.027004,0.014302,-0.010835,1.212147
1403772892530789,1,INS_SOLUTION_GOOD,51.765711,-1.257838,113.165667,5736416.322377,620219.436256,-113.165667,30U,1.981569,5.034174,-0.00478,0.01167,-0.012146,1.212804
1403772892655791,1,INS_SOLUTION_GOOD,51.765713,-1.257829,113.164958,5736416.574011,620220.034623,-113.164958,30U,1.962537,5.044078,0.050968,0.008216,-0.014073,1.212769
1403772892718292,1,INS_SOLUTION_GOOD,51.765714,-1.257825,113.159687,5736416.698349,620220.334739,-113.159687,30U,1.945874,5.057707,0.120154,0.007116,-0.012412,1.21239
1403772892780793,1,INS_SOLUTION_GOOD,51.765716,-1.25782,113.151925,5736416.822137,620220.635145,-113.151925,30U,1.945289,5.053485,0.126948,0.006493,-0.010232,1.212297
1403772892843296,1,INS_SOLUTION_GOOD,51.765717,-1.257814,113.143513,5736416.987365,620221.035359,-113.143513,30U,1.937062,5.053248,0.084979,0.011733,-0.008743,1.212592
1403772892968296,1,INS_SOLUTION_GOOD,51.765719,-1.257805,113.1342,5736417.231947,620221.636587,-113.1342,30U,1.916586,5.054767,0.07276,0.015372,-0.007538,1.212574
1403772893030799,1,INS_SOLUTION_GOOD,51.76572,-1.257801,113.130156,5736417.355278,620221.93652,-113.130156,30U,1.957001,5.043117,0.0675,0.013547,-0.007039,1.212679
1403772893093300,1,INS_SOLUTION_GOOD,51.765721,-1.257797,113.125911,5736417.480708,620222.235781,-113.125911,30U,1.979349,5.029943,0.064081,0.011401,-0.006805,1.213045
1403772893218301,1,INS_SOLUTION_GOOD,51.765723,-1.257788,113.121984,5736417.731668,620222.833819,-113.121984,30U,1.957203,5.043877,0.031044,0.00775,-0.008765,1.213359
1403772893280802,1,INS_SOLUTION_GOOD,51.765724,-1.257784,113.119825,5736417.855671,620223.133943,-113.119825,30U,1.935513,5.057004,0.039794,0.00848,-0.010376,1.213087
1403772893343304,1,INS_SOLUTION_GOOD,51.765726,-1.257778,113.116407,5736418.019029,620223.53503,-113.116407,30U,1.906299,5.067442,0.039598,0.013482,-0.013014,1.212513
1403772893405804,1,INS_SOLUTION_GOOD,51.765727,-1.257773,113.114147,5736418.140387,620223.836184,-113.114147,30U,1.905177,5.063852,0.035781,0.016239,-0.015029,1.212228
1403772893530805,1,INS_SOLUTION_GOOD,51.765729,-1.257765,113.109527,5736418.386626,620224.436889,-113.109527,30U,1.960464,5.046598,0.05255,0.019036,-0.017426,1.212958
1403772893593309,1,INS_SOLUTION_GOOD,51.76573,-1.257761,113.132536,5736418.528321,620224.709043,-113.132536,30U,1.970961,5.042689,0.064198,0.017921,-0.017528,1.213609
1403772893718309,1,INS_SOLUTION_GOOD,51.765732,-1.257752,113.122783,5736418.779646,620225.308384,-113.122783,30U,1.974703,5.053211,0.103101,0.013273,-0.016206,1.214031
1403772893780809,1,INS_SOLUTION_GOOD,51.765733,-1.257747,113.115453,5736418.904777,620225.609102,-113.115453,30U,1.951394,5.070644,0.139888,0.012774,-0.014957,1.213756
