timestamp,burst,ins_status,latitude,longitude,altitude,northing,easting,down,utm_zone,velocity_north,velocity_east,velocity_down,roll,pitch,yaw
1403715781950040,1,INS_SOLUTION_GOOD,51.760654,-1.260312,112.54625,5735849.875793,620062.093209,-112.54625,30U,0.127647,0.147415,-0.024102,0.010778,-0.045582,1.669986
1403715782012540,1,INS_SOLUTION_GOOD,51.760654,-1.260312,112.547723,5735849.883669,620062.101514,-112.547723,30U,0.130235,0.135453,-0.024569,0.010602,-0.045866,1.669292
1403715782075042,1,INS_SOLUTION_GOOD,51.760654,-1.260312,112.549213,5735849.891749,620062.109055,-112.549213,30U,0.132296,0.123881,-0.024517,0.010454,-0.046117,1.6687
1403715782137542,1,INS_SOLUTION_GOOD,51.760655,-1.260312,112.550711,5735849.899926,620062.115972,-112.550711,30U,0.133569,0.113092,-0.025442,0.010319,-0.046346,1.668166
1403715782200043,1,INS_SOLUTION_GOOD,51.760655,-1.260312,112.55227,5735849.908087,620062.122267,-112.55227,30U,0.134436,0.102979,-0.026265,0.01019,-0.046588,1.667633
1403715782262547,1,INS_SOLUTION_GOOD,51.760655,-1.260312,112.553869,5735849.916345,620062.127939,-112.553869,30U,0.136174,0.094022,-0.027053,0.010071,-0.046823,1.667106
1403715782325045,1,INS_SOLUTION_GOOD,51.760655,-1.260312,112.555478,5735849.924703,620062.133126,-112.555478,30U,0.138268,0.08541,-0.027039,0.009939,-0.047052,1.66661
1403715782387548,1,INS_SOLUTION_GOOD,51.760655,-1.260312,112.557106,5735849.93316,620062.137826,-112.557106,30U,0.140259,0.078086,-0.027155,0.009776,-0.047274,1.666162
1403715782450049,1,INS_SOLUTION_GOOD,51.760655,-1.260312,112.559289,5735849.944643,620062.143422,-112.559289,30U,0.142333,0.068705,-0.027366,0.00954,-0.047544,1.665648
1403715782512549,1,INS_SOLUTION_GOOD,51.760655,-1.260312,112.56096,5735849.9533,620062.147151,-112.56096,30U,0.143121,0.061717,-0.028608,0.009381,-0.04773,1.665302
1403715782575050,1,INS_SOLUTION_GOOD,51.760655,-1.260312,112.56266,5735849.961947,620062.150466,-112.56266,30U,0.142665,0.055709,-0.02838,0.009244,-0.047916,1.664961
1403715782637553,1,INS_SOLUTION_GOOD,51.760655,-1.260311,112.564403,5735849.970582,620062.153298,-112.564403,30U,0.143105,0.04771,-0.029103,0.009135,-0.048114,1.664619
1403715782700052,1,INS_SOLUTION_GOOD,51.760655,-1.260311,112.566165,5735849.979319,620062.155713,-112.566165,30U,0.144408,0.039929,-0.028955,0.009065,-0.048294,1.664297
1403715782762556,1,INS_SOLUTION_GOOD,51.760655,-1.260311,112.567979,5735849.988042,620062.157577,-112.567979,30U,0.146949,0.029243,-0.030908,0.008994,-0.04847,1.664042
1403715782825056,1,INS_SOLUTION_GOOD,51.760655,-1.260311,112.569852,5735849.996972,620062.158745,-112.569852,30U,0.149535,0.017079,-0.032234,0.008909,-0.048636,1.663859
1403715782887556,1,INS_SOLUTION_GOOD,51.760655,-1.260311,112.5718,5735850.005996,620062.15922,-112.5718,30U,0.15152,0.00343,-0.032305,0.008829,-0.048789,1.663744
1403715782950059,1,INS_SOLUTION_GOOD,51.760655,-1.260311,112.549419,5735850.008361,620062.211709,-112.549419,30U,0.152334,-0.015634,-0.032079,0.008751,-0.04895,1.663681
1403715783012559,1,INS_SOLUTION_GOOD,51.760656,-1.260311,112.551334,5735850.017445,620062.210042,-112.551334,30U,0.153505,-0.032331,-0.03159,0.008749,-0.048984,1.663655
1403715783075062,1,INS_SOLUTION_GOOD,51.760656,-1.260311,112.553197,5735850.026732,620062.207542,-112.553197,30U,0.154453,-0.041101,-0.030383,0.008811,-0.048899,1.663657
1403715783137562,1,INS_SOLUTION_GOOD,51.760656,-1.260311,112.555016,5735850.035906,620062.204976,-112.555016,30U,0.153805,-0.036011,-0.0308,0.008927,-0.04872,1.663654
1403715783200064,1,INS_SOLUTION_GOOD,51.760656,-1.260311,112.556971,5735850.045092,620062.202892,-112.556971,30U,0.153276,-0.026106,-0.034372,0.009039,-0.048615,1.663613
1403715783262563,1,INS_SOLUTION_GOOD,51.760656,-1.260311,112.559167,5735850.054176,620062.201226,-112.559167,30U,0.154232,-0.023248,-0.0385,0.009121,-0.048742,1.663577
1403715783325067,1,INS_SOLUTION_GOOD,51.760656,-1.260311,112.561488,5735850.063481,620062.199484,-112.561488,30U,0.156148,-0.027929,-0.037603,0.009116,-0.04905,1.663599
1403715783387568,1,INS_SOLUTION_GOOD,51.760656,-1.260311,112.563615,5735850.072889,620062.197396,-112.563615,30U,0.158176,-0.033947,-0.033241,0.009065,-0.04922,1.663656
1403715783450069,1,INS_SOLUTION_GOOD,51.760656,-1.260311,112.566084,5735850.085499,620062.194264,-112.566084,30U,0.157683,-0.03566,-0.029991,0.009099,-0.049048,1.663661
1403715783512570,1,INS_SOLUTION_GOOD,51.760656,-1.260311,112.567989,5735850.094791,620062.191971,-112.567989,30U,0.15742,-0.031829,-0.034111,0.009111,-0.048863,1.663588
1403715783575072,1,INS_SOLUTION_GOOD,51.760656,-1.260311,112.570197,5735850.104314,620062.190017,-112.570197,30U,0.159173,-0.02788,-0.038994,0.009079,-0.048923,1.663554
1403715783637574,1,INS_SOLUTION_GOOD,51.760656,-1.260311,112.572555,5735850.113838,620062.188133,-112.572555,30U,0.160425,-0.027838,-0.038949,0.00906,-0.04917,1.663609
1403715783700074,1,INS_SOLUTION_GOOD,51.760657,-1.260311,112.574793,5735850.123359,620062.186111,-112.574793,30U,0.15913,-0.031356,-0.035121,0.009046,-0.049343,1.663681
1403715783762575,1,INS_SOLUTION_GOOD,51.760657,-1.260311,112.576786,5735850.132875,620062.183881,-112.576786,30U,0.157705,-0.034955,-0.031862,0.009055,-0.049276,1.66367
1403715783825077,1,INS_SOLUTION_GOOD,51.760657,-1.260311,112.578739,5735850.142277,620062.181517,-112.578739,30U,0.15869,-0.03628,-0.033805,0.00912,-0.049113,1.663603
1403715783887578,1,INS_SOLUTION_GOOD,51.760657,-1.260311,112.580863,5735850.151789,620062.179149,-112.580863,30U,0.161196,-0.033992,-0.036702,0.009167,-0.049064,1.663577
1403715783950080,1,INS_SOLUTION_GOOD,51.760656,-1.26031,112.435241,5735850.037156,620062.257353,-112.435241,30U,0.157146,-0.024518,-0.029311,0.009121,-0.049216,1.66366
1403715784012580,1,INS_SOLUTION_GOOD,51.760656,-1.26031,112.436966,5735850.046574,620062.255679,-112.436966,30U,0.156438,-0.025301,-0.028182,0.009071,-0.049298,1.663694
1403715784075080,1,INS_SOLUTION_GOOD,51.760656,-1.26031,112.438623,5735850.055875,620062.253799,-112.438623,30U,0.154888,-0.029029,-0.027277,0.00908,-0.049302,1.663678
1403715784137581,1,INS_SOLUTION_GOOD,51.760656,-1.26031,112.440271,5735850.065063,620062.251785,-112.440271,30U,0.154958,-0.031513,-0.027691,0.009107,-0.049249,1.663635
1403715784200083,1,INS_SOLUTION_GOOD,51.760656,-1.26031,112.441946,5735850.07436,620062.249699,-112.441946,30U,0.156533,-0.030506,-0.028176,0.009129,-0.049183,1.663621
1403715784262582,1,INS_SOLUTION_GOOD,51.760656,-1.26031,112.443662,5735850.083769,620062.247679,-112.443662,30U,0.157865,-0.028124,-0.029187,0.00915,-0.049153,1.663651
1403715784325083,1,INS_SOLUTION_GOOD,51.760656,-1.26031,112.445459,5735850.093182,620062.245798,-112.445459,30U,0.157564,-0.027163,-0.030456,0.009145,-0.049198,1.66367
1403715784387584,1,INS_SOLUTION_GOOD,51.760656,-1.26031,112.447308,5735850.102595,620062.243916,-112.447308,30U,0.158057,-0.028417,-0.030602,0.009116,-0.049275,1.663657
1403715784450086,1,INS_SOLUTION_GOOD,51.760656,-1.26031,112.449701,5735850.115215,620062.241198,-112.449701,30U,0.159046,-0.032096,-0.029311,0.009112,-0.049281,1.66364
1403715784512587,1,INS_SOLUTION_GOOD,51.760657,-1.26031,112.451466,5735850.124731,620062.238969,-112.451466,30U,0.159719,-0.033288,-0.029744,0.009113,-0.049204,1.663647
1403715784575089,1,INS_SOLUTION_GOOD,51.760657,-1.26031,112.453304,5735850.134249,620062.236808,-112.453304,30U,0.159952,-0.032345,-0.031334,0.009118,-0.04916,1.663662
1403715784637590,1,INS_SOLUTION_GOOD,51.760657,-1.26031,112.455217,5735850.143767,620062.234648,-112.455217,30U,0.159962,-0.030685,-0.032251,0.009131,-0.049188,1.663653
1403715784700092,1,INS_SOLUTION_GOOD,51.760657,-1.26031,112.45716,5735850.153399,620062.232623,-112.45716,30U,0.160704,-0.030604,-0.032377,0.009137,-0.049248,1.66364
1403715784762594,1,INS_SOLUTION_GOOD,51.760657,-1.26031,112.459107,5735850.163029,620062.230529,-112.459107,30U,0.162046,-0.032326,-0.032646,0.009127,-0.049274,1.66364
1403715784825095,1,INS_SOLUTION_GOOD,51.760657,-1.26031,112.461056,5735850.172657,620062.228297,-112.461056,30U,0.162538,-0.034485,-0.032764,0.009121,-0.049259,1.663657
1403715784887596,1,INS_SOLUTION_GOOD,51.760657,-1.26031,112.463031,5735850.182392,620062.225924,-112.463031,30U,0.162303,-0.035131,-0.033001,0.009115,-0.049217,1.663657
1403715784950097,1,INS_SOLUTION_GOOD,51.760656,-1.260309,112.263623,5735850.024441,620062.330709,-112.263623,30U,0.154115,-0.026846,-0.023847,0.009125,-0.049212,1.663663
1403715785012599,1,INS_SOLUTION_GOOD,51.760656,-1.260309,112.265087,5735850.033633,620062.328902,-112.265087,30U,0.155087,-0.026308,-0.024817,0.009125,-0.049244,1.663663
1403715785075100,1,INS_SOLUTION_GOOD,51.760656,-1.260309,112.266593,5735850.042936,620062.327092,-112.266593,30U,0.155379,-0.027506,-0.02523,0.009129,-0.049289,1.663687
1403715785137603,1,INS_SOLUTION_GOOD,51.760656,-1.260309,112.268095,5735850.052236,620062.325144,-112.268095,30U,0.155344,-0.029163,-0.025071,0.009132,-0.049292,1.663697
1403715785200104,1,INS_SOLUTION_GOOD,51.760656,-1.260309,112.269597,5735850.061535,620062.323127,-112.269597,30U,0.155794,-0.030378,-0.02499,0.009146,-0.049259,1.663681
1403715785262605,1,INS_SOLUTION_GOOD,51.760656,-1.260309,112.271117,5735850.070832,620062.321041,-112.271117,30U,0.156667,-0.030639,-0.025515,0.009157,-0.04923,1.66366
1403715785325108,1,INS_SOLUTION_GOOD,51.760656,-1.260309,112.272654,5735850.080242,620062.319021,-112.272654,30U,0.158073,-0.029741,-0.025662,0.009151,-0.049227,1.663658
1403715785387609,1,INS_SOLUTION_GOOD,51.760656,-1.260309,112.274209,5735850.089653,620062.31707,-112.274209,30U,0.158633,-0.02941,-0.026088,0.009112,-0.049251,1.663674
1403715785450110,1,INS_SOLUTION_GOOD,51.760656,-1.260309,112.276296,5735850.102384,620062.31435,-112.276296,30U,0.158725,-0.030704,-0.026068,0.00911,-0.049276,1.663686
1403715785512611,1,INS_SOLUTION_GOOD,51.760656,-1.260309,112.277867,5735850.111792,620062.312261,-112.277867,30U,0.158357,-0.031908,-0.025965,0.009112,-0.049276,1.66367
1403715785575112,1,INS_SOLUTION_GOOD,51.760656,-1.260309,112.279414,5735850.12131,620062.310101,-112.279414,30U,0.159006,-0.032468,-0.025649,0.009122,-0.049252,1.66366
1403715785637613,1,INS_SOLUTION_GOOD,51.760657,-1.260309,112.280947,5735850.130828,620062.30794,-112.280947,30U,0.159869,-0.032376,-0.025964,0.009143,-0.049228,1.663664
1403715785700118,1,INS_SOLUTION_GOOD,51.760657,-1.260309,112.282533,5735850.140345,620062.30578,-112.282533,30U,0.160231,-0.031901,-0.027191,0.009138,-0.049238,1.663682
1403715785762617,1,INS_SOLUTION_GOOD,51.760657,-1.260309,112.284179,5735850.149863,620062.303619,-112.284179,30U,0.16026,-0.032153,-0.027469,0.009133,-0.049267,1.663688
1403715785825118,1,INS_SOLUTION_GOOD,51.760657,-1.260309,112.285826,5735850.159492,620062.301456,-112.285826,30U,0.160944,-0.032747,-0.027363,0.009158,-0.049281,1.663679
1403715785887622,1,INS_SOLUTION_GOOD,51.760657,-1.260309,112.287482,5735850.169119,620062.299224,-112.287482,30U,0.161838,-0.034036,-0.027719,0.009143,-0.049268,1.663664
1403715785950121,1,INS_SOLUTION_GOOD,51.760657,-1.260308,112.213437,5735850.141221,620062.417133,-112.213437,30U,0.160594,-0.026474,-0.025415,0.009126,-0.04927,1.663726
1403715786012622,1,INS_SOLUTION_GOOD,51.760657,-1.260308,112.214979,5735850.150747,620062.415318,-112.214979,30U,0.160197,-0.025835,-0.025846,0.009145,-0.049262,1.66373
1403715786075124,1,INS_SOLUTION_GOOD,51.760657,-1.260308,112.216545,5735850.160386,620062.413569,-112.216545,30U,0.160339,-0.025673,-0.026293,0.009128,-0.049273,1.663715
1403715786137625,1,INS_SOLUTION_GOOD,51.760657,-1.260308,112.218144,5735850.169912,620062.411754,-112.218144,30U,0.161475,-0.0261,-0.026822,0.009125,-0.049292,1.663703
1403715786200127,1,INS_SOLUTION_GOOD,51.760657,-1.260308,112.219755,5735850.17966,620062.409933,-112.219755,30U,0.162451,-0.027304,-0.026832,0.009154,-0.049301,1.663713
1403715786262628,1,INS_SOLUTION_GOOD,51.760657,-1.260308,112.221363,5735850.189296,620062.408046,-112.221363,30U,0.162493,-0.028073,-0.027167,0.009143,-0.049286,1.663725
1403715786325130,1,INS_SOLUTION_GOOD,51.760657,-1.260308,112.223016,5735850.199042,620062.406156,-112.223016,30U,0.162357,-0.028085,-0.028067,0.009141,-0.049264,1.663719
1403715786387631,1,INS_SOLUTION_GOOD,51.760657,-1.260308,112.224718,5735850.208676,620062.4042,-112.224718,30U,0.162882,-0.027936,-0.028547,0.009167,-0.049269,1.663704
1403715786450134,1,INS_SOLUTION_GOOD,51.760657,-1.260308,112.226996,5735850.221746,620062.401679,-112.226996,30U,0.163997,-0.028096,-0.02847,0.009134,-0.049294,1.6637
1403715786512634,1,INS_SOLUTION_GOOD,51.760657,-1.260308,112.228698,5735850.231491,620062.39972,-112.228698,30U,0.164392,-0.02876,-0.028422,0.009126,-0.0493,1.663716
1403715786575136,1,INS_SOLUTION_GOOD,51.760658,-1.260308,112.230411,5735850.241347,620062.397759,-112.230411,30U,0.164224,-0.029977,-0.028834,0.00914,-0.049289,1.66372
1403715786637637,1,INS_SOLUTION_GOOD,51.760658,-1.260308,112.232156,5735850.2512,620062.39566,-112.232156,30U,0.164043,-0.030548,-0.029121,0.009142,-0.049283,1.663701
1403715786700138,1,INS_SOLUTION_GOOD,51.760658,-1.260308,112.233911,5735850.260943,620062.393632,-112.233911,30U,0.164672,-0.030136,-0.029142,0.00915,-0.049276,1.663688
1403715786762641,1,INS_SOLUTION_GOOD,51.760658,-1.260308,112.235684,5735850.270798,620062.391602,-112.235684,30U,0.165847,-0.030056,-0.029931,0.009163,-0.049277,1.6637
1403715786825142,1,INS_SOLUTION_GOOD,51.760658,-1.260308,112.23748,5735850.280762,620062.3895,-112.23748,30U,0.166104,-0.030711,-0.030107,0.009151,-0.049289,1.663714
1403715786887643,1,INS_SOLUTION_GOOD,51.760658,-1.260308,112.239298,5735850.290616,620062.387469,-112.239298,30U,0.166227,-0.031308,-0.030398,0.009144,-0.049299,1.663711
1403715786950145,1,INS_SOLUTION_GOOD,51.760656,-1.260307,112.02436,5735850.116054,620062.458265,-112.02436,30U,0.158594,-0.027656,-0.018933,0.009163,-0.049302,1.663705
1403715787012646,1,INS_SOLUTION_GOOD,51.760656,-1.260307,112.025507,5735850.125466,620062.456314,-112.025507,30U,0.159402,-0.028057,-0.019469,0.009156,-0.049289,1.663702
1403715787075149,1,INS_SOLUTION_GOOD,51.760657,-1.260307,112.026697,5735850.13499,620062.45443,-112.026697,30U,0.159572,-0.028272,-0.020297,0.009154,-0.049292,1.663718
1403715787137649,1,INS_SOLUTION_GOOD,51.760657,-1.260307,112.027934,5735850.144512,620062.452476,-112.027934,30U,0.159941,-0.0284,-0.020899,0.00916,-0.049302,1.663722
1403715787200151,1,INS_SOLUTION_GOOD,51.760657,-1.260307,112.029193,5735850.154146,620062.45052,-112.029193,30U,0.160513,-0.028876,-0.021287,0.009171,-0.049307,1.663716
1403715787262652,1,INS_SOLUTION_GOOD,51.760657,-1.260307,112.030468,5735850.16378,620062.448564,-112.030468,30U,0.161272,-0.029445,-0.021056,0.009174,-0.049303,1.663708
1403715787325154,1,INS_SOLUTION_GOOD,51.760657,-1.260307,112.031743,5735850.173412,620062.446539,-112.031743,30U,0.162133,-0.029854,-0.021262,0.009176,-0.049297,1.663711
1403715787387655,1,INS_SOLUTION_GOOD,51.760657,-1.260307,112.033033,5735850.183044,620062.444514,-112.033033,30U,0.162568,-0.029857,-0.021776,0.009169,-0.049285,1.663713
1403715787450156,1,INS_SOLUTION_GOOD,51.760657,-1.260307,112.034814,5735850.195998,620062.441789,-112.034814,30U,0.16242,-0.030056,-0.022653,0.009154,-0.049289,1.663705
1403715787512660,1,INS_SOLUTION_GOOD,51.760657,-1.260307,112.036176,5735850.205741,620062.439761,-112.036176,30U,0.162868,-0.030601,-0.022623,0.009155,-0.049298,1.663697
1403715787575159,1,INS_SOLUTION_GOOD,51.760657,-1.260307,112.037543,5735850.215483,620062.437664,-112.037543,30U,0.163333,-0.031465,-0.022757,0.009157,-0.049305,1.6637
1403715787637663,1,INS_SOLUTION_GOOD,51.760657,-1.260307,112.038901,5735850.225223,620062.435498,-112.038901,30U,0.163719,-0.031928,-0.022669,0.00916,-0.049294,1.663702
1403715787700164,1,INS_SOLUTION_GOOD,51.760657,-1.260307,112.040257,5735850.234963,620062.433333,-112.040257,30U,0.164341,-0.032339,-0.022798,0.009158,-0.049282,1.663699
1403715787762664,1,INS_SOLUTION_GOOD,51.760658,-1.260307,112.041635,5735850.244816,620062.431233,-112.041635,30U,0.164586,-0.031944,-0.023418,0.00916,-0.049285,1.66369
1403715787825165,1,INS_SOLUTION_GOOD,51.760658,-1.260307,112.043042,5735850.254667,620062.429065,-112.043042,30U,0.164789,-0.032005,-0.023538,0.009158,-0.049295,1.66369
1403715787887667,1,INS_SOLUTION_GOOD,51.760658,-1.260307,112.04445,5735850.264518,620062.426897,-112.04445,30U,0.165084,-0.032285,-0.023424,0.009163,-0.049302,1.663697
1403715787950169,1,INS_SOLUTION_GOOD,51.760656,-1.260306,111.76094,5735850.042432,620062.543845,-111.76094,30U,0.154825,-0.025263,-0.009477,0.009185,-0.049323,1.663724
1403715788012670,1,INS_SOLUTION_GOOD,51.760656,-1.260306,111.761498,5735850.051626,620062.542107,-111.761498,30U,0.15492,-0.025502,-0.009327,0.009194,-0.04932,1.663713
1403715788075173,1,INS_SOLUTION_GOOD,51.760656,-1.260306,111.76207,5735850.060931,620062.540366,-111.76207,30U,0.15549,-0.025413,-0.009815,0.009201,-0.049313,1.663709
1403715788137673,1,INS_SOLUTION_GOOD,51.760656,-1.260306,111.76268,5735850.070237,620062.538625,-111.76268,30U,0.156218,-0.025395,-0.010303,0.009197,-0.049315,1.663712
1403715788200174,1,INS_SOLUTION_GOOD,51.760656,-1.260306,111.763306,5735850.079542,620062.536884,-111.763306,30U,0.156723,-0.025617,-0.010464,0.009192,-0.049325,1.663718
1403715788262675,1,INS_SOLUTION_GOOD,51.760656,-1.260306,111.763936,5735850.088956,620062.535071,-111.763936,30U,0.157037,-0.026225,-0.010562,0.009188,-0.049329,1.663721
1403715788325177,1,INS_SOLUTION_GOOD,51.760656,-1.260306,111.764568,5735850.098371,620062.533258,-111.764568,30U,0.157394,-0.026567,-0.010494,0.009183,-0.049328,1.663718
1403715788387681,1,INS_SOLUTION_GOOD,51.760656,-1.260306,111.765191,5735850.107786,620062.531446,-111.765191,30U,0.157908,-0.02722,-0.010492,0.009185,-0.049321,1.663714
1403715788450180,1,INS_SOLUTION_GOOD,51.760656,-1.260306,111.766046,5735850.120299,620062.528938,-111.766046,30U,0.158001,-0.027717,-0.010926,0.009191,-0.049317,1.663711
1403715788512683,1,INS_SOLUTION_GOOD,51.760657,-1.260306,111.766696,5735850.129824,620062.527053,-111.766696,30U,0.158507,-0.027997,-0.010956,0.009193,-0.049326,1.663711
1403715788575186,1,INS_SOLUTION_GOOD,51.760657,-1.260306,111.767362,5735850.139235,620062.525103,-111.767362,30U,0.1589,-0.028553,-0.011244,0.009193,-0.049334,1.663707
1403715788637688,1,INS_SOLUTION_GOOD,51.760657,-1.260306,111.768033,5735850.148757,620062.523149,-111.768033,30U,0.158984,-0.029083,-0.011164,0.009193,-0.049335,1.663703
1403715788700186,1,INS_SOLUTION_GOOD,51.760657,-1.260306,111.768703,5735850.15828,620062.521196,-111.768703,30U,0.159423,-0.029483,-0.011212,0.009187,-0.049329,1.663704
1403715788762688,1,INS_SOLUTION_GOOD,51.760657,-1.260306,111.769393,5735850.167801,620062.519173,-111.769393,30U,0.159391,-0.02991,-0.01172,0.009187,-0.049325,1.663707
1403715788825189,1,INS_SOLUTION_GOOD,51.760657,-1.260306,111.77011,5735850.177322,620062.517151,-111.77011,30U,0.159505,-0.029698,-0.012046,0.009188,-0.049325,1.663705
1403715788887690,1,INS_SOLUTION_GOOD,51.760657,-1.260306,111.770843,5735850.186843,620062.515129,-111.770843,30U,0.16013,-0.030118,-0.012291,0.009189,-0.049332,1.663708
1403715788950192,1,INS_SOLUTION_GOOD,51.760656,-1.260305,111.650525,5735850.116821,620062.620992,-111.650525,30U,0.156248,-0.023879,-0.006766,0.009204,-0.04936,1.663732
1403715789012693,1,INS_SOLUTION_GOOD,51.760656,-1.260305,111.650933,5735850.126127,620062.61932,-111.650933,30U,0.156544,-0.024308,-0.007023,0.009204,-0.04936,1.663735
1403715789075195,1,INS_SOLUTION_GOOD,51.760657,-1.260305,111.651365,5735850.135545,620062.617646,-111.651365,30U,0.156739,-0.024413,-0.007202,0.009203,-0.049358,1.663735
1403715789200197,1,INS_SOLUTION_GOOD,51.760657,-1.260305,111.652221,5735850.15438,620062.614227,-111.652221,30U,0.158009,-0.025007,-0.007075,0.009203,-0.049357,1.663735
1403715789262698,1,INS_SOLUTION_GOOD,51.760657,-1.260305,111.652644,5735850.163796,620062.612484,-111.652644,30U,0.158417,-0.025365,-0.0071,0.009201,-0.049361,1.663737
1403715789325200,1,INS_SOLUTION_GOOD,51.760657,-1.260305,111.65307,5735850.173211,620062.610671,-111.65307,30U,0.158603,-0.025736,-0.006981,0.0092,-0.049363,1.663737
1403715789450201,1,INS_SOLUTION_GOOD,51.760657,-1.260305,111.654063,5735850.195365,620062.606483,-111.654063,30U,0.159183,-0.026515,-0.007461,0.009194,-0.049355,1.663735
1403715789512703,1,INS_SOLUTION_GOOD,51.760657,-1.260305,111.654518,5735850.20489,620062.604668,-111.654518,30U,0.159872,-0.026924,-0.007488,0.009195,-0.049359,1.663735
1403715789575204,1,INS_SOLUTION_GOOD,51.760657,-1.260305,111.65499,5735850.214528,620062.60285,-111.65499,30U,0.160327,-0.027311,-0.007811,0.009197,-0.04936,1.66374
1403715789637705,1,INS_SOLUTION_GOOD,51.760657,-1.260305,111.65547,5735850.224052,620062.600965,-111.65547,30U,0.160418,-0.027453,-0.00813,0.009197,-0.04936,1.663738
1403715789700207,1,INS_SOLUTION_GOOD,51.760657,-1.260305,111.655964,5735850.233687,620062.599078,-111.655964,30U,0.160966,-0.027938,-0.008167,0.009195,-0.04936,1.663735
1403715789825208,1,INS_SOLUTION_GOOD,51.760658,-1.260305,111.656934,5735850.252956,620062.595235,-111.656934,30U,0.161276,-0.028556,-0.007984,0.009204,-0.049361,1.663735
1403715789887710,1,INS_SOLUTION_GOOD,51.760658,-1.260305,111.657421,5735850.26259,620062.593279,-111.657421,30U,0.161385,-0.028664,-0.008354,0.009197,-0.049356,1.663735
1403715789950213,1,INS_SOLUTION_GOOD,51.760624,-1.260308,112.05167,5735846.567342,620062.500664,-112.05167,30U,0.020538,-0.022255,-0.008524,0.009465,-0.049453,1.663589
1403715790075213,1,INS_SOLUTION_GOOD,51.760625,-1.260308,112.052683,5735846.569724,620062.497915,-112.052683,30U,0.020822,-0.022304,-0.008523,0.009471,-0.049453,1.663585
1403715790137714,1,INS_SOLUTION_GOOD,51.760625,-1.260308,112.05319,5735846.571027,620062.496572,-112.05319,30U,0.021012,-0.022366,-0.008493,0.00947,-0.049454,1.663583
1403715790200218,1,INS_SOLUTION_GOOD,51.760625,-1.260308,112.053701,5735846.572218,620062.495162,-112.053701,30U,0.021281,-0.02228,-0.008458,0.009478,-0.049449,1.663586
1403715790262717,1,INS_SOLUTION_GOOD,51.760625,-1.260308,112.054224,5735846.573521,620062.493819,-112.054224,30U,0.021736,-0.022745,-0.008834,0.009476,-0.04945,1.663583
1403715790387718,1,INS_SOLUTION_GOOD,51.760625,-1.260308,112.055306,5735846.576013,620062.490998,-112.055306,30U,0.022072,-0.022948,-0.009195,0.009463,-0.049452,1.663577
1403715790450220,1,INS_SOLUTION_GOOD,51.760625,-1.260308,112.056032,5735846.577749,620062.489161,-112.056032,30U,0.022287,-0.022886,-0.009244,0.00946,-0.049447,1.663579
1403715790512722,1,INS_SOLUTION_GOOD,51.760625,-1.260308,112.056594,5735846.579051,620062.487749,-112.056594,30U,0.022494,-0.02324,-0.009513,0.009467,-0.04945,1.663575
1403715790575223,1,INS_SOLUTION_GOOD,51.760625,-1.260308,112.057172,5735846.580462,620062.486266,-112.057172,30U,0.022711,-0.023176,-0.009588,0.009475,-0.049449,1.663575
1403715790700224,1,INS_SOLUTION_GOOD,51.760625,-1.260308,112.058345,5735846.583065,620062.483442,-112.058345,30U,0.023193,-0.023246,-0.010021,0.009473,-0.049446,1.663577
1403715790762726,1,INS_SOLUTION_GOOD,51.760625,-1.260308,112.058951,5735846.584478,620062.482027,-112.058951,30U,0.023356,-0.023473,-0.010417,0.009471,-0.049445,1.66358
1403715790825228,1,INS_SOLUTION_GOOD,51.760625,-1.260308,112.059583,5735846.585778,620062.480546,-112.059583,30U,0.023218,-0.023604,-0.010749,0.009471,-0.049444,1.663573
1403715790887729,1,INS_SOLUTION_GOOD,51.760625,-1.260308,112.060222,5735846.58719,620062.479131,-112.060222,30U,0.023312,-0.023558,-0.011074,0.009476,-0.049444,1.663567
1403715791012730,1,INS_SOLUTION_GOOD,51.760622,-1.260307,111.979848,5735846.334766,620062.574363,-111.979848,30U,0.013649,-0.016736,-0.007101,0.009501,-0.049471,1.663666
1403715791075232,1,INS_SOLUTION_GOOD,51.760622,-1.260307,111.980282,5735846.33552,620062.573309,-111.980282,30U,0.013937,-0.016826,-0.007349,0.009499,-0.049471,1.663668
1403715791137734,1,INS_SOLUTION_GOOD,51.760622,-1.260307,111.980728,5735846.336385,620062.572253,-111.980728,30U,0.014173,-0.016841,-0.007739,0.009499,-0.049474,1.663668
1403715791200236,1,INS_SOLUTION_GOOD,51.760622,-1.260307,111.981203,5735846.33714,620062.571268,-111.981203,30U,0.014625,-0.017052,-0.008225,0.009495,-0.049471,1.663667
1403715791325237,1,INS_SOLUTION_GOOD,51.760622,-1.260307,111.982208,5735846.33887,620062.569156,-111.982208,30U,0.015091,-0.017324,-0.008426,0.009487,-0.049468,1.663666
1403715791387737,1,INS_SOLUTION_GOOD,51.760622,-1.260307,111.982713,5735846.339846,620062.568097,-111.982713,30U,0.015472,-0.017259,-0.00844,0.009493,-0.049467,1.663663
1403715791450238,1,INS_SOLUTION_GOOD,51.760622,-1.260307,111.983394,5735846.341037,620062.566687,-111.983394,30U,0.015583,-0.01735,-0.00855,0.009489,-0.049469,1.663658
1403715791512738,1,INS_SOLUTION_GOOD,51.760622,-1.260307,111.98391,5735846.3419,620062.565562,-111.98391,30U,0.016018,-0.017887,-0.008527,0.009488,-0.04947,1.663654
1403715791637740,1,INS_SOLUTION_GOOD,51.760622,-1.260307,111.984959,5735846.343739,620062.563378,-111.984959,30U,0.016026,-0.018544,-0.008701,0.009489,-0.049476,1.663653
1403715791700242,1,INS_SOLUTION_GOOD,51.760622,-1.260307,111.985484,5735846.344712,620062.562181,-111.985484,30U,0.016172,-0.019032,-0.008745,0.00949,-0.049472,1.66365
1403715791762743,1,INS_SOLUTION_GOOD,51.760622,-1.260307,111.986019,5735846.345687,620062.561053,-111.986019,30U,0.016415,-0.019249,-0.009425,0.009499,-0.049466,1.663652
1403715791825244,1,INS_SOLUTION_GOOD,51.760623,-1.260307,111.986587,5735846.34666,620062.559855,-111.986587,30U,0.016849,-0.019259,-0.00959,0.009497,-0.049468,1.663648
1403715791950246,1,INS_SOLUTION_GOOD,51.760622,-1.260307,111.994765,5735846.330618,620062.559064,-111.994765,30U,0.017429,-0.020281,-0.010004,0.009503,-0.049469,1.663804
1403715792012747,1,INS_SOLUTION_GOOD,51.760622,-1.260307,111.986184,5735846.329508,620062.582498,-111.986184,30U,0.017107,-0.019485,-0.009521,0.009496,-0.049471,1.663804
1403715792075250,1,INS_SOLUTION_GOOD,51.760622,-1.260307,111.986757,5735846.330479,620062.581232,-111.986757,30U,0.017571,-0.019777,-0.009751,0.009489,-0.049468,1.663802
1403715792137750,1,INS_SOLUTION_GOOD,51.760622,-1.260307,111.98735,5735846.331563,620062.580032,-111.98735,30U,0.017721,-0.019867,-0.009988,0.009492,-0.049466,1.663802
1403715792262751,1,INS_SOLUTION_GOOD,51.760622,-1.260307,111.988589,5735846.33362,620062.577636,-111.988589,30U,0.01804,-0.019953,-0.010444,0.009484,-0.049472,1.663802
1403715792325254,1,INS_SOLUTION_GOOD,51.760622,-1.260307,111.989238,5735846.334703,620062.576367,-111.989238,30U,0.01821,-0.020716,-0.011024,0.009485,-0.049475,1.6638
1403715792387757,1,INS_SOLUTION_GOOD,51.760622,-1.260307,111.989902,5735846.335674,620062.575101,-111.989902,30U,0.018202,-0.021258,-0.010908,0.009482,-0.049471,1.6638
1403715792450257,1,INS_SOLUTION_GOOD,51.760622,-1.260307,111.990552,5735846.336755,620062.573763,-111.990552,30U,0.018225,-0.021315,-0.010682,0.009486,-0.049463,1.6638
1403715792575258,1,INS_SOLUTION_GOOD,51.760622,-1.260307,111.992114,5735846.339353,620062.570732,-111.992114,30U,0.019066,-0.021574,-0.011324,0.00948,-0.049476,1.663799
1403715792637759,1,INS_SOLUTION_GOOD,51.760622,-1.260307,111.992794,5735846.340434,620062.569395,-111.992794,30U,0.01923,-0.021745,-0.011196,0.009485,-0.049478,1.663799
1403715792700261,1,INS_SOLUTION_GOOD,51.760622,-1.260307,111.993456,5735846.341514,620062.568057,-111.993456,30U,0.01926,-0.022425,-0.011056,0.009483,-0.049468,1.663794
1403715792762762,1,INS_SOLUTION_GOOD,51.760622,-1.260307,111.994129,5735846.342705,620062.566647,-111.994129,30U,0.019778,-0.022684,-0.011592,0.009483,-0.049465,1.66379
1403715792825262,1,INS_SOLUTION_GOOD,51.760622,-1.260307,111.994822,5735846.343895,620062.565238,-111.994822,30U,0.02004,-0.022632,-0.011746,0.009485,-0.049467,1.663787
1403715792887762,1,INS_SOLUTION_GOOD,51.760622,-1.260307,111.995516,5735846.344976,620062.5639,-111.995516,30U,0.020359,-0.022919,-0.011576,0.009499,-0.049475,1.663788
1403715792950264,1,INS_SOLUTION_GOOD,51.760623,-1.260307,111.998631,5735846.348039,620062.566382,-111.998631,30U,0.020375,-0.022983,-0.011473,0.009498,-0.049487,1.663788
1403715793012764,1,INS_SOLUTION_GOOD,51.760623,-1.260307,111.999318,5735846.34923,620062.564973,-111.999318,30U,0.020781,-0.023606,-0.011731,0.009494,-0.049491,1.663788
1403715793075265,1,INS_SOLUTION_GOOD,51.760623,-1.260307,112.000032,5735846.350418,620062.563494,-112.000032,30U,0.021106,-0.023805,-0.012111,0.009497,-0.049485,1.663789
1403715793137768,1,INS_SOLUTION_GOOD,51.760623,-1.260307,112.000741,5735846.351718,620062.562013,-112.000741,30U,0.02162,-0.023839,-0.011949,0.009502,-0.049474,1.66379
1403715793200267,1,INS_SOLUTION_GOOD,51.760623,-1.260307,112.001475,5735846.352909,620062.560604,-112.001475,30U,0.021732,-0.023367,-0.012767,0.0095,-0.04948,1.66379
1403715793262771,1,INS_SOLUTION_GOOD,51.760623,-1.260307,112.002254,5735846.35421,620062.559192,-112.002254,30U,0.022171,-0.023166,-0.012994,0.009495,-0.049494,1.663791
1403715793325270,1,INS_SOLUTION_GOOD,51.760623,-1.260307,112.003024,5735846.35551,620062.557711,-112.003024,30U,0.022238,-0.023389,-0.01261,0.009496,-0.049503,1.663794
1403715793450273,1,INS_SOLUTION_GOOD,51.760623,-1.260307,112.004812,5735846.358543,620062.554255,-112.004812,30U,0.022325,-0.024704,-0.013305,0.009489,-0.049488,1.663797
1403715793512773,1,INS_SOLUTION_GOOD,51.760623,-1.260307,112.005613,5735846.359841,620062.552705,-112.005613,30U,0.022124,-0.024647,-0.013357,0.009495,-0.049487,1.663795
1403715793575273,1,INS_SOLUTION_GOOD,51.760623,-1.260307,112.006409,5735846.361141,620062.551224,-112.006409,30U,0.02236,-0.025154,-0.013142,0.009489,-0.049493,1.663794
1403715793700274,1,INS_SOLUTION_GOOD,51.760623,-1.260307,112.007998,5735846.363736,620062.548055,-112.007998,30U,0.022451,-0.02614,-0.013247,0.00949,-0.0495,1.663798
1403715793762775,1,INS_SOLUTION_GOOD,51.760623,-1.260307,112.0088,5735846.365034,620062.546505,-112.0088,30U,0.0227,-0.026273,-0.013391,0.009497,-0.049494,1.663795
1403715793825278,1,INS_SOLUTION_GOOD,51.760623,-1.260307,112.009608,5735846.366442,620062.544883,-112.009608,30U,0.023127,-0.02593,-0.013552,0.009489,-0.049488,1.663796
1403715793887778,1,INS_SOLUTION_GOOD,51.760623,-1.260307,112.010438,5735846.367739,620062.543264,-112.010438,30U,0.023321,-0.025918,-0.014077,0.009492,-0.049491,1.663799
1403715793950279,1,INS_SOLUTION_GOOD,51.760621,-1.260306,111.938522,5735846.236458,620062.61862,-111.938522,30U,0.015423,-0.018941,-0.009824,0.009508,-0.049532,1.663792
1403715794012780,1,INS_SOLUTION_GOOD,51.760622,-1.260306,111.939113,5735846.23732,620062.617426,-111.939113,30U,0.015095,-0.019279,-0.0099,0.009507,-0.049533,1.66379
1403715794075282,1,INS_SOLUTION_GOOD,51.760622,-1.260306,111.939718,5735846.238181,620062.616232,-111.939718,30U,0.014924,-0.019976,-0.010239,0.009505,-0.049527,1.663787
1403715794137784,1,INS_SOLUTION_GOOD,51.760622,-1.260306,111.940339,5735846.239153,620062.614966,-111.940339,30U,0.015009,-0.020246,-0.010451,0.00951,-0.049521,1.663791
1403715794200285,1,INS_SOLUTION_GOOD,51.760622,-1.260306,111.940965,5735846.240014,620062.613771,-111.940965,30U,0.014914,-0.020298,-0.010193,0.009513,-0.049523,1.663794
1403715794262786,1,INS_SOLUTION_GOOD,51.760622,-1.260306,111.941573,5735846.240874,620062.612508,-111.941573,30U,0.014866,-0.020493,-0.010269,0.009516,-0.049523,1.663795
1403715794325289,1,INS_SOLUTION_GOOD,51.760622,-1.260306,111.942191,5735846.241734,620062.611245,-111.942191,30U,0.015373,-0.020503,-0.010554,0.009512,-0.049528,1.663784
1403715794387790,1,INS_SOLUTION_GOOD,51.760622,-1.260306,111.942827,5735846.242594,620062.609981,-111.942827,30U,0.015573,-0.021092,-0.01076,0.009513,-0.049529,1.663782
1403715794450291,1,INS_SOLUTION_GOOD,51.760622,-1.260306,111.943678,5735846.243776,620062.608227,-111.943678,30U,0.015963,-0.02146,-0.010878,0.009516,-0.049524,1.663783
1403715794512793,1,INS_SOLUTION_GOOD,51.760622,-1.260306,111.944341,5735846.244748,620062.606961,-111.944341,30U,0.015741,-0.021382,-0.011375,0.009516,-0.049517,1.663782
1403715794575294,1,INS_SOLUTION_GOOD,51.760622,-1.260306,111.945026,5735846.245717,620062.605626,-111.945026,30U,0.015679,-0.021432,-0.011637,0.009524,-0.049517,1.66378
1403715794637796,1,INS_SOLUTION_GOOD,51.760622,-1.260306,111.945723,5735846.246576,620062.604293,-111.945723,30U,0.015881,-0.021586,-0.011826,0.009521,-0.049521,1.66378
1403715794700297,1,INS_SOLUTION_GOOD,51.760622,-1.260306,111.946424,5735846.247547,620062.603027,-111.946424,30U,0.015918,-0.021842,-0.01171,0.009514,-0.049522,1.663782
1403715794762798,1,INS_SOLUTION_GOOD,51.760622,-1.260306,111.947139,5735846.248404,620062.601626,-111.947139,30U,0.016045,-0.02217,-0.011981,0.009522,-0.049521,1.663785
1403715794825300,1,INS_SOLUTION_GOOD,51.760622,-1.260306,111.947855,5735846.249373,620062.600291,-111.947855,30U,0.015705,-0.022285,-0.011781,0.009521,-0.049518,1.663785
1403715794887801,1,INS_SOLUTION_GOOD,51.760622,-1.260306,111.948556,5735846.250231,620062.598958,-111.948556,30U,0.01588,-0.022337,-0.011721,0.009513,-0.049514,1.663779
1403715794950303,1,INS_SOLUTION_GOOD,51.760622,-1.260306,111.947988,5735846.254441,620062.598168,-111.947988,30U,0.016057,-0.022753,-0.012121,0.009518,-0.049513,1.66375
1403715795012804,1,INS_SOLUTION_GOOD,51.760621,-1.260306,111.901848,5735846.189252,620062.650128,-111.901848,30U,0.012606,-0.018056,-0.009307,0.009522,-0.049534,1.663775
1403715795075306,1,INS_SOLUTION_GOOD,51.760621,-1.260306,111.902403,5735846.190005,620062.649005,-111.902403,30U,0.012394,-0.018472,-0.0093,0.009521,-0.049529,1.663774
1403715795137808,1,INS_SOLUTION_GOOD,51.760621,-1.260306,111.902982,5735846.190757,620062.647882,-111.902982,30U,0.013036,-0.018712,-0.009873,0.009526,-0.04952,1.663769
1403715795200309,1,INS_SOLUTION_GOOD,51.760621,-1.260306,111.90357,5735846.191509,620062.64676,-111.90357,30U,0.013156,-0.018722,-0.009745,0.009529,-0.049512,1.663767
1403715795262811,1,INS_SOLUTION_GOOD,51.760621,-1.260306,111.90417,5735846.192261,620062.645637,-111.90417,30U,0.013091,-0.018672,-0.010126,0.009529,-0.049515,1.66377
1403715795325312,1,INS_SOLUTION_GOOD,51.760621,-1.260306,111.904801,5735846.193011,620062.644445,-111.904801,30U,0.012953,-0.018698,-0.010557,0.009529,-0.049521,1.663776
1403715795387814,1,INS_SOLUTION_GOOD,51.760621,-1.260306,111.905444,5735846.193763,620062.643322,-111.905444,30U,0.01282,-0.018991,-0.01063,0.009528,-0.049522,1.663774
1403715795450315,1,INS_SOLUTION_GOOD,51.760621,-1.260306,111.906313,5735846.194728,620062.64178,-111.906313,30U,0.013105,-0.019756,-0.010825,0.009521,-0.049518,1.663767
1403715795512818,1,INS_SOLUTION_GOOD,51.760621,-1.260306,111.906963,5735846.195477,620062.64052,-111.906963,30U,0.013067,-0.019816,-0.010956,0.009523,-0.049523,1.663766
1403715795637820,1,INS_SOLUTION_GOOD,51.760621,-1.260306,111.908313,5735846.196978,620062.638136,-111.908313,30U,0.013254,-0.019994,-0.011695,0.009518,-0.049518,1.663764
1403715795700319,1,INS_SOLUTION_GOOD,51.760621,-1.260306,111.909022,5735846.197838,620062.636873,-111.909022,30U,0.013378,-0.020381,-0.011697,0.009522,-0.049524,1.663766
1403715795762821,1,INS_SOLUTION_GOOD,51.760621,-1.260306,111.909714,5735846.198588,620062.635681,-111.909714,30U,0.013404,-0.020359,-0.011211,0.009527,-0.049527,1.663765
1403715795825322,1,INS_SOLUTION_GOOD,51.760621,-1.260306,111.910387,5735846.199337,620062.63442,-111.910387,30U,0.013757,-0.020772,-0.011147,0.009519,-0.049526,1.663763
1403715795950326,1,INS_SOLUTION_GOOD,51.760621,-1.260306,111.913273,5735846.197826,620062.631694,-111.913273,30U,0.014263,-0.021167,-0.011164,0.009514,-0.049528,1.663794
1403715796012827,1,INS_SOLUTION_GOOD,51.760621,-1.260305,111.875763,5735846.154489,620062.671464,-111.875763,30U,0.01136,-0.017606,-0.008663,0.009521,-0.049546,1.663799
1403715796075326,1,INS_SOLUTION_GOOD,51.760621,-1.260305,111.876281,5735846.155132,620062.670413,-111.876281,30U,0.011322,-0.017877,-0.008667,0.009522,-0.049545,1.663794
1403715796137828,1,INS_SOLUTION_GOOD,51.760621,-1.260305,111.87681,5735846.155884,620062.66929,-111.87681,30U,0.011488,-0.018079,-0.008953,0.009526,-0.049538,1.663791
1403715796262832,1,INS_SOLUTION_GOOD,51.760621,-1.260305,111.877946,5735846.157165,620062.66705,-111.877946,30U,0.011999,-0.018427,-0.009738,0.009511,-0.049536,1.663786
1403715796325331,1,INS_SOLUTION_GOOD,51.760621,-1.260305,111.878534,5735846.157918,620062.665928,-111.878534,30U,0.012116,-0.018829,-0.009839,0.009516,-0.049535,1.663789
1403715796387832,1,INS_SOLUTION_GOOD,51.760621,-1.260305,111.879125,5735846.158558,620062.664808,-111.879125,30U,0.012234,-0.019185,-0.009832,0.009514,-0.049538,1.663791
1403715796450334,1,INS_SOLUTION_GOOD,51.760621,-1.260305,111.879893,5735846.159521,620062.663196,-111.879893,30U,0.012684,-0.019714,-0.009526,0.009517,-0.049539,1.663789
1403715796575335,1,INS_SOLUTION_GOOD,51.760621,-1.260305,111.88103,5735846.161021,620062.660744,-111.88103,30U,0.013199,-0.020389,-0.00952,0.00951,-0.049533,1.663792
1403715796637837,1,INS_SOLUTION_GOOD,51.760621,-1.260305,111.881609,5735846.161769,620062.659483,-111.881609,30U,0.013328,-0.020672,-0.009584,0.009502,-0.049537,1.663794
1403715796700338,1,INS_SOLUTION_GOOD,51.760621,-1.260305,111.882194,5735846.16252,620062.658292,-111.882194,30U,0.013388,-0.020616,-0.009873,0.009505,-0.049537,1.663794
1403715796762840,1,INS_SOLUTION_GOOD,51.760621,-1.260306,111.882783,5735846.16338,620062.657028,-111.882783,30U,0.013315,-0.021027,-0.00969,0.009507,-0.049538,1.663792
1403715796887841,1,INS_SOLUTION_GOOD,51.760621,-1.260306,111.883973,5735846.164874,620062.654369,-111.883973,30U,0.014163,-0.021846,-0.010192,0.009519,-0.049537,1.663786
1403715796950344,1,INS_SOLUTION_GOOD,51.760621,-1.260306,111.885314,5735846.165919,620062.651513,-111.885314,30U,0.014342,-0.022248,-0.010261,0.009508,-0.049539,1.663801
1403715797012844,1,INS_SOLUTION_GOOD,51.76062,-1.260305,111.859263,5735846.125162,620062.687492,-111.859263,30U,0.012169,-0.018924,-0.008542,0.009513,-0.049554,1.66384
1403715797075345,1,INS_SOLUTION_GOOD,51.76062,-1.260305,111.859767,5735846.125913,620062.686301,-111.859767,30U,0.01231,-0.019296,-0.008398,0.009514,-0.049556,1.663837
1403715797200349,1,INS_SOLUTION_GOOD,51.760621,-1.260305,111.860794,5735846.127303,620062.68392,-111.860794,30U,0.012864,-0.019787,-0.008689,0.009518,-0.049552,1.663835
1403715797262848,1,INS_SOLUTION_GOOD,51.760621,-1.260305,111.861322,5735846.128053,620062.682728,-111.861322,30U,0.013099,-0.019566,-0.008939,0.009525,-0.049554,1.663841
1403715797325351,1,INS_SOLUTION_GOOD,51.760621,-1.260305,111.861866,5735846.128803,620062.681537,-111.861866,30U,0.013188,-0.020094,-0.009374,0.009526,-0.049558,1.663838
1403715797387851,1,INS_SOLUTION_GOOD,51.760621,-1.260305,111.862424,5735846.129554,620062.680345,-111.862424,30U,0.013362,-0.020178,-0.009406,0.00953,-0.049562,1.663834
1403715797512853,1,INS_SOLUTION_GOOD,51.760621,-1.260305,111.863739,5735846.131377,620062.67747,-111.863739,30U,0.013929,-0.019847,-0.009938,0.009519,-0.049558,1.663833
1403715797575355,1,INS_SOLUTION_GOOD,51.760621,-1.260305,111.864341,5735846.132239,620062.676276,-111.864341,30U,0.014213,-0.020154,-0.010207,0.00951,-0.049572,1.66384
1403715797637856,1,INS_SOLUTION_GOOD,51.760621,-1.260305,111.864937,5735846.133099,620062.675013,-111.864937,30U,0.014054,-0.020622,-0.009752,0.009509,-0.049581,1.663845
1403715797700358,1,INS_SOLUTION_GOOD,51.760621,-1.260305,111.865513,5735846.133847,620062.673752,-111.865513,30U,0.014,-0.020987,-0.009516,0.009519,-0.049573,1.663841
1403715797825359,1,INS_SOLUTION_GOOD,51.760621,-1.260305,111.866675,5735846.135567,620062.671225,-111.866675,30U,0.014734,-0.02102,-0.009998,0.009527,-0.049557,1.663831
1403715797887860,1,INS_SOLUTION_GOOD,51.760621,-1.260305,111.867287,5735846.136426,620062.669893,-111.867287,30U,0.014728,-0.020896,-0.01021,0.009526,-0.04957,1.663834
1403715797950363,1,INS_SOLUTION_GOOD,51.760621,-1.260305,111.871103,5735846.128875,620062.670556,-111.871103,30U,0.014803,-0.021332,-0.009984,0.009516,-0.049577,1.663912
1403715798012866,1,INS_SOLUTION_GOOD,51.76062,-1.260305,111.848353,5735846.092664,620062.70118,-111.848353,30U,0.012397,-0.019613,-0.008395,0.009517,-0.049581,1.663924
1403715798075367,1,INS_SOLUTION_GOOD,51.76062,-1.260305,111.848849,5735846.093415,620062.699988,-111.848849,30U,0.012574,-0.019816,-0.008318,0.009522,-0.049577,1.663921
1403715798200367,1,INS_SOLUTION_GOOD,51.76062,-1.260305,111.849837,5735846.094916,620062.697605,-111.849837,30U,0.01339,-0.019658,-0.008313,0.009526,-0.049572,1.663929
1403715798262868,1,INS_SOLUTION_GOOD,51.76062,-1.260305,111.850336,5735846.095665,620062.696344,-111.850336,30U,0.013212,-0.019881,-0.008351,0.00953,-0.049582,1.663931
1403715798325372,1,INS_SOLUTION_GOOD,51.76062,-1.260305,111.850832,5735846.096415,620062.695152,-111.850832,30U,0.013325,-0.020342,-0.008169,0.009521,-0.049588,1.663932
1403715798387874,1,INS_SOLUTION_GOOD,51.76062,-1.260305,111.851326,5735846.097275,620062.693889,-111.851326,30U,0.013245,-0.020634,-0.008354,0.009519,-0.049579,1.66393
1403715798512873,1,INS_SOLUTION_GOOD,51.76062,-1.260305,111.852521,5735846.098988,620062.691086,-111.852521,30U,0.012817,-0.015895,-0.007411,0.009532,-0.049539,1.663916
1403715798575374,1,INS_SOLUTION_GOOD,51.76062,-1.260305,111.852846,5735846.099754,620062.690515,-111.852846,30U,0.011155,-0.000226,-0.001948,0.009604,-0.049453,1.663838
1403715798637875,1,INS_SOLUTION_GOOD,51.76062,-1.260305,111.852785,5735846.100328,620062.691261,-111.852785,30U,0.008122,0.025832,0.003025,0.00975,-0.049218,1.663604
1403715798762877,1,INS_SOLUTION_GOOD,51.76062,-1.260305,111.852249,5735846.101264,620062.697867,-111.852249,30U,0.004887,0.084047,0.002743,0.009917,-0.048876,1.662847
1403715798825379,1,INS_SOLUTION_GOOD,51.76062,-1.260305,111.852188,5735846.101627,620062.703728,-111.852188,30U,0.004339,0.109798,-0.001097,0.009789,-0.048999,1.662478
1403715798887880,1,INS_SOLUTION_GOOD,51.76062,-1.260305,111.852399,5735846.10202,620062.710899,-111.852399,30U,0.00362,0.130165,-0.005431,0.009632,-0.049339,1.662081
1403715798950381,1,INS_SOLUTION_GOOD,51.76062,-1.260305,111.854074,5735846.097143,620062.725654,-111.854074,30U,0.000501,0.150657,-0.008009,0.009456,-0.049931,1.661416
1403715799075383,1,INS_SOLUTION_GOOD,51.76062,-1.260304,111.856364,5735846.09819,620062.750901,-111.856364,30U,-0.006551,0.213548,0.004759,0.009398,-0.050445,1.659784
1403715799137884,1,INS_SOLUTION_GOOD,51.76062,-1.260304,111.855779,5735846.097872,620062.765546,-111.855779,30U,-0.014604,0.2756,0.012993,0.009737,-0.050415,1.658499
1403715799200386,1,INS_SOLUTION_GOOD,51.76062,-1.260304,111.854969,5735846.097199,620062.783998,-111.854969,30U,-0.021526,0.339367,0.01298,0.01001,-0.050466,1.656888
1403715799262887,1,INS_SOLUTION_GOOD,51.76062,-1.260303,111.85428,5735846.096398,620062.806389,-111.85428,30U,-0.023333,0.405497,0.009797,0.009951,-0.050819,1.655129
1403715799387889,1,INS_SOLUTION_GOOD,51.76062,-1.260303,111.85339,5735846.094855,620062.862976,-111.85339,30U,-0.028476,0.537298,0.008029,0.010256,-0.05271,1.651157
1403715799450391,1,INS_SOLUTION_GOOD,51.76062,-1.260302,111.85224,5735846.093081,620062.909902,-111.85224,30U,-0.044369,0.63732,0.022043,0.011282,-0.054195,1.647403
1403715799512890,1,INS_SOLUTION_GOOD,51.76062,-1.260301,111.850518,5735846.09116,620062.950617,-111.850518,30U,-0.052403,0.719248,0.034675,0.012284,-0.055031,1.643718
1403715799637890,1,INS_SOLUTION_GOOD,51.76062,-1.2603,111.845359,5735846.087122,620063.047242,-111.845359,30U,-0.050199,0.890338,0.050827,0.014212,-0.056337,1.634568
1403715799700392,1,INS_SOLUTION_GOOD,51.76062,-1.260299,111.84207,5735846.085568,620063.103346,-111.84207,30U,-0.045223,0.977198,0.056944,0.014997,-0.05677,1.629059
1403715799762895,1,INS_SOLUTION_GOOD,51.76062,-1.260298,111.838748,5735846.084359,620063.164621,-111.838748,30U,-0.048324,1.064568,0.054638,0.016143,-0.05718,1.62254
1403715799825395,1,INS_SOLUTION_GOOD,51.76062,-1.260297,111.835318,5735846.08272,620063.231153,-111.835318,30U,-0.057235,1.154716,0.057451,0.017448,-0.057533,1.614563
1403715799950396,1,INS_SOLUTION_GOOD,51.76062,-1.260295,111.833238,5735846.078084,620063.405334,-111.833238,30U,-0.044922,1.380557,0.05879,0.01969,-0.058777,1.590776
1403715800012900,1,INS_SOLUTION_GOOD,51.76062,-1.260293,111.829975,5735846.078015,620063.491024,-111.829975,30U,-0.028016,1.474625,0.049525,0.020743,-0.05976,1.578545
1403715800075400,1,INS_SOLUTION_GOOD,51.76062,-1.260292,111.8272,5735846.078744,620063.582219,-111.8272,30U,-0.020573,1.564858,0.038638,0.023064,-0.061251,1.564566
1403715800137903,1,INS_SOLUTION_GOOD,51.76062,-1.260291,111.825458,5735846.08016,620063.678921,-111.825458,30U,-0.004045,1.660413,0.023562,0.02555,-0.063525,1.548845
1403715800262905,1,INS_SOLUTION_GOOD,51.76062,-1.260288,111.821134,5735846.088415,620063.889666,-111.821134,30U,0.061381,1.853926,0.059786,0.030644,-0.068661,1.513017
1403715800325405,1,INS_SOLUTION_GOOD,51.76062,-1.260286,111.81634,5735846.09657,620064.002986,-111.81634,30U,0.116365,1.921612,0.102605,0.032881,-0.069946,1.493141
1403715800387907,1,INS_SOLUTION_GOOD,51.76062,-1.260284,111.808786,5735846.107248,620064.119422,-111.808786,30U,0.151787,1.966709,0.141907,0.033578,-0.068611,1.471868
1403715800450406,1,INS_SOLUTION_GOOD,51.76062,-1.260282,111.797283,5735846.126301,620064.27909,-111.797283,30U,0.23142,2.037816,0.137797,0.033025,-0.062879,1.440857
1403715800575408,1,INS_SOLUTION_GOOD,51.76062,-1.260278,111.786505,5735846.167992,620064.529499,-111.786505,30U,0.361999,2.163574,0.046926,0.028958,-0.052051,1.389256
1403715800637909,1,INS_SOLUTION_GOOD,51.760621,-1.260276,111.78364,5735846.194717,620064.66095,-111.78364,30U,0.425352,2.237504,0.049124,0.027396,-0.047536,1.360788
1403715800700411,1,INS_SOLUTION_GOOD,51.760621,-1.260274,111.78035,5735846.225541,620064.796309,-111.78035,30U,0.49399,2.298849,0.064934,0.026218,-0.042882,1.330861
1403715800762912,1,INS_SOLUTION_GOOD,51.760621,-1.260272,111.775357,5735846.260574,620064.935502,-111.775357,30U,0.565339,2.371544,0.106605,0.02482,-0.037064,1.299548
1403715800825414,1,INS_SOLUTION_GOOD,51.760622,-1.26027,111.767469,5735846.3005,620065.079274,-111.767469,30U,0.65103,2.453327,0.158613,0.027299,-0.030267,1.266275
1403715800887915,1,INS_SOLUTION_GOOD,51.760622,-1.260268,111.75574,5735846.345778,620065.228166,-111.75574,30U,0.739574,2.549707,0.239587,0.035328,-0.022267,1.231098
1403715800950417,1,INS_SOLUTION_GOOD,51.760623,-1.260265,111.720601,5735846.417051,620065.449905,-111.720601,30U,0.880905,2.686971,0.338974,0.04915,-0.008219,1.182251
1403715801012917,1,INS_SOLUTION_GOOD,51.760623,-1.260263,111.699393,5735846.478115,620065.612161,-111.699393,30U,1.032504,2.763103,0.359359,0.057658,0.002804,1.144432
1403715801075417,1,INS_SOLUTION_GOOD,51.760624,-1.26026,111.678173,5735846.549488,620065.777486,-111.678173,30U,1.22138,2.796672,0.345105,0.063583,0.012227,1.105967
1403715801137919,1,INS_SOLUTION_GOOD,51.760624,-1.260258,111.658229,5735846.632681,620065.94384,-111.658229,30U,1.42136,2.811752,0.313977,0.065852,0.019939,1.067171
1403715801200419,1,INS_SOLUTION_GOOD,51.760625,-1.260255,111.64043,5735846.727792,620066.110738,-111.64043,30U,1.609801,2.827476,0.282781,0.065656,0.026216,1.027752
1403715801262919,1,INS_SOLUTION_GOOD,51.760626,-1.260253,111.624696,5735846.833161,620066.278497,-111.624696,30U,1.768771,2.833851,0.212903,0.062991,0.031693,0.98734
1403715801325421,1,INS_SOLUTION_GOOD,51.760627,-1.26025,111.617178,5735846.947866,620066.445826,-111.617178,30U,1.926389,2.836623,0.04301,0.054173,0.033636,0.946243
1403715801387921,1,INS_SOLUTION_GOOD,51.760628,-1.260248,111.618406,5735847.072678,620066.612361,-111.618406,30U,2.103051,2.80665,-0.09425,0.043763,0.032921,0.905152
1403715801450421,1,INS_SOLUTION_GOOD,51.76063,-1.260245,111.631702,5735847.254939,620066.831659,-111.631702,30U,2.311279,2.783885,-0.223454,0.032331,0.028417,0.85039
1403715801575422,1,INS_SOLUTION_GOOD,51.760632,-1.26024,111.656189,5735847.561419,620067.155294,-111.656189,30U,2.692574,2.721573,-0.051258,0.022861,0.023293,0.769393
1403715801637923,1,INS_SOLUTION_GOOD,51.760634,-1.260238,111.656537,5735847.732168,620067.311757,-111.656537,30U,2.876755,2.635301,0.01205,0.015894,0.026331,0.730723
1403715801700423,1,INS_SOLUTION_GOOD,51.760636,-1.260235,111.654207,5735847.913168,620067.464178,-111.654207,30U,3.028793,2.585934,0.047643,0.012745,0.029311,0.691928
1403715801825425,1,INS_SOLUTION_GOOD,51.760639,-1.260231,111.653519,5735848.300597,620067.762199,-111.653519,30U,3.320673,2.527326,-0.032369,0.012115,0.030121,0.613858
1403715801887924,1,INS_SOLUTION_GOOD,51.760641,-1.260229,111.655868,5735848.508557,620067.906657,-111.655868,30U,3.498036,2.442924,-0.046238,0.010528,0.029019,0.576728
1403715801950424,1,INS_SOLUTION_GOOD,51.760643,-1.260226,111.663227,5735848.802191,620068.088291,-111.663227,30U,3.725608,2.281767,-0.152341,0.012188,0.026325,0.530939
1403715802012925,1,INS_SOLUTION_GOOD,51.760645,-1.260224,111.674064,5735849.033268,620068.217629,-111.674064,30U,3.867492,2.220737,-0.192919,0.013734,0.022463,0.498676
1403715802137926,1,INS_SOLUTION_GOOD,51.76065,-1.26022,111.696024,5735849.519293,620068.464756,-111.696024,30U,4.146152,2.075422,-0.137255,0.018296,0.014104,0.435363
1403715802200426,1,INS_SOLUTION_GOOD,51.760652,-1.260218,111.702001,5735849.77497,620068.580526,-111.702001,30U,4.280995,1.983537,-0.069639,0.022129,0.01163,0.404648
1403715802262930,1,INS_SOLUTION_GOOD,51.760654,-1.260217,111.704757,5735850.03851,620068.690032,-111.704757,30U,4.417668,1.876742,-0.021031,0.024967,0.010294,0.374651
1403715802325428,1,INS_SOLUTION_GOOD,51.760657,-1.260215,111.705656,5735850.309899,620068.792723,-111.705656,30U,4.547148,1.761269,-0.01765,0.026189,0.009631,0.345443
1403715802387928,1,INS_SOLUTION_GOOD,51.760659,-1.260214,111.706674,5735850.589005,620068.887772,-111.706674,30U,4.677019,1.62791,-0.01748,0.025529,0.008672,0.31699
1403715802450429,1,INS_SOLUTION_GOOD,51.760663,-1.260212,111.707423,5735850.972397,620069.002566,-111.707423,30U,4.838017,1.478592,0.004371,0.025367,0.007533,0.279459
1403715802512931,1,INS_SOLUTION_GOOD,51.760665,-1.260211,111.707011,5735851.268136,620069.081199,-111.707011,30U,4.95554,1.373793,0.004738,0.025681,0.007023,0.251076
1403715802575433,1,INS_SOLUTION_GOOD,51.760668,-1.26021,111.706978,5735851.570831,620069.152899,-111.706978,30U,5.078136,1.25604,0.000176,0.025213,0.006268,0.223272
1403715802637934,1,INS_SOLUTION_GOOD,51.760671,-1.260209,111.706856,5735851.880582,620069.217181,-111.706856,30U,5.196177,1.130867,-0.001436,0.024112,0.00528,0.196637
1403715802700436,1,INS_SOLUTION_GOOD,51.760674,-1.260208,111.70718,5735852.197046,620069.273708,-111.70718,30U,5.310121,1.004942,-0.006371,0.02229,0.003779,0.171593
1403715802762937,1,INS_SOLUTION_GOOD,51.760677,-1.260207,111.707059,5735852.520337,620069.322545,-111.707059,30U,5.422718,0.882261,0.017652,0.022315,0.002269,0.148298
1403715802825437,1,INS_SOLUTION_GOOD,51.760679,-1.260206,111.705312,5735852.849806,620069.364538,-111.705312,30U,5.526529,0.776612,0.030695,0.02215,0.001634,0.126978
1403715802887937,1,INS_SOLUTION_GOOD,51.760682,-1.260205,111.703217,5735853.185459,620069.399823,-111.703217,30U,5.629062,0.664536,0.039602,0.020751,0.001317,0.107916
1403715802950441,1,INS_SOLUTION_GOOD,51.760687,-1.260205,111.70012,5735853.641742,620069.435752,-111.70012,30U,5.754002,0.511256,0.033368,0.019087,0.001217,0.086361
1403715803012939,1,INS_SOLUTION_GOOD,51.76069,-1.260204,111.698369,5735853.990156,620069.455611,-111.698369,30U,5.844395,0.430555,0.024697,0.016862,0.000901,0.072917
1403715803075439,1,INS_SOLUTION_GOOD,51.760693,-1.260204,111.697157,5735854.3438,620069.470789,-111.697157,30U,5.92901,0.361343,0.019081,0.014577,0.000257,0.061562
1403715803137941,1,INS_SOLUTION_GOOD,51.760696,-1.260204,111.695744,5735854.702363,620069.482327,-111.695744,30U,6.012587,0.309507,0.028121,0.013174,-0.000213,0.051863
1403715803200440,1,INS_SOLUTION_GOOD,51.760699,-1.260203,111.693228,5735855.065757,620069.491127,-111.693228,30U,6.090432,0.268769,0.052416,0.013311,-0.000294,0.043391
1403715803262941,1,INS_SOLUTION_GOOD,51.760703,-1.260203,111.690425,5735855.433769,620069.497607,-111.690425,30U,6.168419,0.235306,0.044425,0.013772,-0.000199,0.035869
1403715803325444,1,INS_SOLUTION_GOOD,51.760706,-1.260203,111.687768,5735855.806175,620069.501703,-111.687768,30U,6.242603,0.197671,0.042555,0.014121,-0.000291,0.029029
1403715803387944,1,INS_SOLUTION_GOOD,51.760709,-1.260203,111.685291,5735856.182972,620069.503278,-111.685291,30U,6.315291,0.154546,0.040157,0.014961,-0.000277,0.022723
1403715803450446,1,INS_SOLUTION_GOOD,51.760714,-1.260203,111.682538,5735856.691979,620069.501147,-111.682538,30U,6.411092,0.098193,0.033453,0.016338,-0.00069,0.015366
1403715803512947,1,INS_SOLUTION_GOOD,51.760717,-1.260203,111.680304,5735857.078754,620069.496546,-111.680304,30U,6.484502,0.055862,0.040852,0.01636,-0.000849,0.010648
1403715803575448,1,INS_SOLUTION_GOOD,51.760721,-1.260203,111.677745,5735857.469808,620069.489426,-111.677745,30U,6.555316,0.019541,0.04339,0.016794,-0.00085,0.006748
1403715803637950,1,INS_SOLUTION_GOOD,51.760725,-1.260203,111.675123,5735857.865046,620069.480411,-111.675123,30U,6.626504,-0.005134,0.04626,0.016213,-0.000869,0.003553
1403715803700449,1,INS_SOLUTION_GOOD,51.760728,-1.260203,111.672357,5735858.264474,620069.469846,-111.672357,30U,6.695742,-0.029025,0.045753,0.015406,-0.000819,0.000887
1403715803762951,1,INS_SOLUTION_GOOD,51.760732,-1.260203,111.669809,5735858.667989,620069.45801,-111.669809,30U,6.762796,-0.045113,0.035665,0.015298,-0.00088,6.281725
1403715803825452,1,INS_SOLUTION_GOOD,51.760735,-1.260203,111.667486,5735859.075493,620069.445457,-111.667486,30U,6.831319,-0.050292,0.043148,0.015629,-0.000902,6.279354
1403715803887953,1,INS_SOLUTION_GOOD,51.760739,-1.260203,111.665082,5735859.487103,620069.432461,-111.665082,30U,6.897215,-0.05558,0.036597,0.016595,-0.000976,6.276882
1403715803950455,1,INS_SOLUTION_GOOD,51.760744,-1.260203,111.66338,5735860.040005,620069.423275,-111.66338,30U,6.986805,-0.072251,0.048554,0.018231,-0.000806,6.273677
1403715804012957,1,INS_SOLUTION_GOOD,51.760748,-1.260203,111.660444,5735860.460916,620069.408331,-111.660444,30U,7.051739,-0.094877,0.046322,0.019361,-0.000402,6.27126
1403715804075458,1,INS_SOLUTION_GOOD,51.760752,-1.260203,111.65772,5735860.885682,620069.391775,-111.65772,30U,7.119188,-0.120319,0.04903,0.02056,-0.000119,6.268872
1403715804137960,1,INS_SOLUTION_GOOD,51.760756,-1.260203,111.654833,5735861.314304,620069.373609,-111.654833,30U,7.18199,-0.140531,0.042446,0.021387,0.000183,6.266492
1403715804200461,1,INS_SOLUTION_GOOD,51.760759,-1.260203,111.652451,5735861.746682,620069.354249,-111.652451,30U,7.247863,-0.16291,0.041284,0.021416,0.000113,6.264129
1403715804262963,1,INS_SOLUTION_GOOD,51.760763,-1.260203,111.649875,5735862.182916,620069.333346,-111.649875,30U,7.307506,-0.184297,0.041156,0.022069,4.1e-05,6.261808
1403715804325464,1,INS_SOLUTION_GOOD,51.760767,-1.260203,111.647917,5735862.622688,620069.311461,-111.647917,30U,7.368518,-0.19496,0.025243,0.022998,-0.000331,6.259421
1403715804387971,1,INS_SOLUTION_GOOD,51.760771,-1.260204,111.646345,5735863.065999,620069.288664,-111.646345,30U,7.426038,-0.214694,0.028014,0.02319,-0.000809,6.25689
1403715804450471,1,INS_SOLUTION_GOOD,51.760777,-1.260204,111.644314,5735863.662185,620069.256143,-111.644314,30U,7.499444,-0.242491,0.026115,0.023999,-0.001471,6.25365
1403715804512969,1,INS_SOLUTION_GOOD,51.760781,-1.260204,111.642522,5735864.113099,620069.230264,-111.642522,30U,7.55227,-0.260318,0.030699,0.025045,-0.001596,6.251396
1403715804575471,1,INS_SOLUTION_GOOD,51.760785,-1.260204,111.64065,5735864.567102,620069.203206,-111.64065,30U,7.604603,-0.278613,0.030465,0.025802,-0.002074,6.249358
1403715804637972,1,INS_SOLUTION_GOOD,51.760789,-1.260205,111.638579,5735865.02408,620069.174973,-111.638579,30U,7.650145,-0.300446,0.03806,0.026608,-0.002908,6.247563
1403715804700473,1,INS_SOLUTION_GOOD,51.760793,-1.260205,111.636261,5735865.483922,620069.145498,-111.636261,30U,7.69553,-0.313022,0.041191,0.027073,-0.003833,6.246026
1403715804762975,1,INS_SOLUTION_GOOD,51.760797,-1.260205,111.633556,5735865.946191,620069.115136,-111.633556,30U,7.741752,-0.328752,0.047519,0.027478,-0.004661,6.244529
1403715804825479,1,INS_SOLUTION_GOOD,51.760801,-1.260205,111.631337,5735866.410889,620069.084026,-111.631337,30U,7.777656,-0.341261,0.027395,0.027292,-0.006639,6.242819
1403715804887979,1,INS_SOLUTION_GOOD,51.760806,-1.260206,111.62973,5735866.878016,620069.052098,-111.62973,30U,7.811566,-0.352727,0.041446,0.027221,-0.009217,6.240894
1403715804950480,1,INS_SOLUTION_GOOD,51.760811,-1.260206,111.628102,5735867.502212,620069.022983,-111.628102,30U,7.854458,-0.366942,0.081593,0.025921,-0.010955,6.238507
1403715805012984,1,INS_SOLUTION_GOOD,51.760815,-1.260206,111.623297,5735867.973741,620068.989017,-111.623297,30U,7.884432,-0.388096,0.092437,0.024886,-0.010129,6.236682
1403715805075482,1,INS_SOLUTION_GOOD,51.76082,-1.260207,111.617871,5735868.447022,620068.953835,-111.617871,30U,7.918564,-0.408702,0.072781,0.024788,-0.008044,6.23506
1403715805137986,1,INS_SOLUTION_GOOD,51.760824,-1.260207,111.61097,5735868.922386,620068.917361,-111.61097,30U,7.947003,-0.433305,0.137168,0.02309,-0.004757,6.233691
1403715805200488,1,INS_SOLUTION_GOOD,51.760828,-1.260207,111.602726,5735869.399491,620068.879257,-111.602726,30U,7.983381,-0.447658,0.148126,0.022304,-0.000466,6.232848
1403715805262988,1,INS_SOLUTION_GOOD,51.760833,-1.260208,111.595082,5735869.87826,620068.840907,-111.595082,30U,8.002839,-0.453101,0.107188,0.020819,0.002585,6.231965
1403715805325490,1,INS_SOLUTION_GOOD,51.760837,-1.260208,111.591496,5735870.358243,620068.802182,-111.591496,30U,8.028062,-0.463952,0.002695,0.018987,0.002712,6.230973
1403715805387991,1,INS_SOLUTION_GOOD,51.760841,-1.260209,111.592427,5735870.839542,620068.762597,-111.592427,30U,8.051261,-0.477999,-0.033112,0.016906,-1.7e-05,6.229861
1403715805450488,1,INS_SOLUTION_GOOD,51.760847,-1.260209,111.595496,5735871.482617,620068.708657,-111.595496,30U,8.063318,-0.476444,-0.058958,0.020311,-0.003228,6.228497
1403715805512990,1,INS_SOLUTION_GOOD,51.760851,-1.26021,111.599579,5735871.966025,620068.668884,-111.599579,30U,8.078275,-0.465778,-0.056328,0.023406,-0.005844,6.227319
1403715805575489,1,INS_SOLUTION_GOOD,51.760856,-1.26021,111.601761,5735872.450223,620068.629576,-111.601761,30U,8.09091,-0.470249,-0.015034,0.024633,-0.007463,6.225952
1403715805637990,1,INS_SOLUTION_GOOD,51.76086,-1.26021,111.600499,5735872.934947,620068.589011,-111.600499,30U,8.096383,-0.500545,0.053548,0.025901,-0.007474,6.22475
1403715805700492,1,INS_SOLUTION_GOOD,51.760865,-1.260211,111.595795,5735873.419846,620068.546441,-111.595795,30U,8.101931,-0.527493,0.087612,0.025423,-0.006349,6.223872
1403715805762992,1,INS_SOLUTION_GOOD,51.760869,-1.260211,111.591627,5735873.904611,620068.502907,-111.591627,30U,8.099963,-0.532065,0.052598,0.025869,-0.00615,6.222901
1403715805825492,1,INS_SOLUTION_GOOD,51.760873,-1.260212,111.588127,5735874.389497,620068.459784,-111.588127,30U,8.098085,-0.524739,0.063638,0.025704,-0.006442,6.221493
1403715805887994,1,INS_SOLUTION_GOOD,51.760878,-1.260212,111.584267,5735874.874489,620068.416452,-111.584267,30U,8.097859,-0.532663,0.060019,0.025179,-0.006275,6.220063
1403715805950493,1,INS_SOLUTION_GOOD,51.760883,-1.260213,111.582418,5735875.520494,620068.368725,-111.582418,30U,8.097268,-0.551244,0.038711,0.023603,-0.006722,6.218661
1403715806012996,1,INS_SOLUTION_GOOD,51.760888,-1.260213,111.580107,5735876.005218,620068.323466,-111.580107,30U,8.098382,-0.573517,0.049861,0.022405,-0.007158,6.21772
1403715806075496,1,INS_SOLUTION_GOOD,51.760892,-1.260214,111.576248,5735876.48992,620068.27731,-111.576248,30U,8.095463,-0.581612,0.070543,0.023115,-0.006074,6.216923
1403715806137996,1,INS_SOLUTION_GOOD,51.760897,-1.260214,111.572388,5735876.974614,620068.230808,-111.572388,30U,8.095902,-0.579112,0.056504,0.023762,-0.004475,6.216277
1403715806200499,1,INS_SOLUTION_GOOD,51.760901,-1.260215,111.569568,5735877.459314,620068.184583,-111.569568,30U,8.096071,-0.575009,0.039122,0.023186,-0.003594,6.215676
1403715806263004,1,INS_SOLUTION_GOOD,51.760905,-1.260215,111.567082,5735877.94401,620068.13815,-111.567082,30U,8.09993,-0.586907,0.053869,0.02144,-0.003389,6.215072
