timestamp,burst,ins_status,latitude,longitude,altitude,northing,easting,down,utm_zone,velocity_north,velocity_east,velocity_down,roll,pitch,yaw
1403621576149391,1,INS_SOLUTION_GOOD,51.760516,-1.260202,111.709963,5735834.696207,620070.070577,-111.709963,30U,8.151258,-0.565286,0.044797,-0.00018,-0.010739,6.231754
1403621576211891,1,INS_SOLUTION_GOOD,51.760521,-1.260203,111.706652,5735835.183603,620070.025392,-111.706652,30U,8.131734,-0.55285,0.062561,0.000512,-0.010066,6.231794
1403621576274392,1,INS_SOLUTION_GOOD,51.760525,-1.260203,111.702794,5735835.670125,620069.980918,-111.702794,30U,8.118022,-0.544637,0.058668,0.000848,-0.008951,6.231629
1403621576336894,1,INS_SOLUTION_GOOD,51.760529,-1.260204,111.700416,5735836.155647,620069.936468,-111.700416,30U,8.10122,-0.552293,0.02591,0.001228,-0.009078,6.231584
1403621576399394,1,INS_SOLUTION_GOOD,51.760534,-1.260204,111.698888,5735836.640155,620069.89149,-111.698888,30U,8.08687,-0.558519,0.026058,0.002261,-0.01011,6.231757
1403621576461894,1,INS_BAD_GPS_AGREEMENT,51.76054,-1.260205,111.696366,5735837.28487,620069.831642,-111.696366,30U,8.065829,-0.551478,0.041665,0.004023,-0.011347,6.231855
1403621576524398,1,INS_BAD_GPS_AGREEMENT,51.760544,-1.260205,111.694338,5735837.767276,620069.787197,-111.694338,30U,8.049272,-0.546596,0.018156,0.004592,-0.011754,6.231729
1403621576586896,1,INS_BAD_GPS_AGREEMENT,51.760548,-1.260206,111.693334,5735838.248791,620069.742704,-111.693334,30U,8.035495,-0.555174,0.024943,0.00419,-0.012314,6.231691
1403621576649396,1,INS_BAD_GPS_AGREEMENT,51.760553,-1.260206,111.690828,5735838.729518,620069.697816,-111.690828,30U,8.023829,-0.559887,0.058165,0.003311,-0.011583,6.231659
1403621576711898,1,INS_BAD_GPS_AGREEMENT,51.760557,-1.260207,111.686903,5735839.209461,620069.65274,-111.686903,30U,8.014391,-0.557601,0.069874,0.003811,-0.010145,6.231536
1403621576774397,1,INS_BAD_GPS_AGREEMENT,51.760561,-1.260207,111.682405,5735839.689082,620069.608154,-111.682405,30U,8.004084,-0.54623,0.074309,0.003992,-0.008486,6.231304
1403621576836898,1,INS_BAD_GPS_AGREEMENT,51.760565,-1.260208,111.678632,5735840.167933,620069.563933,-111.678632,30U,7.995313,-0.548302,0.054231,0.003309,-0.007436,6.231193
1403621576899400,1,INS_BAD_GPS_AGREEMENT,51.76057,-1.260208,111.675469,5735840.646442,620069.519374,-111.675469,30U,7.987185,-0.553449,0.047309,0.003608,-0.006898,6.231336
1403621576961900,1,INS_BAD_GPS_AGREEMENT,51.760576,-1.260209,111.673287,5735841.283371,620069.459642,-111.673287,30U,7.975943,-0.556777,0.015087,0.0031,-0.006991,6.231679
1403621577024400,1,INS_BAD_GPS_AGREEMENT,51.76058,-1.260209,111.672575,5735841.76065,620069.414837,-111.672575,30U,7.968895,-0.5527,0.008724,0.002889,-0.007246,6.2319
1403621577086904,1,INS_BAD_GPS_AGREEMENT,51.760584,-1.26021,111.672323,5735842.237604,620069.370384,-111.672323,30U,7.96363,-0.552533,0.002456,0.001793,-0.007752,6.23207
1403621577149402,1,INS_BAD_GPS_AGREEMENT,51.760588,-1.26021,111.671684,5735842.714553,620069.325724,-111.671684,30U,7.96412,-0.555615,0.018538,0.001341,-0.008089,6.232234
1403621577211902,1,INS_BAD_GPS_AGREEMENT,51.760593,-1.260211,111.6705,5735843.191283,620069.281208,-111.6705,30U,7.964697,-0.547555,0.023754,0.00212,-0.008336,6.232294
1403621577274404,1,INS_BAD_GPS_AGREEMENT,51.760597,-1.260211,111.669103,5735843.668026,620069.237244,-111.669103,30U,7.961701,-0.54119,0.02,0.002127,-0.008692,6.232301
1403621577336903,1,INS_BAD_GPS_AGREEMENT,51.760601,-1.260212,111.668065,5735844.144656,620069.193213,-111.668065,30U,7.960951,-0.547964,0.020555,0.001145,-0.009588,6.232438
1403621577399402,1,INS_BAD_GPS_AGREEMENT,51.760606,-1.260212,111.666692,5735844.621162,620069.148633,-111.666692,30U,7.957069,-0.556089,0.027068,0.001639,-0.010646,6.232724
1403621577461907,1,INS_BAD_GPS_AGREEMENT,51.760611,-1.260213,111.663957,5735845.256321,620069.089358,-111.663957,30U,7.960408,-0.539673,0.032614,0.004344,-0.011388,6.233018
1403621577524407,1,INS_BAD_GPS_AGREEMENT,51.760616,-1.260211,111.624055,5735845.773419,620069.221125,-111.624055,30U,7.963951,-0.523119,0.039212,0.004954,-0.012629,6.232811
1403621577586907,1,INS_BAD_GPS_AGREEMENT,51.76062,-1.260211,111.621459,5735846.249971,620069.178477,-111.621459,30U,7.954635,-0.52575,0.049546,0.006322,-0.013468,6.232702
1403621577649407,1,INS_BAD_GPS_AGREEMENT,51.760625,-1.260211,111.617511,5735846.726403,620069.135487,-111.617511,30U,7.955262,-0.529972,0.079443,0.006227,-0.012434,6.232676
1403621577711911,1,INS_BAD_GPS_AGREEMENT,51.760629,-1.260212,111.612477,5735847.202603,620069.092088,-111.612477,30U,7.954701,-0.532365,0.082613,0.006351,-0.010379,6.232593
1403621577774411,1,INS_BAD_GPS_AGREEMENT,51.760633,-1.260212,111.608433,5735847.67892,620069.048893,-111.608433,30U,7.953205,-0.527013,0.054759,0.006745,-0.008727,6.232236
1403621577836910,1,INS_BAD_GPS_AGREEMENT,51.760637,-1.260213,111.604344,5735848.155239,620069.005837,-111.604344,30U,7.958224,-0.52814,0.087342,0.007183,-0.007418,6.231855
1403621577899412,1,INS_BAD_GPS_AGREEMENT,51.760642,-1.260213,111.598979,5735848.631443,620068.962576,-111.598979,30U,7.948547,-0.523628,0.074008,0.008898,-0.005981,6.231504
1403621577961910,1,INS_BAD_GPS_AGREEMENT,51.760647,-1.260214,111.596904,5735849.265757,620068.905186,-111.596904,30U,7.942339,-0.530642,-0.008532,0.009523,-0.006547,6.23094
1403621578024411,1,INS_BAD_GPS_AGREEMENT,51.760652,-1.260214,111.597957,5735849.741282,620068.861458,-111.597957,30U,7.942847,-0.548493,-0.024654,0.008753,-0.008071,6.230797
1403621578086911,1,INS_BAD_GPS_AGREEMENT,51.760656,-1.260215,111.599042,5735850.21667,620068.816697,-111.599042,30U,7.93807,-0.561202,-0.009782,0.008849,-0.00963,6.230865
1403621578149413,1,INS_BAD_GPS_AGREEMENT,51.76066,-1.260215,111.599181,5735850.691943,620068.771732,-111.599181,30U,7.938845,-0.55696,0.011607,0.009625,-0.010825,6.23093
1403621578211912,1,INS_BAD_GPS_AGREEMENT,51.760665,-1.260216,111.59774,5735851.167232,620068.727457,-111.59774,30U,7.939016,-0.541907,0.033515,0.01074,-0.011857,6.230822
1403621578274412,1,INS_BAD_GPS_AGREEMENT,51.760669,-1.260216,111.595347,5735851.642647,620068.683801,-111.595347,30U,7.941209,-0.543248,0.047817,0.010359,-0.012483,6.230688
1403621578336915,1,INS_BAD_GPS_AGREEMENT,51.760673,-1.260217,111.591967,5735852.11816,620068.63959,-111.591967,30U,7.943724,-0.553626,0.067095,0.009741,-0.012402,6.230735
1403621578399416,1,INS_BAD_GPS_AGREEMENT,51.760677,-1.260217,111.587759,5735852.593662,620068.594896,-111.587759,30U,7.943581,-0.558559,0.070811,0.009239,-0.011438,6.230828
1403621578461916,1,INS_BAD_GPS_AGREEMENT,51.760683,-1.260218,111.581997,5735853.227809,620068.535162,-111.581997,30U,7.944675,-0.556517,0.066386,0.009496,-0.009952,6.23087
1403621578524420,1,INS_BAD_GPS_AGREEMENT,51.760687,-1.260216,111.63557,5735853.722486,620068.650616,-111.63557,30U,7.953849,-0.534387,0.08108,0.010086,-0.009055,6.230609
1403621578586919,1,INS_BAD_GPS_AGREEMENT,51.760692,-1.260217,111.631358,5735854.198912,620068.607349,-111.631358,30U,7.961648,-0.5348,0.066292,0.010007,-0.008581,6.230531
1403621578649418,1,INS_BAD_GPS_AGREEMENT,51.760696,-1.260217,111.627751,5735854.67533,620068.563738,-111.627751,30U,7.957841,-0.540221,0.052713,0.010411,-0.008293,6.230481
1403621578711920,1,INS_BAD_GPS_AGREEMENT,51.7607,-1.260217,111.625502,5735855.151855,620068.519986,-111.625502,30U,7.960073,-0.538936,0.023701,0.009843,-0.008043,6.230479
1403621578774419,1,INS_BAD_GPS_AGREEMENT,51.760705,-1.260218,111.624309,5735855.628597,620068.475953,-111.624309,30U,7.963083,-0.547366,0.020694,0.008625,-0.007961,6.230544
1403621578836920,1,INS_BAD_GPS_AGREEMENT,51.760709,-1.260218,111.62283,5735856.105552,620068.431569,-111.62283,30U,7.969055,-0.550025,0.026144,0.008647,-0.007703,6.23066
1403621578899422,1,INS_BAD_GPS_AGREEMENT,51.760713,-1.260219,111.621116,5735856.582957,620068.387382,-111.621116,30U,7.977784,-0.541541,0.036891,0.008693,-0.007514,6.2307
1403621578961922,1,INS_BAD_GPS_AGREEMENT,51.760719,-1.26022,111.618033,5735857.220256,620068.329162,-111.618033,30U,7.991228,-0.536537,0.040224,0.008173,-0.007162,6.230737
1403621579024423,1,INS_BAD_GPS_AGREEMENT,51.760723,-1.26022,111.616371,5735857.698895,620068.285359,-111.616371,30U,7.996521,-0.542456,0.017388,0.007372,-0.007309,6.231139
1403621579086924,1,INS_BAD_GPS_AGREEMENT,51.760728,-1.26022,111.615333,5735858.177854,620068.240997,-111.615333,30U,8.005178,-0.550339,0.018536,0.007271,-0.007729,6.23186
1403621579149424,1,INS_BAD_GPS_AGREEMENT,51.760732,-1.260221,111.613765,5735858.657485,620068.196826,-111.613765,30U,8.015725,-0.53606,0.03123,0.008079,-0.007392,6.232588
1403621579211925,1,INS_BAD_GPS_AGREEMENT,51.760736,-1.260221,111.612081,5735859.137806,620068.153605,-111.612081,30U,8.025552,-0.526427,0.026817,0.00825,-0.006749,6.233174
1403621579274428,1,INS_BAD_GPS_AGREEMENT,51.760741,-1.260222,111.610371,5735859.618575,620068.110511,-111.610371,30U,8.034632,-0.527331,0.026467,0.008452,-0.006355,6.233903
1403621579336927,1,INS_BAD_GPS_AGREEMENT,51.760745,-1.260222,111.608822,5735860.099906,620068.067611,-111.608822,30U,8.042472,-0.523878,0.027873,0.008716,-0.006237,6.234635
1403621579399427,1,INS_BAD_GPS_AGREEMENT,51.760749,-1.260223,111.606789,5735860.581801,620068.025043,-111.606789,30U,8.052078,-0.513612,0.037853,0.009558,-0.005847,6.235301
1403621579461929,1,INS_SOLUTION_GOOD,51.760746,-1.260215,113.328321,5735860.201965,620068.549063,-113.328321,30U,8.023608,-0.48084,-0.059771,0.009481,-0.005984,6.236226
1403621579524431,1,INS_SOLUTION_GOOD,51.76075,-1.260216,113.33184,5735860.682688,620068.508664,-113.33184,30U,8.031915,-0.484333,-0.053603,0.009634,-0.006578,6.236937
1403621579586930,1,INS_SOLUTION_GOOD,51.760754,-1.260216,113.334949,5735861.163857,620068.468323,-113.334949,30U,8.041061,-0.478342,-0.041487,0.010886,-0.00678,6.23761
1403621579649432,1,INS_SOLUTION_GOOD,51.760759,-1.260217,113.337172,5735861.645704,620068.428449,-113.337172,30U,8.048712,-0.46845,-0.043315,0.012559,-0.006152,6.238261
1403621579711930,1,INS_SOLUTION_GOOD,51.760763,-1.260217,113.340068,5735862.128121,620068.389113,-113.340068,30U,8.060081,-0.45971,-0.046213,0.013354,-0.006198,6.238885
1403621579774433,1,INS_SOLUTION_GOOD,51.760767,-1.260217,113.342668,5735862.611099,620068.349972,-113.342668,30U,8.071628,-0.46291,-0.039481,0.015416,-0.006328,6.239512
1403621579836931,1,INS_SOLUTION_GOOD,51.760772,-1.260218,113.344779,5735863.094748,620068.310952,-113.344779,30U,8.082219,-0.454453,-0.035167,0.017378,-0.005909,6.240117
1403621579899435,1,INS_SOLUTION_GOOD,51.760776,-1.260218,113.346851,5735863.579184,620068.272328,-113.346851,30U,8.093952,-0.45003,-0.042265,0.018387,-0.005651,6.240553
1403621579961936,1,INS_SOLUTION_GOOD,51.760782,-1.260219,113.352144,5735864.226107,620068.221059,-113.352144,30U,8.110731,-0.448708,-0.074818,0.01956,-0.007723,6.241169
1403621580024434,1,INS_SOLUTION_GOOD,51.760786,-1.260219,113.355364,5735864.712104,620068.182536,-113.355364,30U,8.117788,-0.442518,-0.03259,0.022479,-0.009045,6.241576
1403621580086939,1,INS_SOLUTION_GOOD,51.760791,-1.260219,113.357303,5735865.198678,620068.144897,-113.357303,30U,8.131582,-0.421133,-0.037955,0.024207,-0.009232,6.241618
1403621580149435,1,INS_SOLUTION_GOOD,51.760795,-1.26022,113.360179,5735865.685835,620068.108349,-113.360179,30U,8.141134,-0.423239,-0.051481,0.020465,-0.009538,6.241263
1403621580211941,1,INS_SOLUTION_GOOD,51.7608,-1.26022,113.362324,5735866.173618,620068.070059,-113.362324,30U,8.150518,-0.457893,-0.009848,0.017706,-0.008663,6.24138
1403621580274442,1,INS_SOLUTION_GOOD,51.760804,-1.260221,113.36197,5735866.661817,620068.030586,-113.36197,30U,8.15739,-0.461447,0.017554,0.016971,-0.005857,6.241706
1403621580336938,1,INS_SOLUTION_GOOD,51.760808,-1.260221,113.360932,5735867.150588,620067.991721,-113.360932,30U,8.164252,-0.440866,0.008294,0.017266,-0.002518,6.241782
1403621580399443,1,INS_SOLUTION_GOOD,51.760813,-1.260221,113.361932,5735867.639829,620067.953949,-113.361932,30U,8.173275,-0.437957,-0.03954,0.017094,-0.000877,6.241737
1403621580461941,1,INS_SOLUTION_GOOD,51.760819,-1.260222,113.365872,5735868.292639,620067.902263,-113.365872,30U,8.179798,-0.461831,-0.066252,0.015123,-0.000832,6.242679
1403621580524440,1,INS_SOLUTION_GOOD,51.760827,-1.260222,112.666187,5735869.276502,620067.842334,-112.666187,30U,8.20249,-0.458224,-0.079439,0.014572,-0.002025,6.243293
1403621580586943,1,INS_SOLUTION_GOOD,51.760832,-1.260223,112.671859,5735869.767726,620067.803686,-112.671859,30U,8.202438,-0.438676,-0.106771,0.01419,-0.004025,6.243604
1403621580649443,1,INS_SOLUTION_GOOD,51.760836,-1.260223,112.678334,5735870.259306,620067.765996,-112.678334,30U,8.21311,-0.42912,-0.105931,0.01313,-0.006547,6.243746
1403621580711943,1,INS_SOLUTION_GOOD,51.760841,-1.260224,112.683485,5735870.751331,620067.728296,-112.683485,30U,8.215407,-0.433693,-0.062671,0.012893,-0.008853,6.243965
1403621580774447,1,INS_SOLUTION_GOOD,51.760845,-1.260224,112.686341,5735871.243589,620067.691005,-112.686341,30U,8.220833,-0.424221,-0.035666,0.011185,-0.010241,6.244032
1403621580836944,1,INS_SOLUTION_GOOD,51.76085,-1.260224,112.687484,5735871.73606,620067.653363,-112.687484,30U,8.225186,-0.437563,-0.002903,0.010824,-0.010806,6.244063
1403621580899448,1,INS_SOLUTION_GOOD,51.760854,-1.260225,112.687193,5735872.228749,620067.615509,-112.687193,30U,8.228008,-0.433669,0.012601,0.011784,-0.010359,6.244251
1403621580961946,1,INS_SOLUTION_GOOD,51.76086,-1.260225,112.685116,5735872.885947,620067.565859,-112.685116,30U,8.233315,-0.41437,0.03446,0.014117,-0.008035,6.244317
1403621581024450,1,INS_SOLUTION_GOOD,51.760864,-1.260226,112.68285,5735873.379338,620067.529438,-112.68285,30U,8.244397,-0.411169,0.033045,0.014687,-0.005836,6.244103
1403621581086954,1,INS_SOLUTION_GOOD,51.760869,-1.260226,112.68142,5735873.872943,620067.492667,-112.68142,30U,8.241434,-0.435292,0.014882,0.013708,-0.004669,6.243983
1403621581149449,1,INS_SOLUTION_GOOD,51.760873,-1.260226,112.680666,5735874.366618,620067.454168,-112.680666,30U,8.245411,-0.446462,0.015006,0.015065,-0.00363,6.244306
1403621581211950,1,INS_SOLUTION_GOOD,51.760878,-1.260227,112.681299,5735874.860413,620067.416012,-112.681299,30U,8.242292,-0.432751,-0.03622,0.01615,-0.003165,6.244412
1403621581274451,1,INS_SOLUTION_GOOD,51.760882,-1.260227,112.684163,5735875.354448,620067.378609,-112.684163,30U,8.249426,-0.420411,-0.055196,0.016654,-0.003384,6.244249
1403621581336951,1,INS_SOLUTION_GOOD,51.760887,-1.260227,112.688438,5735875.848601,620067.341479,-112.688438,30U,8.252055,-0.427563,-0.075895,0.014727,-0.004216,6.244096
1403621581399458,1,INS_SOLUTION_GOOD,51.760891,-1.260228,112.691654,5735876.342953,620067.303379,-112.691654,30U,8.254365,-0.447896,-0.048022,0.013478,-0.004644,6.24417
1403621581461954,1,INS_SOLUTION_GOOD,51.760897,-1.260228,112.69625,5735877.002115,620067.252094,-112.69625,30U,8.254393,-0.43137,-0.056692,0.015505,-0.005404,6.244078
1403621581524458,1,INS_BAD_GPS_AGREEMENT,51.760902,-1.260228,112.706401,5735877.532715,620067.273545,-112.706401,30U,8.263067,-0.413798,-0.052055,0.015886,-0.006103,6.243629
1403621581586960,1,INS_BAD_GPS_AGREEMENT,51.760906,-1.260228,112.709112,5735878.027655,620067.236742,-112.709112,30U,8.264159,-0.421075,-0.040726,0.014764,-0.006683,6.243296
1403621581649455,1,INS_BAD_GPS_AGREEMENT,51.760911,-1.260229,112.71124,5735878.522684,620067.199039,-112.71124,30U,8.26673,-0.442893,-0.027344,0.013454,-0.007442,6.243103
1403621581711957,1,INS_BAD_GPS_AGREEMENT,51.760915,-1.260229,112.712461,5735879.017685,620067.160163,-112.712461,30U,8.265242,-0.452835,-0.018546,0.013833,-0.008015,6.242894
1403621581774457,1,INS_BAD_GPS_AGREEMENT,51.76092,-1.260229,112.713622,5735879.512914,620067.121489,-112.713622,30U,8.269084,-0.440338,-0.017039,0.01481,-0.008857,6.242418
1403621581836960,1,INS_BAD_GPS_AGREEMENT,51.760924,-1.26023,112.714361,5735880.008265,620067.083295,-112.714361,30U,8.27261,-0.441198,-0.008382,0.014235,-0.009451,6.241722
1403621581899461,1,INS_BAD_GPS_AGREEMENT,51.760929,-1.26023,112.715061,5735880.503829,620067.044682,-112.715061,30U,8.276023,-0.455981,-0.010496,0.012601,-0.010157,6.240994
1403621581961960,1,INS_BAD_GPS_AGREEMENT,51.760934,-1.260231,112.715654,5735881.16496,620066.991969,-112.715654,30U,8.278088,-0.461996,-0.008152,0.012663,-0.011634,6.240059
1403621582024462,1,INS_BAD_GPS_AGREEMENT,51.760939,-1.260231,112.71586,5735881.660944,620066.952311,-112.71586,30U,8.283201,-0.472652,0.006746,0.009851,-0.012959,6.239393
1403621582086962,1,INS_BAD_GPS_AGREEMENT,51.760943,-1.260231,112.715008,5735882.157016,620066.911683,-112.715008,30U,8.288882,-0.482812,0.004321,0.010757,-0.013694,6.238951
1403621582149461,1,INS_BAD_GPS_AGREEMENT,51.760948,-1.260232,112.714181,5735882.653085,620066.870918,-112.714181,30U,8.28612,-0.479047,0.028428,0.011592,-0.014151,6.238564
1403621582211961,1,INS_BAD_GPS_AGREEMENT,51.760952,-1.260232,112.711601,5735883.149163,620066.830497,-112.711601,30U,8.281645,-0.478703,0.050364,0.012131,-0.012007,6.23807
1403621582274460,1,INS_BAD_GPS_AGREEMENT,51.760957,-1.260233,112.708052,5735883.645346,620066.789867,-112.708052,30U,8.288148,-0.481031,0.089212,0.012941,-0.008542,6.237478
1403621582336961,1,INS_BAD_GPS_AGREEMENT,51.760961,-1.260233,112.703832,5735884.141415,620066.749101,-112.703832,30U,8.280703,-0.488705,0.036367,0.011122,-0.004639,6.236774
1403621582399462,1,INS_BAD_GPS_AGREEMENT,51.760966,-1.260234,112.702157,5735884.63735,620066.707372,-112.702157,30U,8.28383,-0.502851,0.035269,0.01082,-0.002472,6.236079
1403621582461964,1,INS_BAD_GPS_AGREEMENT,51.760972,-1.260234,112.697916,5735885.304481,620066.677647,-112.697916,30U,8.273604,-0.490833,-0.061816,0.011299,-0.000872,6.234833
1403621582524466,1,INS_BAD_GPS_AGREEMENT,51.760976,-1.260234,112.703056,5735885.799753,620066.636141,-112.703056,30U,8.264152,-0.500611,-0.10086,0.010854,-0.002982,6.233912
1403621582586962,1,INS_BAD_GPS_AGREEMENT,51.760981,-1.260235,112.71017,5735886.294556,620066.593611,-112.71017,30U,8.263698,-0.524091,-0.12345,0.010648,-0.00605,6.233089
1403621582649462,1,INS_BAD_GPS_AGREEMENT,51.760985,-1.260235,112.716645,5735886.789222,620066.549979,-112.716645,30U,8.25806,-0.532373,-0.09011,0.010444,-0.008267,6.23219
1403621582711963,1,INS_BAD_GPS_AGREEMENT,51.76099,-1.260236,112.720938,5735887.283548,620066.506148,-112.720938,30U,8.253906,-0.536928,-0.054844,0.010063,-0.009344,6.231025
1403621582774467,1,INS_BAD_GPS_AGREEMENT,51.760994,-1.260236,112.723362,5735887.777537,620066.462118,-112.723362,30U,8.248775,-0.542617,-0.021664,0.008924,-0.009471,6.229657
1403621582836967,1,INS_BAD_GPS_AGREEMENT,51.760998,-1.260236,112.723581,5735888.271178,620066.417543,-112.723581,30U,8.242829,-0.553088,0.011316,0.007346,-0.008937,6.228133
1403621582899466,1,INS_BAD_GPS_AGREEMENT,51.761003,-1.260237,112.722383,5735888.764465,620066.37208,-112.722383,30U,8.235974,-0.568177,0.02556,0.005822,-0.008145,6.226643
1403621582961971,1,INS_BAD_GPS_AGREEMENT,51.761009,-1.260238,112.721397,5735889.421472,620066.309799,-112.721397,30U,8.227606,-0.594923,0.001604,0.004381,-0.007728,6.225052
1403621583024468,1,INS_BAD_GPS_AGREEMENT,51.761013,-1.260238,112.721486,5735889.913705,620066.262151,-112.721486,30U,8.220746,-0.601903,-0.004622,0.003409,-0.007904,6.224121
1403621583086972,1,INS_BAD_GPS_AGREEMENT,51.761018,-1.260239,112.722231,5735890.405708,620066.214164,-112.722231,30U,8.215561,-0.609621,-0.024247,0.00137,-0.008328,6.223176
1403621583149471,1,INS_BAD_GPS_AGREEMENT,51.761022,-1.260239,112.723858,5735890.897474,620066.16563,-112.723858,30U,8.211318,-0.622257,-0.025393,-0.001672,-0.00993,6.222281
1403621583211973,1,INS_BAD_GPS_AGREEMENT,51.761027,-1.26024,112.725781,5735891.388775,620066.116209,-112.725781,30U,8.197522,-0.627413,-0.036327,-0.006343,-0.012343,6.221689
1403621583274471,1,INS_BAD_GPS_AGREEMENT,51.761031,-1.26024,112.727173,5735891.879279,620066.066048,-112.727173,30U,8.187635,-0.647891,-0.016934,-0.0071,-0.013868,6.220824
1403621583336972,1,INS_BAD_GPS_AGREEMENT,51.761035,-1.260241,112.727703,5735892.368901,620066.016253,-112.727703,30U,8.176854,-0.631709,-0.003125,-0.005029,-0.014053,6.219431
1403621583399472,1,INS_BAD_GPS_AGREEMENT,51.76104,-1.260241,112.727774,5735892.857879,620065.96744,-112.727774,30U,8.161749,-0.616847,0.00251,-0.004887,-0.013619,6.217844
1403621583461974,1,INS_BAD_GPS_AGREEMENT,51.761046,-1.260241,112.715994,5735893.52784,620065.981699,-112.715994,30U,8.144274,-0.642559,0.045726,-0.004781,-0.011368,6.215942
1403621583524476,1,INS_BAD_GPS_AGREEMENT,51.76105,-1.260242,112.711853,5735894.014772,620065.931071,-112.711853,30U,8.118993,-0.653226,0.078864,-0.006346,-0.008882,6.214894
1403621583586977,1,INS_BAD_GPS_AGREEMENT,51.761055,-1.260242,112.709455,5735894.500226,620065.879097,-112.709455,30U,8.104091,-0.684025,0.014584,-0.006572,-0.007449,6.213847
1403621583649474,1,INS_BAD_GPS_AGREEMENT,51.761059,-1.260243,112.709904,5735894.984777,620065.826592,-112.709904,30U,8.095123,-0.685467,-0.027308,-0.006015,-0.007687,6.212824
1403621583711976,1,INS_BAD_GPS_AGREEMENT,51.761063,-1.260243,112.711133,5735895.468658,620065.774034,-112.711133,30U,8.07707,-0.68562,-0.026424,-0.006303,-0.008543,6.211869
1403621583774476,1,INS_BAD_GPS_AGREEMENT,51.761068,-1.260244,112.713531,5735895.95142,620065.721158,-112.713531,30U,8.057788,-0.692019,-0.041173,-0.006934,-0.009916,6.211113
1403621583836975,1,INS_BAD_GPS_AGREEMENT,51.761072,-1.260245,112.715575,5735896.433278,620065.667751,-112.715575,30U,8.046041,-0.700599,-0.028271,-0.007603,-0.010687,6.210572
1403621583899478,1,INS_BAD_GPS_AGREEMENT,51.761078,-1.260245,112.717501,5735897.074263,620065.596116,-112.717501,30U,8.022503,-0.709366,-0.024887,-0.00867,-0.011059,6.210274
1403621583961978,1,INS_BAD_GPS_AGREEMENT,51.761082,-1.260246,112.718338,5735897.553883,620065.542141,-112.718338,30U,8.00902,-0.708368,0.006427,-0.009451,-0.01097,6.210471
1403621584024482,1,INS_BAD_GPS_AGREEMENT,51.761086,-1.260247,112.717704,5735898.032616,620065.488325,-112.717704,30U,7.994523,-0.70192,0.017409,-0.008895,-0.01032,6.210726
1403621584086979,1,INS_BAD_GPS_AGREEMENT,51.761091,-1.260247,112.716207,5735898.510481,620065.435427,-112.716207,30U,7.976845,-0.681886,0.017804,-0.008558,-0.009159,6.210849
1403621584149480,1,INS_BAD_GPS_AGREEMENT,51.761095,-1.260248,112.71559,5735898.987473,620065.383241,-112.71559,30U,7.960503,-0.681556,0.004004,-0.009212,-0.008496,6.210914
1403621584211981,1,INS_BAD_GPS_AGREEMENT,51.761099,-1.260248,112.715888,5735899.463456,620065.330733,-112.715888,30U,7.946657,-0.693848,-0.011109,-0.009966,-0.008655,6.211002
1403621584274482,1,INS_BAD_GPS_AGREEMENT,51.761104,-1.260249,112.716591,5735899.938538,620065.277764,-112.716591,30U,7.9289,-0.689745,-0.015088,-0.007332,-0.009484,6.211127
1403621584336983,1,INS_BAD_GPS_AGREEMENT,51.761108,-1.26025,112.717737,5735900.41253,620065.225787,-112.717737,30U,7.91121,-0.668707,-0.013443,-0.007332,-0.010342,6.211021
1403621584399485,1,INS_BAD_GPS_AGREEMENT,51.761112,-1.26025,112.718162,5735900.885532,620065.174249,-112.718162,30U,7.891195,-0.672741,-0.01063,-0.008636,-0.009425,6.210553
1403621584461985,1,INS_BAD_GPS_AGREEMENT,51.761118,-1.260251,112.718278,5735901.51665,620065.113483,-112.718278,30U,7.870288,-0.700611,-0.007109,-0.009227,-0.007134,6.209998
1403621584524485,1,INS_BAD_GPS_AGREEMENT,51.761122,-1.260251,112.718759,5735901.987048,620065.060073,-112.718759,30U,7.853362,-0.703103,-0.003291,-0.009028,-0.005468,6.210015
1403621584586988,1,INS_BAD_GPS_AGREEMENT,51.761126,-1.260252,112.718352,5735902.45679,620065.007162,-112.718352,30U,7.841255,-0.684927,0.00843,-0.008033,-0.003798,6.210036
1403621584649489,1,INS_BAD_GPS_AGREEMENT,51.76113,-1.260253,112.718317,5735902.925556,620064.95531,-112.718317,30U,7.820342,-0.676271,-0.022243,-0.008401,-0.003196,6.210094
1403621584711986,1,INS_BAD_GPS_AGREEMENT,51.761135,-1.260253,112.721838,5735903.39286,620064.902802,-112.721838,30U,7.802399,-0.693157,-0.088967,-0.009297,-0.00474,6.210538
1403621584774487,1,INS_BAD_GPS_AGREEMENT,51.761139,-1.260254,112.727782,5735903.859374,620064.84983,-112.727782,30U,7.787606,-0.694526,-0.101646,-0.008602,-0.007491,6.21113
1403621584836991,1,INS_BAD_GPS_AGREEMENT,51.761143,-1.260254,112.733071,5735904.324908,620064.797779,-112.733071,30U,7.771782,-0.669143,-0.077324,-0.007553,-0.009583,6.211453
1403621584899488,1,INS_BAD_GPS_AGREEMENT,51.761147,-1.260255,112.737597,5735904.789581,620064.746923,-112.737597,30U,7.756439,-0.661373,-0.0664,-0.006966,-0.011034,6.211624
1403621584961989,1,INS_BAD_GPS_AGREEMENT,51.761153,-1.260256,112.74044,5735905.407635,620064.679564,-112.74044,30U,7.734565,-0.655166,-0.007504,-0.006014,-0.010776,6.212008
1403621585024491,1,INS_BAD_GPS_AGREEMENT,51.761157,-1.260256,112.739908,5735905.870093,620064.629175,-112.739908,30U,7.719604,-0.656536,0.016866,-0.005705,-0.008978,6.212253
1403621585086990,1,INS_BAD_GPS_AGREEMENT,51.761161,-1.260257,112.738832,5735906.331661,620064.578737,-112.738832,30U,7.704251,-0.656646,0.016596,-0.006052,-0.007574,6.212469
1403621585149492,1,INS_BAD_GPS_AGREEMENT,51.761165,-1.260257,112.738342,5735906.792224,620064.528186,-112.738342,30U,7.686884,-0.666244,-0.003794,-0.006749,-0.007572,6.212752
1403621585211992,1,INS_BAD_GPS_AGREEMENT,51.761169,-1.260258,112.738533,5735907.251666,620064.477316,-112.738533,30U,7.669527,-0.661453,0.002657,-0.006428,-0.008096,6.213126
1403621585274493,1,INS_BAD_GPS_AGREEMENT,51.761174,-1.260259,112.739088,5735907.710015,620064.427231,-112.739088,30U,7.648088,-0.643042,-0.026133,-0.005697,-0.00835,6.213291
1403621585336992,1,INS_BAD_GPS_AGREEMENT,51.761178,-1.260259,112.741548,5735908.167159,620064.377935,-112.741548,30U,7.625478,-0.637552,-0.055665,-0.005348,-0.008783,6.213474
1403621585399497,1,INS_BAD_GPS_AGREEMENT,51.761182,-1.26026,112.744744,5735908.622857,620064.328674,-112.744744,30U,7.60341,-0.641534,-0.043251,-0.00503,-0.008597,6.213819
1403621585461995,1,INS_BAD_GPS_AGREEMENT,51.761187,-1.26026,112.746661,5735909.228259,620064.262722,-112.746661,30U,7.568509,-0.64888,0.001574,-0.00545,-0.006593,6.214602
1403621585524498,1,INS_BAD_GPS_AGREEMENT,51.761191,-1.260261,112.74665,5735909.680394,620064.213338,-112.74665,30U,7.541153,-0.635968,-0.003506,-0.005462,-0.004396,6.214933
1403621585586995,1,INS_BAD_GPS_AGREEMENT,51.761195,-1.260262,112.747161,5735910.130545,620064.164761,-112.747161,30U,7.505112,-0.623955,-0.014772,-0.005737,-0.002665,6.21508
1403621585649495,1,INS_BAD_GPS_AGREEMENT,51.761199,-1.260262,112.748372,5735910.578708,620064.116853,-112.748372,30U,7.468763,-0.616758,-0.030491,-0.005922,-0.001472,6.215184
1403621585711998,1,INS_BAD_GPS_AGREEMENT,51.761203,-1.260263,112.751562,5735911.024432,620064.06928,-112.751562,30U,7.425953,-0.614899,-0.073479,-0.005748,-0.001454,6.215341
1403621585774502,1,INS_BAD_GPS_AGREEMENT,51.761207,-1.260263,112.756571,5735911.467605,620064.022043,-112.756571,30U,7.381561,-0.608275,-0.089774,-0.005814,-0.002325,6.215568
1403621585836999,1,INS_BAD_GPS_AGREEMENT,51.761211,-1.260264,112.762237,5735911.908003,620063.97508,-112.762237,30U,7.333371,-0.609571,-0.098045,-0.006778,-0.003467,6.215838
1403621585899500,1,INS_BAD_GPS_AGREEMENT,51.761215,-1.260264,112.768366,5735912.345499,620063.927772,-112.768366,30U,7.284223,-0.614265,-0.10303,-0.006552,-0.004767,6.216283
1403621585962002,1,INS_BAD_GPS_AGREEMENT,51.761221,-1.260265,112.776958,5735912.92428,620063.865286,-112.776958,30U,7.225465,-0.607057,-0.109636,-0.009744,-0.00783,6.216971
1403621586024501,1,INS_BAD_GPS_AGREEMENT,51.761224,-1.260265,112.78298,5735913.355114,620063.818551,-112.78298,30U,7.170185,-0.608077,-0.081714,-0.01295,-0.010407,6.217282
1403621586087006,1,INS_BAD_GPS_AGREEMENT,51.761228,-1.260266,112.786529,5735913.782724,620063.771962,-112.786529,30U,7.126394,-0.592788,-0.039672,-0.01088,-0.01045,6.217438
1403621586149505,1,INS_BAD_GPS_AGREEMENT,51.761232,-1.260266,112.788844,5735914.207928,620063.727087,-112.788844,30U,7.083727,-0.565712,-0.034755,-0.009286,-0.009494,6.217605
1403621586212005,1,INS_BAD_GPS_AGREEMENT,51.761236,-1.260267,112.790774,5735914.630487,620063.683311,-112.790774,30U,7.037071,-0.564405,-0.041108,-0.008997,-0.008364,6.217954
1403621586274506,1,INS_BAD_GPS_AGREEMENT,51.76124,-1.260267,112.792881,5735915.050482,620063.639321,-112.792881,30U,6.996083,-0.568339,-0.020238,-0.008374,-0.007418,6.218413
1403621586337007,1,INS_BAD_GPS_AGREEMENT,51.761243,-1.260268,112.79292,5735915.467917,620063.595322,-112.79292,30U,6.954829,-0.569825,0.016185,-0.009469,-0.005846,6.218933
1403621586399508,1,INS_BAD_GPS_AGREEMENT,51.761247,-1.260268,112.791596,5735915.882558,620063.550769,-112.791596,30U,6.901744,-0.581422,0.002394,-0.011507,-0.004023,6.219559
1403621586462006,1,INS_BAD_GPS_AGREEMENT,51.761252,-1.260269,112.795802,5735916.43094,620063.492046,-112.795802,30U,6.846006,-0.551668,-0.081721,-0.011718,-0.004354,6.220092
1403621586524506,1,INS_BAD_GPS_AGREEMENT,51.761256,-1.26027,112.800605,5735916.839407,620063.449918,-112.800605,30U,6.802323,-0.526513,-0.077481,-0.012982,-0.005169,6.220105
1403621586587007,1,INS_BAD_GPS_AGREEMENT,51.761259,-1.26027,112.805609,5735917.245111,620063.408547,-112.805609,30U,6.753678,-0.536104,-0.080299,-0.014795,-0.005816,6.219917
1403621586649508,1,INS_BAD_GPS_AGREEMENT,51.761263,-1.260271,112.810168,5735917.648127,620063.366481,-112.810168,30U,6.714051,-0.538102,-0.076952,-0.013387,-0.005537,6.220105
1403621586712009,1,INS_BAD_GPS_AGREEMENT,51.761267,-1.260271,112.815044,5735918.048483,620063.324823,-112.815044,30U,6.66674,-0.540312,-0.079719,-0.014949,-0.006308,6.220484
1403621586774510,1,INS_BAD_GPS_AGREEMENT,51.76127,-1.260271,112.818683,5735918.445939,620063.282889,-112.818683,30U,6.618555,-0.539845,-0.040488,-0.01392,-0.006084,6.221043
1403621586837013,1,INS_BAD_GPS_AGREEMENT,51.761274,-1.260272,112.821308,5735918.840742,620063.241639,-112.821308,30U,6.576855,-0.518512,-0.049401,-0.011925,-0.005002,6.221451
1403621586899526,1,INS_BAD_GPS_AGREEMENT,51.761277,-1.260272,112.824312,5735919.233019,620063.201831,-112.824312,30U,6.532543,-0.502838,-0.042134,-0.011041,-0.004279,6.221337
1403621586962012,1,INS_BAD_GPS_AGREEMENT,51.761282,-1.260273,112.827724,5735919.751833,620063.148993,-112.827724,30U,6.45737,-0.507775,-0.065092,-0.01041,-0.003301,6.221245
1403621587024516,1,INS_BAD_GPS_AGREEMENT,51.761286,-1.260273,112.832915,5735920.137207,620063.109004,-112.832915,30U,6.421215,-0.509083,-0.086558,-0.007303,-0.003545,6.22125
1403621587087014,1,INS_BAD_GPS_AGREEMENT,51.761289,-1.260274,112.835923,5735920.520027,620063.069215,-112.835923,30U,6.366758,-0.511349,-0.040194,-0.0066,-0.002695,6.221455
1403621587149514,1,INS_BAD_GPS_AGREEMENT,51.761292,-1.260274,112.839376,5735920.899621,620063.029502,-112.839376,30U,6.31566,-0.503451,-0.084359,-0.006884,-0.002344,6.221551
1403621587212016,1,INS_BAD_GPS_AGREEMENT,51.761296,-1.260275,112.845497,5735921.276233,620062.990689,-112.845497,30U,6.267386,-0.491548,-0.104798,-0.007472,-0.003731,6.22122
1403621587274517,1,INS_BAD_GPS_AGREEMENT,51.761299,-1.260275,112.850877,5735921.649622,620062.952022,-112.850877,30U,6.206966,-0.498406,-0.089328,-0.007481,-0.004934,6.220866
1403621587337018,1,INS_BAD_GPS_AGREEMENT,51.761303,-1.260276,112.856398,5735922.019782,620062.913294,-112.856398,30U,6.162954,-0.49478,-0.079507,-0.006419,-0.005719,6.220691
1403621587399521,1,INS_BAD_GPS_AGREEMENT,51.761306,-1.260276,112.860591,5735922.386836,620062.874917,-112.860591,30U,6.10218,-0.488718,-0.080162,-0.0053,-0.00585,6.220473
1403621587462019,1,INS_BAD_GPS_AGREEMENT,51.76131,-1.260277,112.867634,5735922.871225,620062.824971,-112.867634,30U,6.029552,-0.47285,-0.085231,-0.003887,-0.006211,6.219548
1403621587524520,1,INS_BAD_GPS_AGREEMENT,51.761313,-1.260277,112.872893,5735923.232816,620062.790866,-112.872893,30U,5.9794,-0.475265,-0.075783,-0.001939,-0.006165,6.218315
1403621587587020,1,INS_BAD_GPS_AGREEMENT,51.761317,-1.260277,112.876694,5735923.589104,620062.753643,-112.876694,30U,5.921914,-0.48407,-0.048414,-0.000903,-0.00524,6.217557
1403621587649523,1,INS_BAD_GPS_AGREEMENT,51.76132,-1.260278,112.878916,5735923.94181,620062.715539,-112.878916,30U,5.861948,-0.506527,-0.030682,-0.002975,-0.003441,6.217367
1403621587712027,1,INS_BAD_GPS_AGREEMENT,51.761323,-1.260278,112.881045,5735924.290594,620062.676285,-112.881045,30U,5.800764,-0.520068,-0.044912,-0.005402,-0.001358,6.217306
1403621587774525,1,INS_BAD_GPS_AGREEMENT,51.761326,-1.260279,112.884181,5735924.635932,620062.637182,-112.884181,30U,5.738887,-0.508893,-0.060109,-0.00813,-0.000224,6.216745
1403621587837023,1,INS_BAD_GPS_AGREEMENT,51.761329,-1.260279,112.887929,5735924.977501,620062.598653,-112.887929,30U,5.678916,-0.502334,-0.066688,-0.011266,0.000523,6.215849
1403621587899523,1,INS_BAD_GPS_AGREEMENT,51.761332,-1.26028,112.8923,5735925.315629,620062.560482,-112.8923,30U,5.619219,-0.513189,-0.077447,-0.017406,0.000712,6.21514
1403621587962024,1,INS_BAD_GPS_AGREEMENT,51.761336,-1.26028,112.89923,5735925.760554,620062.507404,-112.89923,30U,5.540371,-0.529605,-0.090122,-0.019287,-0.00044,6.215144
1403621588024527,1,INS_BAD_GPS_AGREEMENT,51.761339,-1.260281,112.905526,5735926.090006,620062.469371,-112.905526,30U,5.476697,-0.472158,-0.118353,-0.015876,-0.002298,6.214764
1403621588087027,1,INS_BAD_GPS_AGREEMENT,51.761342,-1.260281,112.912533,5735926.415979,620062.434735,-112.912533,30U,5.418683,-0.427334,-0.116164,-0.011898,-0.0041,6.213735
1403621588149527,1,INS_BAD_GPS_AGREEMENT,51.761345,-1.260281,112.920042,5735926.738428,620062.401634,-112.920042,30U,5.355279,-0.430619,-0.134274,-0.009953,-0.005885,6.212534
1403621588212025,1,INS_BAD_GPS_AGREEMENT,51.761348,-1.260282,112.927853,5735927.057278,620062.366961,-112.927853,30U,5.294266,-0.477089,-0.11902,-0.00943,-0.008029,6.211739
1403621588274529,1,INS_BAD_GPS_AGREEMENT,51.761351,-1.260282,112.934656,5735927.371829,620062.329283,-112.934656,30U,5.221402,-0.522469,-0.11605,-0.008028,-0.010104,6.211749
1403621588337025,1,INS_BAD_GPS_AGREEMENT,51.761354,-1.260283,112.941281,5735927.68223,620062.290255,-112.941281,30U,5.156335,-0.528072,-0.095207,-0.00893,-0.01186,6.212232
1403621588399528,1,INS_BAD_GPS_AGREEMENT,51.761356,-1.260283,112.946105,5735927.988741,620062.251388,-112.946105,30U,5.092936,-0.521578,-0.066929,-0.01315,-0.01253,6.212657
1403621588462029,1,INS_BAD_GPS_AGREEMENT,51.76136,-1.260284,112.949691,5735928.39167,620062.200969,-112.949691,30U,5.007069,-0.48896,-0.025257,-0.016082,-0.012677,6.212299
1403621588524530,1,INS_BAD_GPS_AGREEMENT,51.761363,-1.260284,112.951407,5735928.689829,620062.166514,-112.951407,30U,4.934089,-0.446447,-0.031666,-0.013907,-0.012928,6.211227
1403621588587030,1,INS_BAD_GPS_AGREEMENT,51.761365,-1.260284,112.953541,5735928.98314,620062.134038,-112.953541,30U,4.865426,-0.409165,-0.042665,-0.010137,-0.013339,6.209955
1403621588649532,1,INS_BAD_GPS_AGREEMENT,51.761368,-1.260285,112.956143,5735929.271804,620062.10264,-112.956143,30U,4.783908,-0.413864,-0.040348,-0.007279,-0.013502,6.209263
1403621588712031,1,INS_BAD_GPS_AGREEMENT,51.76137,-1.260285,112.958074,5735929.555431,620062.07005,-112.958074,30U,4.694633,-0.446687,-0.021302,-0.004476,-0.012572,6.209311
1403621588774532,1,INS_BAD_GPS_AGREEMENT,51.761373,-1.260286,112.958901,5735929.833579,620062.036279,-112.958901,30U,4.600279,-0.452518,-0.018306,-0.001377,-0.010588,6.209497
1403621588837035,1,INS_BAD_GPS_AGREEMENT,51.761375,-1.260286,112.960637,5735930.10584,620062.002994,-112.960637,30U,4.503942,-0.439204,-0.039646,-0.000725,-0.008872,6.209142
1403621588899534,1,INS_BAD_GPS_AGREEMENT,51.761378,-1.260286,112.963813,5735930.372447,620061.970534,-112.963813,30U,4.409161,-0.434083,-0.064618,-0.002028,-0.007929,6.208324
1403621588962033,1,INS_BAD_GPS_AGREEMENT,51.761381,-1.260287,112.968786,5735930.719238,620061.927047,-112.968786,30U,4.284602,-0.447653,-0.052643,-0.004884,-0.007273,6.207478
1403621589024536,1,INS_BAD_GPS_AGREEMENT,51.761383,-1.260287,112.970818,5735930.972812,620061.894,-112.970818,30U,4.196574,-0.446121,-0.016823,-0.00456,-0.005849,6.207323
1403621589087039,1,INS_BAD_GPS_AGREEMENT,51.761385,-1.260288,112.971439,5735931.221297,620061.86218,-112.971439,30U,4.110018,-0.416546,-0.008996,-0.004293,-0.003852,6.207218
1403621589149537,1,INS_BAD_GPS_AGREEMENT,51.761388,-1.260288,112.972174,5735931.464819,620061.832204,-112.972174,30U,4.026666,-0.393141,-0.016356,-0.005329,-0.002054,6.206811
1403621589212039,1,INS_BAD_GPS_AGREEMENT,51.76139,-1.260288,112.973788,5735931.703242,620061.80304,-112.973788,30U,3.942238,-0.394814,-0.043094,-0.00597,-0.000853,6.206198
1403621589274537,1,INS_BAD_GPS_AGREEMENT,51.761392,-1.260289,112.97717,5735931.936536,620061.773446,-112.97717,30U,3.857591,-0.404437,-0.07033,-0.004776,-0.000481,6.20572
1403621589337039,1,INS_BAD_GPS_AGREEMENT,51.761394,-1.260289,112.982475,5735932.164605,620061.744046,-112.982475,30U,3.773943,-0.390733,-0.103284,-0.002484,-0.000898,6.205387
1403621589399537,1,INS_BAD_GPS_AGREEMENT,51.761396,-1.260289,112.989001,5735932.388138,620061.715721,-112.989001,30U,3.696747,-0.377803,-0.108186,-0.001789,-0.001951,6.205151
1403621589462040,1,INS_BAD_GPS_AGREEMENT,51.761399,-1.26029,112.997922,5735932.67844,620061.678415,-112.997922,30U,3.586107,-0.383096,-0.116777,-0.00155,-0.003495,6.205151
1403621589524541,1,INS_BAD_GPS_AGREEMENT,51.761401,-1.26029,113.004824,5735932.901223,620061.665298,-113.004824,30U,3.509044,-0.385202,-0.093081,-0.001581,-0.004368,6.205191
1403621589587042,1,INS_BAD_GPS_AGREEMENT,51.761402,-1.26029,113.010087,5735933.108739,620061.637217,-113.010087,30U,3.429093,-0.383841,-0.084765,-0.002321,-0.005014,6.205192
1403621589649542,1,INS_BAD_GPS_AGREEMENT,51.761404,-1.260291,113.015172,5735933.311263,620061.609807,-113.015172,30U,3.345528,-0.366985,-0.086001,-0.001973,-0.005685,6.204939
1403621589712042,1,INS_BAD_GPS_AGREEMENT,51.761406,-1.260291,113.02048,5735933.508924,620061.583756,-113.02048,30U,3.263004,-0.346151,-0.088546,-0.000288,-0.006258,6.204348
1403621589774545,1,INS_BAD_GPS_AGREEMENT,51.761408,-1.260291,113.025486,5735933.701825,620061.558716,-113.025486,30U,3.18528,-0.336125,-0.077816,0.00098,-0.00638,6.203808
1403621589837043,1,INS_BAD_GPS_AGREEMENT,51.761409,-1.260291,113.030242,5735933.890058,620061.533926,-113.030242,30U,3.109059,-0.346927,-0.080911,0.000762,-0.006376,6.203483
1403621589899544,1,INS_BAD_GPS_AGREEMENT,51.761411,-1.260292,113.034902,5735934.073707,620061.508209,-113.034902,30U,3.033042,-0.362079,-0.07138,-0.000139,-0.006646,6.203382
1403621589962045,1,INS_BAD_GPS_AGREEMENT,51.761413,-1.260292,113.040302,5735934.31144,620061.473469,-113.040302,30U,2.932558,-0.358151,-0.065109,-0.001116,-0.006493,6.203016
1403621590024545,1,INS_BAD_GPS_AGREEMENT,51.761415,-1.260292,113.044245,5735934.484644,620061.448347,-113.044245,30U,2.860155,-0.339615,-0.064898,-0.002521,-0.006031,6.202349
1403621590087046,1,INS_BAD_GPS_AGREEMENT,51.761416,-1.260293,113.048269,5735934.653424,620061.424366,-113.048269,30U,2.785068,-0.32784,-0.071189,-0.00421,-0.00573,6.2015
1403621590149547,1,INS_BAD_GPS_AGREEMENT,51.761418,-1.260293,113.052419,5735934.817654,620061.400839,-113.052419,30U,2.709192,-0.325988,-0.063407,-0.004422,-0.005875,6.200811
1403621590212050,1,INS_BAD_GPS_AGREEMENT,51.761419,-1.260293,113.055993,5735934.977331,620061.377766,-113.055993,30U,2.630592,-0.314096,-0.056665,-0.00278,-0.006129,6.200391
1403621590274550,1,INS_BAD_GPS_AGREEMENT,51.761421,-1.260294,113.059199,5735935.132252,620061.355841,-113.059199,30U,2.548835,-0.291718,-0.05309,-0.00063,-0.006501,6.200053
1403621590337051,1,INS_BAD_GPS_AGREEMENT,51.761422,-1.260294,113.062623,5735935.282085,620061.335212,-113.062623,30U,2.462464,-0.28227,-0.058801,0.000339,-0.007078,6.199706
1403621590399549,1,INS_BAD_GPS_AGREEMENT,51.761423,-1.260294,113.066,5735935.426576,620061.314504,-113.066,30U,2.369037,-0.294118,-0.052232,0.000519,-0.007608,6.199355
1403621590462050,1,INS_BAD_GPS_AGREEMENT,51.761425,-1.260294,113.06988,5735935.610164,620061.286234,-113.06988,30U,2.236337,-0.297686,-0.047203,0.000602,-0.007704,6.198729
1403621590524551,1,INS_BAD_GPS_AGREEMENT,51.761426,-1.260294,113.061759,5735935.766873,620061.315983,-113.061759,30U,2.132375,-0.279664,-0.05343,0.000644,-0.007483,6.19784
1403621590587053,1,INS_BAD_GPS_AGREEMENT,51.761428,-1.260294,113.065237,5735935.891036,620061.296726,-113.065237,30U,2.020974,-0.26381,-0.061961,0.00016,-0.007284,6.197053
1403621590649554,1,INS_BAD_GPS_AGREEMENT,51.761429,-1.260294,113.06928,5735936.008436,620061.278528,-113.06928,30U,1.907307,-0.250098,-0.073216,-0.000207,-0.007345,6.196365
1403621590712053,1,INS_BAD_GPS_AGREEMENT,51.76143,-1.260295,113.073876,5735936.118957,620061.261115,-113.073876,30U,1.790096,-0.242721,-0.077069,0.000373,-0.007767,6.195851
1403621590774554,1,INS_BAD_GPS_AGREEMENT,51.761431,-1.260295,113.078334,5735936.222373,620061.244425,-113.078334,30U,1.666762,-0.230824,-0.072108,0.00144,-0.008015,6.195541
1403621590837068,1,INS_BAD_GPS_AGREEMENT,51.761431,-1.260295,113.082464,5735936.318244,620061.228604,-113.082464,30U,1.543502,-0.221712,-0.064728,0.001959,-0.007878,6.195387
1403621590899558,1,INS_BAD_GPS_AGREEMENT,51.761432,-1.260295,113.0861,5735936.406893,620061.213232,-113.0861,30U,1.422447,-0.219738,-0.057311,0.002129,-0.007614,6.195322
1403621590962057,1,INS_BAD_GPS_AGREEMENT,51.761433,-1.260295,113.090366,5735936.514015,620061.193277,-113.090366,30U,1.269311,-0.212971,-0.048875,0.002072,-0.007662,6.195201
1403621591024559,1,INS_BAD_GPS_AGREEMENT,51.761434,-1.260296,113.093338,5735936.586336,620061.179123,-113.093338,30U,1.1505,-0.200363,-0.049986,0.001486,-0.007806,6.194987
1403621591087062,1,INS_BAD_GPS_AGREEMENT,51.761434,-1.260296,113.096422,5735936.651449,620061.16597,-113.096422,30U,1.030003,-0.188833,-0.052704,0.000444,-0.007689,6.194726
1403621591149558,1,INS_BAD_GPS_AGREEMENT,51.761435,-1.260296,113.099711,5735936.709345,620061.153473,-113.099711,30U,0.910519,-0.180848,-0.0575,-0.000733,-0.007185,6.194577
1403621591212059,1,INS_BAD_GPS_AGREEMENT,51.761435,-1.260296,113.103394,5735936.760135,620061.141628,-113.103394,30U,0.79654,-0.171947,-0.065725,-0.001605,-0.006578,6.194589
1403621591274559,1,INS_BAD_GPS_AGREEMENT,51.761436,-1.260296,113.107587,5735936.804493,620061.130696,-113.107587,30U,0.690932,-0.157781,-0.073513,-0.002254,-0.006259,6.194633
1403621591337061,1,INS_BAD_GPS_AGREEMENT,51.761436,-1.260296,113.112017,5735936.842757,620061.120807,-113.112017,30U,0.592748,-0.141509,-0.073078,-0.002692,-0.006272,6.194572
1403621591399560,1,INS_BAD_GPS_AGREEMENT,51.761436,-1.260297,113.1162,5735936.87548,620061.111879,-113.1162,30U,0.50592,-0.130451,-0.065032,-0.002848,-0.006386,6.19439
1403621591462063,1,INS_BAD_GPS_AGREEMENT,51.761437,-1.260297,113.120925,5735936.911604,620061.100936,-113.120925,30U,0.407265,-0.124139,-0.053877,-0.002736,-0.006335,6.194138
1403621591524562,1,INS_BAD_GPS_AGREEMENT,51.761437,-1.260296,113.111247,5735936.950434,620061.161461,-113.111247,30U,0.348161,-0.116188,-0.048992,-0.002632,-0.006114,6.193901
1403621591587065,1,INS_BAD_GPS_AGREEMENT,51.761437,-1.260296,113.114145,5735936.96951,620061.154171,-113.114145,30U,0.295985,-0.113125,-0.047909,-0.002573,-0.005786,6.193874
1403621591649565,1,INS_BAD_GPS_AGREEMENT,51.761437,-1.260296,113.117042,5735936.985698,620061.147087,-113.117042,30U,0.249271,-0.108715,-0.049395,-0.002649,-0.005416,6.193891
1403621591712064,1,INS_BAD_GPS_AGREEMENT,51.761438,-1.260296,113.120109,5735936.999113,620061.140415,-113.120109,30U,0.20532,-0.104153,-0.052934,-0.002834,-0.005072,6.1939
1403621591774565,1,INS_BAD_GPS_AGREEMENT,51.761438,-1.260296,113.123381,5735937.010088,620061.134008,-113.123381,30U,0.162789,-0.100498,-0.056121,-0.002927,-0.004826,6.193879
1403621591837066,1,INS_BAD_GPS_AGREEMENT,51.761438,-1.260296,113.126875,5735937.018399,620061.12794,-113.126875,30U,0.12038,-0.095531,-0.060076,-0.002914,-0.004701,6.193829
1403621591899569,1,INS_BAD_GPS_AGREEMENT,51.761438,-1.260296,113.130563,5735937.024158,620061.122141,-113.130563,30U,0.075481,-0.091051,-0.062807,-0.002897,-0.004707,6.19376
1403621591962070,1,INS_BAD_GPS_AGREEMENT,51.761438,-1.260296,113.135739,5735937.027217,620061.115095,-113.135739,30U,0.003884,-0.085006,-0.065977,-0.002876,-0.00491,6.193718
1403621592024570,1,INS_BAD_GPS_AGREEMENT,51.761438,-1.260297,113.139725,5735937.02543,620061.110166,-113.139725,30U,-0.063662,-0.079142,-0.066756,-0.002804,-0.005151,6.193728
1403621592087071,1,INS_BAD_GPS_AGREEMENT,51.761438,-1.260297,113.143619,5735937.019428,620061.105752,-113.143619,30U,-0.125822,-0.073993,-0.062899,-0.002726,-0.005231,6.193758
1403621592149573,1,INS_BAD_GPS_AGREEMENT,51.761438,-1.260297,113.14723,5735937.011093,620061.101532,-113.14723,30U,-0.141222,-0.072876,-0.058476,-0.002698,-0.004864,6.193757
1403621592212074,1,INS_BAD_GPS_AGREEMENT,51.761438,-1.260297,113.15083,5735937.003092,620061.097304,-113.15083,30U,-0.116817,-0.076109,-0.062344,-0.002653,-0.004128,6.193731
1403621592274572,1,INS_BAD_GPS_AGREEMENT,51.761438,-1.260297,113.154747,5735936.997197,620061.092749,-113.154747,30U,-0.076149,-0.080287,-0.068966,-0.002623,-0.003318,6.193681
1403621592337072,1,INS_BAD_GPS_AGREEMENT,51.761437,-1.260297,113.159159,5735936.993188,620061.087942,-113.159159,30U,-0.059466,-0.083467,-0.076396,-0.002647,-0.002856,6.19365
1403621592399573,1,INS_BAD_GPS_AGREEMENT,51.761437,-1.260297,113.163763,5735936.989174,620061.082929,-113.163763,30U,-0.074039,-0.084382,-0.075264,-0.002656,-0.002964,6.193678
1403621592462075,1,INS_BAD_GPS_AGREEMENT,51.761437,-1.260297,113.169151,5735936.98201,620061.076471,-113.169151,30U,-0.100029,-0.081723,-0.058461,-0.002694,-0.003521,6.193769
1403621592524575,1,INS_BAD_GPS_AGREEMENT,51.761438,-1.260295,113.154726,5735937.04985,620061.196306,-113.154726,30U,-0.097097,-0.067422,-0.048669,-0.002771,-0.003567,6.19345
1403621592587076,1,INS_BAD_GPS_AGREEMENT,51.761438,-1.260295,113.157688,5735937.044195,620061.192436,-113.157688,30U,-0.086341,-0.066628,-0.052059,-0.002828,-0.003237,6.19337
1403621592649576,1,INS_BAD_GPS_AGREEMENT,51.761438,-1.260295,113.161144,5735937.039425,620061.188407,-113.161144,30U,-0.073047,-0.070278,-0.063889,-0.002803,-0.002922,6.193286
1403621592712077,1,INS_BAD_GPS_AGREEMENT,51.761438,-1.260295,113.165331,5735937.034986,620061.184232,-113.165331,30U,-0.071509,-0.073903,-0.074314,-0.002722,-0.003017,6.193308
1403621592774581,1,INS_BAD_GPS_AGREEMENT,51.761438,-1.260296,113.1698,5735937.030431,620061.179853,-113.1698,30U,-0.079107,-0.073989,-0.072418,-0.002688,-0.003438,6.193404
1403621592837079,1,INS_BAD_GPS_AGREEMENT,51.761438,-1.260296,113.173872,5735937.025323,620061.175625,-113.173872,30U,-0.086734,-0.070516,-0.063149,-0.002735,-0.003694,6.193449
1403621592899582,1,INS_BAD_GPS_AGREEMENT,51.761438,-1.260296,113.177403,5735937.019886,620061.171612,-113.177403,30U,-0.088886,-0.069744,-0.05584,-0.002756,-0.003547,6.193399
1403621592962080,1,INS_BAD_GPS_AGREEMENT,51.761438,-1.260296,113.182027,5735937.012855,620061.166048,-113.182027,30U,-0.084081,-0.072837,-0.061918,-0.002732,-0.003169,6.193295
1403621593024581,1,INS_BAD_GPS_AGREEMENT,51.761438,-1.260296,113.185976,5735937.007855,620061.16168,-113.185976,30U,-0.079053,-0.076497,-0.06922,-0.002773,-0.003183,6.1933
1403621593087084,1,INS_BAD_GPS_AGREEMENT,51.761438,-1.260296,113.190185,5735937.003074,620061.157168,-113.190185,30U,-0.078315,-0.076676,-0.069645,-0.002856,-0.003411,6.193373
1403621593149583,1,INS_BAD_GPS_AGREEMENT,51.761438,-1.260296,113.194206,5735936.998185,620061.152796,-113.194206,30U,-0.081687,-0.072876,-0.064062,-0.002877,-0.003566,6.193423
1403621593212087,1,INS_BAD_GPS_AGREEMENT,51.761437,-1.260296,113.197903,5735936.992967,620061.14864,-113.197903,30U,-0.08576,-0.070682,-0.060145,-0.002835,-0.003494,6.193397
1403621593274584,1,INS_BAD_GPS_AGREEMENT,51.761437,-1.260296,113.201524,5735936.987751,620061.144552,-113.201524,30U,-0.087263,-0.07124,-0.061577,-0.002745,-0.003329,6.193329
1403621593337088,1,INS_BAD_GPS_AGREEMENT,51.761437,-1.260296,113.205346,5735936.982419,620061.140261,-113.205346,30U,-0.085285,-0.074754,-0.065683,-0.002687,-0.003252,6.193309
1403621593399589,1,INS_BAD_GPS_AGREEMENT,51.761437,-1.260296,113.209353,5735936.977306,620061.135825,-113.209353,30U,-0.081545,-0.077275,-0.067463,-0.002709,-0.00331,6.19335
1403621593462088,1,INS_BAD_GPS_AGREEMENT,51.761437,-1.260296,113.21468,5735936.97071,620061.129838,-113.21468,30U,-0.081856,-0.076424,-0.065797,-0.002749,-0.003436,6.193385
1403621593524588,1,INS_BAD_GPS_AGREEMENT,51.761438,-1.260294,113.210462,5735937.072179,620061.269377,-113.210462,30U,-0.07716,-0.06218,-0.065105,-0.002759,-0.003474,6.192973
1403621593587089,1,INS_BAD_GPS_AGREEMENT,51.761438,-1.260294,113.214345,5735937.067419,620061.265762,-113.214345,30U,-0.079699,-0.062238,-0.064682,-0.002765,-0.003412,6.192938
1403621593649589,1,INS_BAD_GPS_AGREEMENT,51.761438,-1.260294,113.218253,5735937.062548,620061.26215,-113.218253,30U,-0.078838,-0.062879,-0.065808,-0.002752,-0.003332,6.192944
1403621593712090,1,INS_BAD_GPS_AGREEMENT,51.761438,-1.260294,113.222246,5735937.057787,620061.258466,-113.222246,30U,-0.076028,-0.062468,-0.067271,-0.002743,-0.003312,6.192971
1403621593774594,1,INS_BAD_GPS_AGREEMENT,51.761438,-1.260294,113.226298,5735937.05325,620061.254846,-113.226298,30U,-0.074788,-0.06326,-0.067772,-0.002716,-0.003373,6.192981
1403621593837092,1,INS_BAD_GPS_AGREEMENT,51.761438,-1.260294,113.230354,5735937.0486,620061.251159,-113.230354,30U,-0.076277,-0.063611,-0.066996,-0.002701,-0.003442,6.19296
1403621593899594,1,INS_BAD_GPS_AGREEMENT,51.761438,-1.260295,113.234324,5735937.043837,620061.247406,-113.234324,30U,-0.079469,-0.06527,-0.065661,-0.002739,-0.003453,6.192946
1403621593962093,1,INS_BAD_GPS_AGREEMENT,51.761438,-1.260295,113.239583,5735937.037262,620061.242315,-113.239583,30U,-0.081269,-0.065692,-0.066089,-0.002797,-0.003366,6.192959
1403621594024595,1,INS_BAD_GPS_AGREEMENT,51.761438,-1.260295,113.243592,5735937.032275,620061.238499,-113.243592,30U,-0.080108,-0.065156,-0.067488,-0.002806,-0.003322,6.192968
1403621594087097,1,INS_BAD_GPS_AGREEMENT,51.761438,-1.260295,113.24766,5735937.027401,620061.234748,-113.24766,30U,-0.07849,-0.064291,-0.0681,-0.002814,-0.003348,6.192961
1403621594149596,1,INS_BAD_GPS_AGREEMENT,51.761438,-1.260295,113.251766,5735937.022638,620061.230995,-113.251766,30U,-0.078637,-0.065072,-0.06861,-0.002766,-0.003405,6.192947
1403621594212105,1,INS_BAD_GPS_AGREEMENT,51.761438,-1.260295,113.255878,5735937.017762,620061.227176,-113.255878,30U,-0.080567,-0.06638,-0.068219,-0.002721,-0.003429,6.192943
1403621594274598,1,INS_BAD_GPS_AGREEMENT,51.761438,-1.260295,113.259969,5735937.012774,620061.22329,-113.259969,30U,-0.082735,-0.06686,-0.068159,-0.00273,-0.003401,6.192953
1403621594337101,1,INS_BAD_GPS_AGREEMENT,51.761438,-1.260295,113.26405,5735937.007672,620061.219338,-113.26405,30U,-0.083312,-0.067962,-0.068023,-0.002751,-0.003353,6.192954
1403621594399599,1,INS_BAD_GPS_AGREEMENT,51.761438,-1.260295,113.268148,5735937.002682,620061.215383,-113.268148,30U,-0.082166,-0.068084,-0.068633,-0.002759,-0.003337,6.192942
1403621594462100,1,INS_BAD_GPS_AGREEMENT,51.761437,-1.260295,113.273695,5735936.995991,620061.210088,-113.273695,30U,-0.081505,-0.069299,-0.070028,-0.002787,-0.003371,6.192932
1403621594524603,1,INS_BAD_GPS_AGREEMENT,51.761438,-1.260293,113.259553,5735937.04164,620061.337219,-113.259553,30U,-0.079066,-0.058279,-0.070021,-0.002775,-0.003417,6.192665
1403621594587104,1,INS_BAD_GPS_AGREEMENT,51.761438,-1.260293,113.263741,5735937.036774,620061.333814,-113.263741,30U,-0.081124,-0.058222,-0.069492,-0.002766,-0.003417,6.192673
1403621594649605,1,INS_BAD_GPS_AGREEMENT,51.761438,-1.260293,113.267905,5735937.031799,620061.33048,-113.267905,30U,-0.081927,-0.058383,-0.06954,-0.002755,-0.003381,6.192673
1403621594712105,1,INS_BAD_GPS_AGREEMENT,51.761438,-1.260293,113.272087,5735937.026822,620061.327077,-113.272087,30U,-0.081554,-0.058855,-0.070131,-0.002753,-0.003348,6.192661
1403621594774604,1,INS_BAD_GPS_AGREEMENT,51.761438,-1.260293,113.276331,5735937.021843,620061.323606,-113.276331,30U,-0.081129,-0.060574,-0.071413,-0.002763,-0.003351,6.192652
1403621594837107,1,INS_BAD_GPS_AGREEMENT,51.761438,-1.260293,113.280642,5735937.016863,620061.320065,-113.280642,30U,-0.081064,-0.060187,-0.072046,-0.002772,-0.003379,6.192661
1403621594899614,1,INS_BAD_GPS_AGREEMENT,51.761438,-1.260294,113.28497,5735937.011884,620061.316593,-113.28497,30U,-0.082071,-0.060002,-0.07213,-0.002777,-0.003408,6.192671
1403621594962107,1,INS_BAD_GPS_AGREEMENT,51.761438,-1.260294,113.290719,5735937.005209,620061.311988,-113.290719,30U,-0.083746,-0.05922,-0.071802,-0.00277,-0.00339,6.192663
1403621595024610,1,INS_BAD_GPS_AGREEMENT,51.761437,-1.260294,113.295029,5735937.000008,620061.308522,-113.295029,30U,-0.083931,-0.060514,-0.071843,-0.002766,-0.003356,6.192655
1403621595087112,1,INS_BAD_GPS_AGREEMENT,51.761437,-1.260294,113.299363,5735936.994917,620061.304984,-113.299363,30U,-0.083169,-0.060801,-0.07265,-0.002769,-0.003339,6.192656
1403621595149609,1,INS_BAD_GPS_AGREEMENT,51.761437,-1.260294,113.303746,5735936.989936,620061.301443,-113.303746,30U,-0.082435,-0.061243,-0.073447,-0.002777,-0.00336,6.192662
1403621595212112,1,INS_BAD_GPS_AGREEMENT,51.761437,-1.260294,113.308158,5735936.984845,620061.297905,-113.308158,30U,-0.082844,-0.061623,-0.073381,-0.002786,-0.003391,6.192664
1403621595274611,1,INS_BAD_GPS_AGREEMENT,51.761437,-1.260294,113.312538,5735936.979752,620061.294298,-113.312538,30U,-0.084035,-0.062332,-0.072722,-0.002791,-0.003398,6.192656
1403621595337112,1,INS_BAD_GPS_AGREEMENT,51.761437,-1.260294,113.31688,5735936.974658,620061.290691,-113.31688,30U,-0.085017,-0.062511,-0.072185,-0.002794,-0.00337,6.192656
1403621595399612,1,INS_BAD_GPS_AGREEMENT,51.761437,-1.260294,113.321241,5735936.969454,620061.287087,-113.321241,30U,-0.084754,-0.062166,-0.073399,-0.002806,-0.003345,6.192658
1403621595462114,1,INS_BAD_GPS_AGREEMENT,51.761437,-1.260294,113.327185,5735936.96255,620061.282211,-113.327185,30U,-0.083918,-0.062856,-0.07488,-0.002784,-0.003361,6.192658
1403621595524619,1,INS_BAD_GPS_AGREEMENT,51.761438,-1.260292,113.313757,5735937.063571,620061.421623,-113.313757,30U,-0.076811,-0.051881,-0.074864,-0.002745,-0.003401,6.192338
1403621595587119,1,INS_BAD_GPS_AGREEMENT,51.761438,-1.260292,113.31823,5735937.058824,620061.41856,-113.31823,30U,-0.078131,-0.052492,-0.07437,-0.002758,-0.003414,6.192333
1403621595649616,1,INS_BAD_GPS_AGREEMENT,51.761438,-1.260292,113.322686,5735937.053967,620061.4155,-113.322686,30U,-0.079478,-0.05306,-0.074214,-0.002768,-0.003401,6.192333
1403621595712120,1,INS_BAD_GPS_AGREEMENT,51.761438,-1.260292,113.327148,5735937.049109,620061.41244,-113.327148,30U,-0.079673,-0.05327,-0.07461,-0.002766,-0.003376,6.192335
1403621595774617,1,INS_BAD_GPS_AGREEMENT,51.761438,-1.260292,113.331663,5735937.044363,620061.409377,-113.331663,30U,-0.079185,-0.053188,-0.075557,-0.002786,-0.003368,6.192328
1403621595837133,1,INS_BAD_GPS_AGREEMENT,51.761438,-1.260292,113.336222,5735937.039504,620061.406248,-113.336222,30U,-0.078971,-0.053845,-0.076152,-0.002795,-0.003386,6.192326
1403621595899618,1,INS_BAD_GPS_AGREEMENT,51.761438,-1.260292,113.340774,5735937.034646,620061.403187,-113.340774,30U,-0.079686,-0.053646,-0.07543,-0.002751,-0.003408,6.192328
1403621595962122,1,INS_BAD_GPS_AGREEMENT,51.761438,-1.260292,113.346797,5735937.028092,620061.398994,-113.346797,30U,-0.081117,-0.053647,-0.075302,-0.002752,-0.003403,6.192327
1403621596024621,1,INS_BAD_GPS_AGREEMENT,51.761438,-1.260292,113.351342,5735937.023124,620061.395936,-113.351342,30U,-0.081891,-0.054576,-0.076225,-0.002747,-0.003393,6.192321
1403621596087122,1,INS_BAD_GPS_AGREEMENT,51.761438,-1.260292,113.355915,5735937.018151,620061.392741,-113.355915,30U,-0.082087,-0.055006,-0.076202,-0.002718,-0.00339,6.192321
1403621596149624,1,INS_BAD_GPS_AGREEMENT,51.761438,-1.260292,113.360464,5735937.013179,620061.389545,-113.360464,30U,-0.082569,-0.055174,-0.075442,-0.002729,-0.003393,6.192322
1403621596212123,1,INS_BAD_GPS_AGREEMENT,51.761438,-1.260293,113.364995,5735937.008096,620061.386352,-113.364995,30U,-0.082989,-0.055763,-0.075515,-0.002757,-0.003395,6.192321
1403621596274624,1,INS_BAD_GPS_AGREEMENT,51.761437,-1.260293,113.369548,5735937.003011,620061.38309,-113.369548,30U,-0.083634,-0.055951,-0.076234,-0.002752,-0.003399,6.192325
1403621596337127,1,INS_BAD_GPS_AGREEMENT,51.761437,-1.260293,113.374133,5735936.997926,620061.379828,-113.374133,30U,-0.084353,-0.056186,-0.07641,-0.002755,-0.003397,6.192324
1403621596399627,1,INS_BAD_GPS_AGREEMENT,51.761437,-1.260293,113.378713,5735936.992732,620061.376638,-113.378713,30U,-0.084662,-0.055722,-0.076269,-0.002772,-0.003387,6.192322
1403621596462126,1,INS_BAD_GPS_AGREEMENT,51.761437,-1.260293,113.384814,5735936.985841,620061.372314,-113.384814,30U,-0.085456,-0.056118,-0.076411,-0.002745,-0.003382,6.192324
1403621596524628,1,INS_BAD_GPS_AGREEMENT,51.761438,-1.260291,113.360801,5735937.095665,620061.512276,-113.360801,30U,-0.077784,-0.045198,-0.076414,-0.002718,-0.003411,6.192027
1403621596587128,1,INS_BAD_GPS_AGREEMENT,51.761438,-1.260291,113.365396,5735937.09093,620061.509696,-113.365396,30U,-0.078425,-0.045751,-0.076725,-0.002734,-0.003413,6.192026
1403621596649629,1,INS_BAD_GPS_AGREEMENT,51.761438,-1.260291,113.370001,5735937.086194,620061.507047,-113.370001,30U,-0.079212,-0.046055,-0.076586,-0.002729,-0.003407,6.192023
1403621596712129,1,INS_BAD_GPS_AGREEMENT,51.761438,-1.260291,113.374592,5735937.081346,620061.504401,-113.374592,30U,-0.079578,-0.045795,-0.076604,-0.00274,-0.003395,6.192018
1403621596774634,1,INS_BAD_GPS_AGREEMENT,51.761438,-1.260291,113.379186,5735937.076498,620061.501754,-113.379186,30U,-0.079882,-0.046829,-0.076656,-0.002765,-0.003392,6.192017
1403621596837133,1,INS_BAD_GPS_AGREEMENT,51.761438,-1.260291,113.383806,5735937.071649,620061.499039,-113.383806,30U,-0.07977,-0.046205,-0.077265,-0.002762,-0.003397,6.19202
1403621596899632,1,INS_BAD_GPS_AGREEMENT,51.761438,-1.260291,113.388471,5735937.066801,620061.496393,-113.388471,30U,-0.07986,-0.045709,-0.078064,-0.002755,-0.003408,6.19202
1403621596962133,1,INS_BAD_GPS_AGREEMENT,51.761438,-1.260291,113.394736,5735937.060264,620061.492889,-113.394736,30U,-0.080447,-0.045816,-0.078525,-0.002741,-0.003413,6.19202
1403621597024634,1,INS_BAD_GPS_AGREEMENT,51.761438,-1.260291,113.399439,5735937.055305,620061.490246,-113.399439,30U,-0.081329,-0.047091,-0.078203,-0.002721,-0.003402,6.192019
1403621597087135,1,INS_BAD_GPS_AGREEMENT,51.761438,-1.260291,113.404147,5735937.050344,620061.487533,-113.404147,30U,-0.081147,-0.047396,-0.078619,-0.002735,-0.003396,6.192017
1403621597149636,1,INS_BAD_GPS_AGREEMENT,51.761438,-1.260291,113.408881,5735937.045493,620061.484749,-113.408881,30U,-0.081247,-0.048355,-0.079102,-0.002749,-0.003398,6.19202
1403621597212136,1,INS_BAD_GPS_AGREEMENT,51.761438,-1.260291,113.413636,5735937.040531,620061.481967,-113.413636,30U,-0.08141,-0.048274,-0.079533,-0.002752,-0.003405,6.192021
1403621597274639,1,INS_BAD_GPS_AGREEMENT,51.761438,-1.260291,113.418414,5735937.035571,620061.479255,-113.418414,30U,-0.08185,-0.048319,-0.079744,-0.002764,-0.003408,6.19202
1403621597337138,1,INS_BAD_GPS_AGREEMENT,51.761438,-1.260291,113.423203,5735937.030607,620061.476404,-113.423203,30U,-0.082584,-0.048264,-0.079918,-0.002771,-0.003406,6.192019
1403621597399641,1,INS_BAD_GPS_AGREEMENT,51.761438,-1.260291,113.42801,5735937.025535,620061.473694,-113.42801,30U,-0.08293,-0.048058,-0.080277,-0.00276,-0.003403,6.192015
1403621597462142,1,INS_BAD_GPS_AGREEMENT,51.761438,-1.260291,113.434437,5735937.01877,620061.469989,-113.434437,30U,-0.083487,-0.048613,-0.080386,-0.00275,-0.0034,6.192014
1403621597524640,1,INS_BAD_GPS_AGREEMENT,51.761438,-1.26029,113.418195,5735937.078421,620061.591676,-113.418195,30U,-0.079487,-0.040993,-0.079987,-0.002739,-0.003412,6.191804
1403621597649641,1,INS_BAD_GPS_AGREEMENT,51.761438,-1.26029,113.427797,5735937.068739,620061.586936,-113.427797,30U,-0.080317,-0.04107,-0.080213,-0.002751,-0.003413,6.191802
1403621597712144,1,INS_BAD_GPS_AGREEMENT,51.761438,-1.26029,113.432617,5735937.063897,620061.584566,-113.432617,30U,-0.08056,-0.041574,-0.080486,-0.002753,-0.003409,6.191799
1403621597774648,1,INS_BAD_GPS_AGREEMENT,51.761438,-1.26029,113.437457,5735937.058945,620061.582198,-113.437457,30U,-0.080963,-0.041387,-0.080723,-0.002753,-0.003403,6.191804
