timestamp,burst,ins_status,latitude,longitude,altitude,northing,easting,down,utm_zone,velocity_north,velocity_east,velocity_down,roll,pitch,yaw
1403538150975044,1,INS_SOLUTION_GOOD,51.765469,-1.258783,110.444431,5736387.826594,620154.852987,-110.444431,30U,-0.009251,0.008355,0.000359,-0.067728,-0.007464,1.053058
1403538151037543,1,INS_SOLUTION_GOOD,51.765469,-1.258783,110.444439,5736387.825832,620154.853696,-110.444439,30U,-0.009487,0.008739,-0.000577,-0.067727,-0.007473,1.053057
1403538151100045,1,INS_SOLUTION_GOOD,51.765469,-1.258783,110.444467,5736387.825288,620154.854192,-110.444467,30U,-0.009516,0.008749,-5e-05,-0.067723,-0.00748,1.053054
1403538151162546,1,INS_SOLUTION_GOOD,51.765469,-1.258783,110.444439,5736387.824745,620154.854757,-110.444439,30U,-0.00957,0.008313,0.00101,-0.067722,-0.007477,1.053054
1403538151225046,1,INS_SOLUTION_GOOD,51.765469,-1.258783,110.444377,5736387.8242,620154.855253,-110.444377,30U,-0.009426,0.008503,0.000796,-0.067717,-0.007473,1.053063
1403538151287548,1,INS_SOLUTION_GOOD,51.765469,-1.258783,110.445615,5736387.83259,620154.847804,-110.445615,30U,-0.008513,0.007344,1.1e-05,-0.067727,-0.007472,1.053053
1403538151350048,1,INS_SOLUTION_GOOD,51.765469,-1.258783,110.445643,5736387.832158,620154.848366,-110.445643,30U,-0.008696,0.007496,0.000252,-0.067731,-0.007469,1.05305
1403538151412549,1,INS_SOLUTION_GOOD,51.765469,-1.258783,110.445662,5736387.831725,620154.84886,-110.445662,30U,-0.008743,0.007141,0.000398,-0.067732,-0.007465,1.053047
1403538151475049,1,INS_SOLUTION_GOOD,51.765469,-1.258783,110.445644,5736387.831292,620154.849354,-110.445644,30U,-0.008592,0.006965,2.6e-05,-0.067731,-0.007469,1.053051
1403538151537550,1,INS_SOLUTION_GOOD,51.765469,-1.258783,110.445637,5736387.830527,620154.849924,-110.445637,30U,-0.008817,0.006982,2.5e-05,-0.067727,-0.007476,1.05306
1403538151600051,1,INS_SOLUTION_GOOD,51.765469,-1.258783,110.44563,5736387.82998,620154.850352,-110.44563,30U,-0.008907,0.006948,0.000125,-0.067723,-0.007472,1.053054
1403538151662551,1,INS_SOLUTION_GOOD,51.765469,-1.258783,110.445619,5736387.829546,620154.850776,-110.445619,30U,-0.008943,0.006736,-1.2e-05,-0.067713,-0.007472,1.053045
1403538151725053,1,INS_SOLUTION_GOOD,51.765469,-1.258783,110.445607,5736387.828999,620154.851203,-110.445607,30U,-0.008625,0.00651,0.000274,-0.067706,-0.007476,1.053047
1403538151787552,1,INS_SOLUTION_GOOD,51.765469,-1.258783,110.445593,5736387.828452,620154.851562,-110.445593,30U,-0.00855,0.006373,0.000384,-0.067715,-0.007477,1.053054
1403538151850053,1,INS_SOLUTION_GOOD,51.765469,-1.258783,110.445571,5736387.828017,620154.851986,-110.445571,30U,-0.00864,0.006792,0.000291,-0.067719,-0.007474,1.053059
1403538151912556,1,INS_SOLUTION_GOOD,51.765469,-1.258783,110.445551,5736387.827471,620154.852414,-110.445551,30U,-0.009253,0.00703,5e-05,-0.067718,-0.007475,1.053053
1403538151975055,1,INS_SOLUTION_GOOD,51.765469,-1.258783,110.445534,5736387.826924,620154.852841,-110.445534,30U,-0.009556,0.006709,0.000576,-0.067716,-0.007474,1.053049
1403538152037556,1,INS_SOLUTION_GOOD,51.765469,-1.258783,110.445496,5736387.826159,620154.853412,-110.445496,30U,-0.009543,0.006835,0.000138,-0.06771,-0.007469,1.053058
1403538152100056,1,INS_SOLUTION_GOOD,51.765469,-1.258783,110.445496,5736387.825613,620154.853839,-110.445496,30U,-0.009532,0.006795,-0.000231,-0.067705,-0.007472,1.053057
1403538152162557,1,INS_SOLUTION_GOOD,51.765469,-1.258783,110.445516,5736387.824956,620154.854269,-110.445516,30U,-0.009632,0.006666,-0.000444,-0.067703,-0.007476,1.053051
1403538152225057,1,INS_SOLUTION_GOOD,51.765469,-1.258783,110.445558,5736387.824409,620154.854696,-110.445558,30U,-0.0096,0.006644,-0.000775,-0.067704,-0.007477,1.053048
1403538152287557,1,INS_SOLUTION_GOOD,51.765469,-1.258783,110.445601,5736387.823862,620154.855054,-110.445601,30U,-0.010088,0.006191,-0.000637,-0.067714,-0.007474,1.053049
1403538152350059,1,INS_SOLUTION_GOOD,51.765469,-1.258783,110.44549,5736387.833189,620154.849585,-110.44549,30U,-0.00891,0.005287,-0.000821,-0.067732,-0.007467,1.05302
1403538152412560,1,INS_SOLUTION_GOOD,51.765469,-1.258783,110.44573,5736387.833096,620154.850346,-110.44573,30U,-0.008903,0.005629,-0.000935,-0.06772,-0.007471,1.053013
1403538152475059,1,INS_SOLUTION_GOOD,51.765469,-1.258783,110.445785,5736387.832546,620154.850636,-110.445785,30U,-0.009047,0.005564,-0.000928,-0.06772,-0.007475,1.05301
1403538152537561,1,INS_SOLUTION_GOOD,51.765469,-1.258783,110.445829,5736387.831891,620154.851134,-110.445829,30U,-0.009123,0.00523,-0.000384,-0.067709,-0.007473,1.053006
1403538152600060,1,INS_SOLUTION_GOOD,51.765469,-1.258783,110.445861,5736387.831341,620154.851424,-110.445861,30U,-0.00879,0.005252,-0.000623,-0.06771,-0.007467,1.053012
1403538152662561,1,INS_SOLUTION_GOOD,51.765469,-1.258783,110.445924,5736387.830794,620154.851782,-110.445924,30U,-0.008613,0.005414,-0.00151,-0.067723,-0.007466,1.053015
1403538152725061,1,INS_SOLUTION_GOOD,51.765469,-1.258783,110.44601,5736387.830246,620154.85214,-110.44601,30U,-0.008906,0.00573,-0.001616,-0.067726,-0.007464,1.053012
1403538152787562,1,INS_SOLUTION_GOOD,51.765469,-1.258783,110.446069,5736387.829809,620154.852496,-110.446069,30U,-0.009198,0.005687,-0.000672,-0.067722,-0.007466,1.053012
1403538152850066,1,INS_SOLUTION_GOOD,51.765469,-1.258783,110.446104,5736387.82915,620154.852857,-110.446104,30U,-0.009747,0.005663,-0.00069,-0.067727,-0.007465,1.053014
1403538152912564,1,INS_SOLUTION_GOOD,51.765469,-1.258783,110.446162,5736387.828602,620154.853215,-110.446162,30U,-0.009881,0.005856,-0.001021,-0.067724,-0.007461,1.053022
1403538152975066,1,INS_SOLUTION_GOOD,51.765469,-1.258783,110.446224,5736387.828055,620154.853573,-110.446224,30U,-0.00978,0.005784,-0.001146,-0.067717,-0.007462,1.053021
1403538153037565,1,INS_SOLUTION_GOOD,51.765469,-1.258783,110.446302,5736387.827286,620154.854006,-110.446302,30U,-0.009395,0.005561,-0.000722,-0.067713,-0.007461,1.053012
1403538153100070,1,INS_SOLUTION_GOOD,51.765469,-1.258783,110.446345,5736387.826738,620154.854364,-110.446345,30U,-0.008833,0.005325,-0.000781,-0.067711,-0.007464,1.053016
1403538153162570,1,INS_SOLUTION_GOOD,51.765469,-1.258783,110.446377,5736387.82619,620154.854723,-110.446377,30U,-0.008889,0.005147,-0.000474,-0.067714,-0.007466,1.053016
1403538153225068,1,INS_SOLUTION_GOOD,51.765469,-1.258783,110.446402,5736387.825641,620154.855012,-110.446402,30U,-0.009096,0.004831,-0.000609,-0.067721,-0.007467,1.053024
1403538153287569,1,INS_SOLUTION_GOOD,51.765469,-1.258783,110.44632,5736387.833439,620154.850752,-110.44632,30U,-0.008251,0.004467,-0.000695,-0.067734,-0.007465,1.052997
1403538153350071,1,INS_SOLUTION_GOOD,51.765469,-1.258783,110.446315,5736387.832893,620154.85118,-110.446315,30U,-0.008268,0.004558,-0.000425,-0.067729,-0.00746,1.052989
1403538153412573,1,INS_SOLUTION_GOOD,51.765469,-1.258783,110.446291,5736387.832347,620154.851607,-110.446291,30U,-0.008338,0.004798,-0.000453,-0.067717,-0.007459,1.052988
1403538153475073,1,INS_SOLUTION_GOOD,51.765469,-1.258783,110.446335,5736387.831909,620154.851893,-110.446335,30U,-0.008419,0.004483,-0.00103,-0.067709,-0.007465,1.052995
1403538153537572,1,INS_SOLUTION_GOOD,51.765469,-1.258783,110.446419,5736387.83125,620154.852254,-110.446419,30U,-0.00834,0.004339,-0.001028,-0.067715,-0.007473,1.052996
1403538153600074,1,INS_SOLUTION_GOOD,51.765469,-1.258783,110.446473,5736387.8307,620154.852544,-110.446473,30U,-0.008532,0.004311,-0.000725,-0.067717,-0.00747,1.052996
1403538153662575,1,INS_SOLUTION_GOOD,51.765469,-1.258783,110.446495,5736387.830262,620154.85283,-110.446495,30U,-0.008355,0.004093,-0.000346,-0.067726,-0.007463,1.052995
1403538153725076,1,INS_SOLUTION_GOOD,51.765469,-1.258783,110.44652,5736387.829713,620154.85312,-110.44652,30U,-0.008262,0.004634,-0.00024,-0.067732,-0.007458,1.052999
1403538153787578,1,INS_SOLUTION_GOOD,51.765469,-1.258783,110.446546,5736387.829275,620154.853406,-110.446546,30U,-0.008533,0.005232,-0.000553,-0.067727,-0.007464,1.053004
1403538153850077,1,INS_SOLUTION_GOOD,51.765469,-1.258783,110.446574,5736387.828727,620154.853765,-110.446574,30U,-0.008706,0.005453,-0.000495,-0.067716,-0.007474,1.053
1403538153912578,1,INS_SOLUTION_GOOD,51.765469,-1.258783,110.446599,5736387.828177,620154.854054,-110.446599,30U,-0.009239,0.00555,-0.000341,-0.067707,-0.007481,1.052996
1403538153975079,1,INS_SOLUTION_GOOD,51.765469,-1.258783,110.446601,5736387.827629,620154.854412,-110.446601,30U,-0.009287,0.005008,0.000163,-0.067702,-0.007473,1.052998
1403538154037580,1,INS_SOLUTION_GOOD,51.765469,-1.258783,110.446592,5736387.826972,620154.854842,-110.446592,30U,-0.008604,0.005042,-0.000241,-0.067701,-0.007464,1.053
1403538154100081,1,INS_SOLUTION_GOOD,51.765469,-1.258783,110.446628,5736387.826423,620154.855131,-110.446628,30U,-0.008472,0.005108,-0.000816,-0.067715,-0.007468,1.052999
1403538154162581,1,INS_SOLUTION_GOOD,51.765469,-1.258783,110.446677,5736387.825875,620154.85549,-110.446677,30U,-0.008606,0.00514,-0.000743,-0.067719,-0.007478,1.052992
1403538154225082,1,INS_SOLUTION_GOOD,51.765469,-1.258783,110.446702,5736387.825437,620154.855776,-110.446702,30U,-0.008889,0.005298,-0.000114,-0.067712,-0.007482,1.05299
1403538154287583,1,INS_SOLUTION_GOOD,51.765469,-1.258783,110.446694,5736387.824887,620154.856065,-110.446694,30U,-0.009158,0.004869,0.000138,-0.067714,-0.007476,1.052993
1403538154350084,1,INS_SOLUTION_GOOD,51.765469,-1.258783,110.446591,5736387.83334,620154.851238,-110.446591,30U,-0.008198,0.004013,3.1e-05,-0.067724,-0.007469,1.052965
1403538154412585,1,INS_SOLUTION_GOOD,51.765469,-1.258783,110.446797,5736387.833235,620154.851517,-110.446797,30U,-0.007974,0.004409,-1e-05,-0.067719,-0.007466,1.052954
1403538154475086,1,INS_SOLUTION_GOOD,51.765469,-1.258783,110.44679,5736387.832797,620154.851803,-110.44679,30U,-0.007824,0.004361,0.000226,-0.067723,-0.007466,1.052951
1403538154537588,1,INS_SOLUTION_GOOD,51.765469,-1.258783,110.446766,5736387.832138,620154.852164,-110.446766,30U,-0.007919,0.003823,0.000363,-0.067732,-0.00747,1.052949
1403538154600091,1,INS_SOLUTION_GOOD,51.765469,-1.258783,110.446757,5736387.831698,620154.852382,-110.446757,30U,-0.008096,0.00391,0.000256,-0.067734,-0.007472,1.052952
1403538154662589,1,INS_SOLUTION_GOOD,51.765469,-1.258783,110.44675,5736387.831147,620154.852602,-110.44675,30U,-0.008524,0.003776,0.000186,-0.067732,-0.007469,1.052951
1403538154725089,1,INS_SOLUTION_GOOD,51.765469,-1.258783,110.446744,5736387.830707,620154.85282,-110.446744,30U,-0.008776,0.003704,-3.4e-05,-0.067728,-0.00746,1.052949
1403538154787590,1,INS_SOLUTION_GOOD,51.765469,-1.258783,110.44674,5736387.830158,620154.853109,-110.44674,30U,-0.008721,0.00368,0.00025,-0.067729,-0.007464,1.05295
1403538154850092,1,INS_SOLUTION_GOOD,51.765469,-1.258783,110.446716,5736387.829606,620154.853329,-110.446716,30U,-0.008685,0.003868,0.000599,-0.067726,-0.00747,1.052954
1403538154912592,1,INS_SOLUTION_GOOD,51.765469,-1.258783,110.446676,5736387.829055,620154.85355,-110.446676,30U,-0.00891,0.004081,0.000777,-0.067723,-0.007474,1.052955
1403538154975093,1,INS_SOLUTION_GOOD,51.765469,-1.258783,110.446632,5736387.828617,620154.853836,-110.446632,30U,-0.009277,0.00371,0.000453,-0.067716,-0.007477,1.052952
1403538155037594,1,INS_SOLUTION_GOOD,51.765469,-1.258783,110.446568,5736387.827845,620154.854131,-110.446568,30U,-0.009265,0.003158,0.001092,-0.067709,-0.007475,1.05295
1403538155100094,1,INS_SOLUTION_GOOD,51.765469,-1.258783,110.446493,5736387.827293,620154.854282,-110.446493,30U,-0.008982,0.003094,0.001282,-0.067714,-0.007462,1.05296
1403538155162596,1,INS_SOLUTION_GOOD,51.765469,-1.258783,110.446429,5736387.826741,620154.854502,-110.446429,30U,-0.009493,0.003678,0.000529,-0.067736,-0.007466,1.052962
1403538155225097,1,INS_SOLUTION_GOOD,51.765469,-1.258783,110.446394,5736387.82619,620154.854723,-110.446394,30U,-0.009312,0.00367,0.000787,-0.067733,-0.007482,1.052957
1403538155287597,1,INS_SOLUTION_GOOD,51.765469,-1.258783,110.446867,5736387.834341,620154.851214,-110.446867,30U,-0.008509,0.003189,0.00144,-0.067733,-0.007494,1.05293
1403538155350098,1,INS_SOLUTION_GOOD,51.765469,-1.258783,110.446695,5736387.833675,620154.851299,-110.446695,30U,-0.008293,0.002916,0.001485,-0.067741,-0.007494,1.052923
1403538155412599,1,INS_SOLUTION_GOOD,51.765469,-1.258783,110.446526,5736387.832898,620154.851387,-110.446526,30U,-0.008366,0.003018,0.001455,-0.067735,-0.007493,1.052929
1403538155475100,1,INS_SOLUTION_GOOD,51.765469,-1.258783,110.446394,5736387.83246,620154.851673,-110.446394,30U,-0.007431,0.005567,0.003488,-0.067722,-0.007465,1.052934
1403538155537600,1,INS_SOLUTION_GOOD,51.765469,-1.258783,110.445917,5736387.832144,620154.85244,-110.445917,30U,0.000806,0.019038,0.010516,-0.067741,-0.007224,1.052971
1403538155600102,1,INS_SOLUTION_GOOD,51.765469,-1.258783,110.445136,5736387.832519,620154.854157,-110.445136,30U,0.010427,0.037668,0.014359,-0.067749,-0.006839,1.053001
1403538155662617,1,INS_SOLUTION_GOOD,51.765469,-1.258783,110.444222,5736387.833589,620154.857031,-110.444222,30U,0.021432,0.060033,0.01508,-0.067738,-0.006412,1.05299
1403538155725105,1,INS_SOLUTION_GOOD,51.765469,-1.258783,110.443436,5736387.835247,620154.861203,-110.443436,30U,0.032444,0.080612,0.01143,-0.067705,-0.006076,1.052963
1403538155787604,1,INS_SOLUTION_GOOD,51.765469,-1.258783,110.442941,5736387.837711,620154.86653,-110.442941,30U,0.044727,0.099689,0.005989,-0.067638,-0.005915,1.05297
1403538155850105,1,INS_SOLUTION_GOOD,51.765469,-1.258783,110.442722,5736387.84087,620154.873013,-110.442722,30U,0.056274,0.11845,0.001165,-0.067548,-0.005854,1.053037
1403538155912606,1,INS_SOLUTION_GOOD,51.765469,-1.258783,110.442719,5736387.844835,620154.880651,-110.442719,30U,0.067148,0.137495,-0.00141,-0.067486,-0.005821,1.053137
1403538155975107,1,INS_SOLUTION_GOOD,51.765469,-1.258782,110.442785,5736387.849382,620154.889311,-110.442785,30U,0.078409,0.15535,-8.7e-05,-0.067412,-0.005764,1.053243
1403538156037608,1,INS_SOLUTION_GOOD,51.765469,-1.258782,110.442786,5736387.856483,620154.902466,-110.442786,30U,0.092595,0.178132,7e-06,-0.067264,-0.005702,1.053394
1403538156100109,1,INS_SOLUTION_GOOD,51.765469,-1.258782,110.442746,5736387.862646,620154.913572,-110.442746,30U,0.102311,0.195135,0.000759,-0.067273,-0.005722,1.053492
1403538156162610,1,INS_SOLUTION_GOOD,51.765469,-1.258782,110.442664,5736387.869387,620154.925631,-110.442664,30U,0.113203,0.212749,0.00229,-0.067377,-0.005749,1.053595
1403538156225113,1,INS_SOLUTION_GOOD,51.76547,-1.258782,110.442516,5736387.876821,620154.93871,-110.442516,30U,0.124462,0.230237,0.003176,-0.067499,-0.005719,1.053746
1403538156287614,1,INS_SOLUTION_GOOD,51.76547,-1.258781,110.442336,5736387.884948,620154.952876,-110.442336,30U,0.136644,0.248665,0.002035,-0.067727,-0.005656,1.053981
1403538156350114,1,INS_SOLUTION_GOOD,51.76547,-1.258781,110.448149,5736387.899057,620154.965933,-110.448149,30U,0.149259,0.267695,-0.000725,-0.067957,-0.005661,1.054302
1403538156412616,1,INS_SOLUTION_GOOD,51.76547,-1.258781,110.448173,5736387.908686,620154.982411,-110.448173,30U,0.158221,0.288519,0.000151,-0.067971,-0.005629,1.054597
1403538156475115,1,INS_SOLUTION_GOOD,51.76547,-1.258781,110.448158,5736387.918789,620155.00012,-110.448158,30U,0.165485,0.310158,0.000128,-0.067995,-0.005506,1.054792
1403538156537617,1,INS_SOLUTION_GOOD,51.76547,-1.25878,110.448107,5736387.933308,620155.025664,-110.448107,30U,0.184366,0.335246,0.001012,-0.068285,-0.005425,1.055137
1403538156600116,1,INS_SOLUTION_GOOD,51.76547,-1.25878,110.448049,5736387.945366,620155.046019,-110.448049,30U,0.201095,0.353927,0.001275,-0.068377,-0.005461,1.055655
1403538156662617,1,INS_SOLUTION_GOOD,51.76547,-1.25878,110.447965,5736387.958345,620155.067664,-110.447965,30U,0.213089,0.379322,0.002264,-0.068459,-0.005532,1.056315
1403538156725118,1,INS_SOLUTION_GOOD,51.76547,-1.258779,110.447736,5736387.971921,620155.091021,-110.447736,30U,0.223755,0.409338,0.004429,-0.068394,-0.005445,1.056876
1403538156787619,1,INS_SOLUTION_GOOD,51.76547,-1.258779,110.447529,5736387.986432,620155.116219,-110.447529,30U,0.237332,0.443044,0.002627,-0.068034,-0.005244,1.057255
1403538156850119,1,INS_SOLUTION_GOOD,51.765471,-1.258779,110.447307,5736388.00177,620155.143469,-110.447307,30U,0.256297,0.478295,0.005005,-0.068017,-0.005085,1.057588
1403538156912620,1,INS_SOLUTION_GOOD,51.765471,-1.258778,110.447002,5736388.018605,620155.172824,-110.447002,30U,0.279495,0.511047,0.005168,-0.068119,-0.00496,1.057977
1403538156975121,1,INS_SOLUTION_GOOD,51.765471,-1.258778,110.446638,5736388.036819,620155.20401,-110.446638,30U,0.302842,0.544935,0.007538,-0.068046,-0.004858,1.058426
1403538157037623,1,INS_SOLUTION_GOOD,51.765471,-1.258777,110.44594,5736388.063258,620155.248807,-110.44594,30U,0.329989,0.59106,0.010744,-0.067936,-0.004724,1.059169
1403538157100123,1,INS_SOLUTION_GOOD,51.765471,-1.258777,110.44518,5736388.084368,620155.284756,-110.44518,30U,0.347283,0.62151,0.011836,-0.068313,-0.004436,1.05981
1403538157225124,1,INS_SOLUTION_GOOD,51.765472,-1.258775,110.444556,5736388.130263,620155.361469,-110.444556,30U,0.379225,0.677316,0.00153,-0.067148,-0.003503,1.061963
1403538157287625,1,INS_SOLUTION_GOOD,51.765472,-1.258775,110.444469,5736388.154385,620155.402456,-110.444469,30U,0.391359,0.706808,0.001543,-0.066834,-0.002787,1.06318
1403538157350128,1,INS_SOLUTION_GOOD,51.765472,-1.258776,110.575298,5736388.120806,620155.31026,-110.575298,30U,0.407951,0.73835,0.007111,-0.066564,-0.002087,1.064274
1403538157475127,1,INS_SOLUTION_GOOD,51.765472,-1.258775,110.573475,5736388.183232,620155.417577,-110.573475,30U,0.448524,0.81664,0.005545,-0.066244,-0.000423,1.066291
1403538157537628,1,INS_SOLUTION_GOOD,51.765472,-1.258774,110.573494,5736388.211785,620155.467019,-110.573494,30U,0.46601,0.85475,-0.003241,-0.06636,-0.000504,1.06712
1403538157600129,1,INS_SOLUTION_GOOD,51.765473,-1.258773,110.573626,5736388.241726,620155.518706,-110.573626,30U,0.491782,0.891871,-0.001121,-0.066918,-0.000838,1.068086
1403538157662629,1,INS_SOLUTION_GOOD,51.765473,-1.258772,110.57375,5736388.273611,620155.572556,-110.57375,30U,0.529786,0.929113,-0.001155,-0.067244,-0.001424,1.069477
1403538157787631,1,INS_SOLUTION_GOOD,51.765474,-1.258771,110.572936,5736388.343565,620155.687564,-110.572936,30U,0.578681,1.018348,0.016035,-0.068627,-0.002498,1.073228
1403538157850131,1,INS_SOLUTION_GOOD,51.765474,-1.25877,110.572112,5736388.379641,620155.749184,-110.572112,30U,0.572845,1.064593,0.008598,-0.069079,-0.002414,1.074424
1403538157912632,1,INS_SOLUTION_GOOD,51.765474,-1.258769,110.571759,5736388.415562,620155.813639,-110.571759,30U,0.577962,1.109811,0.00348,-0.069046,-0.002224,1.074949
1403538158037636,1,INS_SOLUTION_GOOD,51.765475,-1.258766,110.569436,5736388.506708,620155.972741,-110.569436,30U,0.682923,1.182101,0.038143,-0.069183,-0.001057,1.079071
1403538158100136,1,INS_SOLUTION_GOOD,51.765475,-1.258765,110.567666,5736388.549782,620156.04317,-110.567666,30U,0.688285,1.205144,0.01145,-0.068186,-0.000447,1.082172
1403538158162637,1,INS_SOLUTION_GOOD,51.765476,-1.258764,110.568051,5736388.591802,620156.11604,-110.568051,30U,0.653691,1.257747,-0.018798,-0.065756,-0.000344,1.083992
1403538158225136,1,INS_SOLUTION_GOOD,51.765476,-1.258763,110.56936,5736388.632342,620156.19219,-110.56936,30U,0.643174,1.310878,-0.021854,-0.064743,-0.000281,1.084565
1403538158350137,1,INS_SOLUTION_GOOD,51.765476,-1.258762,110.646382,5736388.680223,620156.254219,-110.646382,30U,0.740955,1.365561,-0.013987,-0.065523,-0.001241,1.086663
1403538158412640,1,INS_SOLUTION_GOOD,51.765477,-1.258761,110.646609,5736388.728017,620156.335927,-110.646609,30U,0.782596,1.396567,0.009056,-0.065613,-0.002179,1.089039
1403538158475140,1,INS_SOLUTION_GOOD,51.765477,-1.25876,110.644928,5736388.777534,620156.419871,-110.644928,30U,0.796241,1.443791,0.046615,-0.067337,-0.002473,1.091373
1403538158537640,1,INS_SOLUTION_GOOD,51.765478,-1.258758,110.640089,5736388.843854,620156.536485,-110.640089,30U,0.789182,1.507664,0.06295,-0.071484,-0.001392,1.093357
1403538158662641,1,INS_SOLUTION_GOOD,51.765479,-1.258756,110.634532,5736388.944355,620156.719252,-110.634532,30U,0.824681,1.577146,0.024304,-0.072706,0.000688,1.094764
1403538158725141,1,INS_SOLUTION_GOOD,51.765479,-1.258754,110.633706,5736388.996681,620156.813693,-110.633706,30U,0.840246,1.608949,0.004319,-0.07235,0.001175,1.096389
1403538158787642,1,INS_SOLUTION_GOOD,51.76548,-1.258753,110.634131,5736389.049605,620156.909846,-110.634131,30U,0.844905,1.640947,-0.015859,-0.071061,0.001439,1.098288
1403538158912643,1,INS_SOLUTION_GOOD,51.765481,-1.25875,110.636941,5736389.156519,620157.109513,-110.636941,30U,0.865389,1.726661,-0.025364,-0.067048,0.001208,1.102101
1403538158975144,1,INS_SOLUTION_GOOD,51.765481,-1.258748,110.638124,5736389.211733,620157.213067,-110.638124,30U,0.893809,1.766454,-0.013047,-0.067081,0.000347,1.104149
1403538159037645,1,INS_SOLUTION_GOOD,51.765482,-1.258746,110.638062,5736389.288424,620157.353943,-110.638062,30U,0.938052,1.800177,0.010297,-0.067905,-0.00071,1.106502
1403538159162646,1,INS_SOLUTION_GOOD,51.765483,-1.258743,110.637559,5736389.407879,620157.570916,-110.637559,30U,0.959642,1.862493,-0.019892,-0.069501,-0.001579,1.10924
1403538159225147,1,INS_SOLUTION_GOOD,51.765483,-1.258741,110.639744,5736389.468394,620157.682076,-110.639744,30U,0.970294,1.891491,-0.043707,-0.071834,-0.002791,1.111255
1403538159287650,1,INS_SOLUTION_GOOD,51.765484,-1.25874,110.641697,5736389.529957,620157.795213,-110.641697,30U,0.990246,1.930441,-0.015742,-0.073437,-0.003678,1.113727
1403538159412649,1,INS_SOLUTION_GOOD,51.765484,-1.258738,110.77193,5736389.589894,620157.928756,-110.77193,30U,0.973091,2.017814,0.051172,-0.073454,-0.002305,1.117434
1403538159475150,1,INS_SOLUTION_GOOD,51.765485,-1.258736,110.769171,5736389.651417,620158.049558,-110.769171,30U,0.985075,2.060014,0.051219,-0.073213,-0.001323,1.118291
1403538159537651,1,INS_SOLUTION_GOOD,51.765486,-1.258734,110.764912,5736389.734899,620158.213884,-110.764912,30U,1.004297,2.095175,0.03629,-0.072365,0.000615,1.120154
1403538159662651,1,INS_SOLUTION_GOOD,51.765487,-1.25873,110.76651,5736389.864855,620158.465195,-110.76651,30U,1.054281,2.149159,-0.018323,-0.07021,-0.000873,1.124712
1403538159725153,1,INS_SOLUTION_GOOD,51.765487,-1.258728,110.766624,5736389.931904,620158.593736,-110.766624,30U,1.079202,2.189995,0.014592,-0.068794,-0.00107,1.12716
1403538159787653,1,INS_SOLUTION_GOOD,51.765488,-1.258726,110.765099,5736389.999905,620158.724808,-110.765099,30U,1.080879,2.23091,0.030499,-0.069081,-0.000978,1.129317
1403538159912653,1,INS_SOLUTION_GOOD,51.765489,-1.258722,110.763304,5736390.136171,620158.993436,-110.763304,30U,1.086992,2.298259,-0.007457,-0.067141,-0.002527,1.131518
1403538159975154,1,INS_SOLUTION_GOOD,51.76549,-1.25872,110.764109,5736390.205088,620159.130286,-110.764109,30U,1.098609,2.317738,-0.021653,-0.065534,-0.003696,1.132851
1403538160037653,1,INS_SOLUTION_GOOD,51.76549,-1.258717,110.766618,5736390.297845,620159.314895,-110.766618,30U,1.110167,2.359146,-0.025773,-0.061836,-0.004376,1.135418
1403538160100153,1,INS_SOLUTION_GOOD,51.765491,-1.258715,110.766988,5736390.368193,620159.455784,-110.766988,30U,1.123915,2.39202,0.013194,-0.059521,-0.00344,1.137553
1403538160225155,1,INS_SOLUTION_GOOD,51.765492,-1.258711,110.76363,5736390.512442,620159.741826,-110.76363,30U,1.157215,2.434659,0.03515,-0.056266,-5.8e-05,1.14121
1403538160287655,1,INS_SOLUTION_GOOD,51.765493,-1.258709,110.761375,5736390.585122,620159.887147,-110.761375,30U,1.150782,2.466494,0.037768,-0.055209,0.001338,1.142077
1403538160350155,1,INS_SOLUTION_GOOD,51.765493,-1.258708,110.796567,5736390.624358,620159.973892,-110.796567,30U,1.154118,2.489123,0.023553,-0.05496,0.002143,1.142631
1403538160475156,1,INS_SOLUTION_GOOD,51.765494,-1.258703,110.795133,5736390.771658,620160.271253,-110.795133,30U,1.184101,2.52545,-0.001154,-0.053818,0.001993,1.14433
1403538160537656,1,INS_SOLUTION_GOOD,51.765495,-1.2587,110.795896,5736390.871376,620160.472473,-110.795896,30U,1.183561,2.56482,-0.0129,-0.052519,0.00088,1.145704
1403538160600155,1,INS_SOLUTION_GOOD,51.765496,-1.258698,110.796203,5736390.946136,620160.625684,-110.796203,30U,1.188992,2.600681,0.010361,-0.052227,-0.000129,1.146305
1403538160725156,1,INS_SOLUTION_GOOD,51.765497,-1.258694,110.793122,5736391.097659,620160.936752,-110.793122,30U,1.214363,2.652476,0.034513,-0.052299,-0.000782,1.146639
1403538160787656,1,INS_SOLUTION_GOOD,51.765498,-1.258691,110.789778,5736391.174762,620161.094878,-110.789778,30U,1.23055,2.675256,0.067837,-0.053087,-0.00063,1.146651
1403538160850157,1,INS_SOLUTION_GOOD,51.765498,-1.258689,110.785894,5736391.253116,620161.254148,-110.785894,30U,1.252684,2.704644,0.07444,-0.05232,-0.000472,1.146875
1403538160912657,1,INS_SOLUTION_GOOD,51.765499,-1.258687,110.781436,5736391.331958,620161.415201,-110.781436,30U,1.248367,2.722301,0.062496,-0.050808,9.5e-05,1.147313
1403538161037658,1,INS_SOLUTION_GOOD,51.765501,-1.258681,110.780698,5736391.515087,620161.79642,-110.780698,30U,1.24843,2.77991,-0.045907,-0.046649,-0.001113,1.147717
1403538161100157,1,INS_SOLUTION_GOOD,51.765501,-1.258679,110.784084,5736391.594476,620161.96174,-110.784084,30U,1.270473,2.792655,-0.064155,-0.045427,-0.00281,1.147887
1403538161162659,1,INS_SOLUTION_GOOD,51.765502,-1.258676,110.788135,5736391.675436,620162.127645,-110.788135,30U,1.292148,2.805244,-0.066176,-0.043391,-0.004633,1.148096
1403538161225158,1,INS_SOLUTION_GOOD,51.765503,-1.258674,110.791774,5736391.756982,620162.294778,-110.791774,30U,1.29244,2.832478,-0.047424,-0.041135,-0.006234,1.148131
1403538161287661,1,INS_SOLUTION_GOOD,51.765504,-1.258671,110.794061,5736391.842058,620162.465279,-110.794061,30U,1.288042,2.857196,-0.023572,-0.040086,-0.007235,1.147801
1403538161350162,1,INS_SOLUTION_GOOD,51.765504,-1.258669,110.794621,5736391.923903,620162.63558,-110.794621,30U,1.302659,2.882555,0.007527,-0.03924,-0.007939,1.147458
1403538161412661,1,INS_SOLUTION_GOOD,51.765505,-1.258666,110.793134,5736392.006668,620162.807172,-110.793134,30U,1.318711,2.903464,0.04153,-0.037746,-0.008089,1.147343
1403538161475160,1,INS_SOLUTION_GOOD,51.765506,-1.258664,110.789785,5736392.090245,620162.980125,-110.789785,30U,1.329808,2.929193,0.071048,-0.036619,-0.007597,1.147356
1403538161537662,1,INS_SOLUTION_GOOD,51.765507,-1.25866,110.783025,5736392.203066,620163.212859,-110.783025,30U,1.351266,2.957593,0.083783,-0.035607,-0.00625,1.147373
1403538161600161,1,INS_SOLUTION_GOOD,51.765507,-1.258658,110.77807,5736392.288837,620163.389143,-110.77807,30U,1.363188,2.984974,0.086153,-0.033683,-0.005436,1.147279
1403538161662661,1,INS_SOLUTION_GOOD,51.765508,-1.258655,110.772902,5736392.375201,620163.567,-110.772902,30U,1.371016,3.012058,0.080419,-0.033228,-0.004662,1.147147
1403538161725161,1,INS_SOLUTION_GOOD,51.765509,-1.258653,110.768621,5736392.462158,620163.746362,-110.768621,30U,1.382573,3.035092,0.063413,-0.034124,-0.004222,1.146851
1403538161787662,1,INS_SOLUTION_GOOD,51.76551,-1.25865,110.765612,5736392.550145,620163.926943,-110.765612,30U,1.40425,3.055112,0.035882,-0.033798,-0.004095,1.146323
1403538161850164,1,INS_SOLUTION_GOOD,51.76551,-1.258647,110.764303,5736392.639166,620164.108879,-110.764303,30U,1.417592,3.082327,0.010871,-0.032319,-0.004853,1.145914
1403538161912666,1,INS_SOLUTION_GOOD,51.765511,-1.258645,110.764226,5736392.728892,620164.292386,-110.764226,30U,1.427025,3.103745,-0.004096,-0.031326,-0.006827,1.145759
1403538161975166,1,INS_SOLUTION_GOOD,51.765512,-1.258642,110.76394,5736392.819085,620164.47678,-110.76394,30U,1.433372,3.115874,0.015843,-0.029603,-0.008152,1.145957
1403538162037665,1,INS_SOLUTION_GOOD,51.765513,-1.258638,110.761715,5736392.939939,620164.724373,-110.761715,30U,1.436629,3.148635,0.03789,-0.026951,-0.006882,1.146114
1403538162100166,1,INS_SOLUTION_GOOD,51.765514,-1.258635,110.75952,5736393.030652,620164.911931,-110.75952,30U,1.445396,3.174789,0.036277,-0.025108,-0.005158,1.145749
1403538162162667,1,INS_SOLUTION_GOOD,51.765514,-1.258633,110.757351,5736393.122292,620165.101054,-110.757351,30U,1.456715,3.20002,0.032733,-0.023046,-0.004305,1.145314
1403538162225168,1,INS_SOLUTION_GOOD,51.765515,-1.25863,110.75612,5736393.214859,620165.291673,-110.75612,30U,1.474408,3.223071,0.013679,-0.020342,-0.005364,1.144948
1403538162287669,1,INS_SOLUTION_GOOD,51.765516,-1.258627,110.730843,5736393.290117,620165.456402,-110.730843,30U,1.484849,3.24376,0.028635,-0.017824,-0.00702,1.144888
1403538162350170,1,INS_SOLUTION_GOOD,51.765517,-1.258625,110.728549,5736393.384183,620165.649264,-110.728549,30U,1.493622,3.261994,0.046911,-0.018953,-0.007791,1.144889
1403538162412672,1,INS_SOLUTION_GOOD,51.765518,-1.258622,110.724934,5736393.479053,620165.843143,-110.724934,30U,1.51819,3.276138,0.069694,-0.021484,-0.007137,1.144508
1403538162475172,1,INS_SOLUTION_GOOD,51.765519,-1.258618,110.719327,5736393.608209,620166.102896,-110.719327,30U,1.549118,3.295707,0.065213,-0.022818,-0.004779,1.144048
1403538162537673,1,INS_SOLUTION_GOOD,51.765519,-1.258615,110.715748,5736393.706471,620166.299041,-110.715748,30U,1.563664,3.319819,0.057932,-0.023467,-0.003536,1.144158
1403538162600174,1,INS_SOLUTION_GOOD,51.76552,-1.258612,110.71232,5736393.804998,620166.496975,-110.71232,30U,1.559064,3.359128,0.066568,-0.02456,-0.003001,1.144502
1403538162662673,1,INS_SOLUTION_GOOD,51.765521,-1.258609,110.707203,5736393.903024,620166.697199,-110.707203,30U,1.544755,3.384645,0.08477,-0.024899,-0.002569,1.144692
1403538162725174,1,INS_SOLUTION_GOOD,51.765522,-1.258606,110.704415,5736393.999851,620166.898488,-110.704415,30U,1.533241,3.401009,0.008116,-0.025261,-0.002838,1.144431
1403538162787675,1,INS_SOLUTION_GOOD,51.765523,-1.258603,110.705266,5736394.097134,620167.100248,-110.705266,30U,1.553021,3.403136,-0.028824,-0.0255,-0.003409,1.144236
1403538162850175,1,INS_SOLUTION_GOOD,51.765524,-1.2586,110.706784,5736394.195872,620167.302319,-110.706784,30U,1.573301,3.413628,-0.014067,-0.024508,-0.002705,1.144199
1403538162912674,1,INS_SOLUTION_GOOD,51.765524,-1.258597,110.706053,5736394.295193,620167.50555,-110.706053,30U,1.57393,3.43843,0.041445,-0.022149,-4e-05,1.144275
1403538162975175,1,INS_SOLUTION_GOOD,51.765525,-1.258594,110.701613,5736394.394441,620167.710371,-110.701613,30U,1.561447,3.464541,0.09102,-0.020351,0.004386,1.14452
1403538163037677,1,INS_SOLUTION_GOOD,51.765526,-1.25859,110.695603,5736394.526294,620167.985179,-110.695603,30U,1.588703,3.474167,0.061003,-0.021388,0.009134,1.145013
1403538163100178,1,INS_SOLUTION_GOOD,51.765527,-1.258587,110.693511,5736394.627683,620168.191123,-110.693511,30U,1.626957,3.469881,0.012723,-0.024408,0.010279,1.145928
1403538163162677,1,INS_SOLUTION_GOOD,51.765528,-1.258584,110.693312,5736394.73075,620168.39744,-110.693312,30U,1.640679,3.488516,-0.00638,-0.025619,0.00969,1.146633
1403538163225178,1,INS_SOLUTION_GOOD,51.765529,-1.258581,110.693647,5736394.833963,620168.605203,-110.693647,30U,1.628261,3.523681,0.009782,-0.026343,0.008279,1.146996
1403538163287679,1,INS_SOLUTION_GOOD,51.76553,-1.258578,110.693605,5736394.949564,620168.823856,-110.693605,30U,1.612557,3.552814,0.031078,-0.027604,0.007352,1.147036
1403538163350179,1,INS_SOLUTION_GOOD,51.765531,-1.258575,110.689995,5736395.051535,620169.035515,-110.689995,30U,1.617219,3.578629,0.084342,-0.029118,0.007285,1.14728
1403538163412680,1,INS_SOLUTION_GOOD,51.765532,-1.258572,110.685194,5736395.154194,620169.248056,-110.685194,30U,1.639402,3.585952,0.065832,-0.029411,0.007903,1.147857
1403538163475183,1,INS_SOLUTION_GOOD,51.765533,-1.258569,110.682682,5736395.25808,620169.460705,-110.682682,30U,1.655016,3.58318,0.007182,-0.02903,0.007957,1.14881
1403538163537682,1,INS_SOLUTION_GOOD,51.765534,-1.258565,110.686483,5736395.397485,620169.74424,-110.686483,30U,1.658074,3.592171,-0.088737,-0.028333,0.005927,1.150448
1403538163600181,1,INS_SOLUTION_GOOD,51.765535,-1.258562,110.693215,5736395.501724,620169.957709,-110.693215,30U,1.64446,3.607911,-0.131282,-0.028228,0.003483,1.15147
1403538163662682,1,INS_SOLUTION_GOOD,51.765536,-1.258558,110.70131,5736395.605211,620170.172301,-110.70131,30U,1.638908,3.624546,-0.134042,-0.029304,0.000408,1.152216
1403538163725185,1,INS_SOLUTION_GOOD,51.765537,-1.258555,110.70865,5736395.709382,620170.387567,-110.70865,30U,1.661236,3.632995,-0.103864,-0.030435,-0.002861,1.153048
1403538163787685,1,INS_SOLUTION_GOOD,51.765537,-1.258552,110.712982,5736395.814788,620170.603287,-110.712982,30U,1.679444,3.641353,-0.04332,-0.031571,-0.00546,1.154173
1403538163850186,1,INS_SOLUTION_GOOD,51.765538,-1.258549,110.713527,5736395.920766,620170.819684,-110.713527,30U,1.677621,3.661174,0.029475,-0.033091,-0.006765,1.155275
1403538163912685,1,INS_SOLUTION_GOOD,51.765539,-1.258546,110.709987,5736396.026223,620171.037543,-110.709987,30U,1.662973,3.683903,0.080874,-0.034861,-0.006597,1.155978
1403538163975187,1,INS_SOLUTION_GOOD,51.76554,-1.258542,110.704291,5736396.130931,620171.256662,-110.704291,30U,1.652438,3.704583,0.111412,-0.036241,-0.00575,1.156344
1403538164037689,1,INS_SOLUTION_GOOD,51.765541,-1.258538,110.695142,5736396.269908,620171.550218,-110.695142,30U,1.652066,3.717392,0.110257,-0.036842,-0.00346,1.156969
1403538164100189,1,INS_SOLUTION_GOOD,51.765542,-1.258535,110.689311,5736396.374435,620171.771068,-110.689311,30U,1.656199,3.727099,0.077989,-0.03474,-0.001847,1.157985
1403538164162689,1,INS_SOLUTION_GOOD,51.765543,-1.258532,110.68646,5736396.478977,620171.992538,-110.68646,30U,1.64701,3.739509,0.018714,-0.032407,-0.001763,1.159301
1403538164225189,1,INS_SOLUTION_GOOD,51.765544,-1.258528,110.686604,5736396.582869,620172.214784,-110.686604,30U,1.642428,3.750808,-0.020009,-0.030696,-0.003035,1.16042
1403538164287690,1,INS_SOLUTION_GOOD,51.765545,-1.258525,110.688489,5736396.686779,620172.43772,-110.688489,30U,1.646589,3.761364,-0.032093,-0.029676,-0.00487,1.16136
1403538164350191,1,INS_SOLUTION_GOOD,51.765546,-1.258522,110.689601,5736396.791367,620172.661123,-110.689601,30U,1.663502,3.768691,-0.000469,-0.029642,-0.006427,1.162249
1403538164412690,1,INS_SOLUTION_GOOD,51.765547,-1.258519,110.68863,5736396.897076,620172.884913,-110.68863,30U,1.678627,3.774498,0.033742,-0.029284,-0.007091,1.163266
1403538164475193,1,INS_SOLUTION_GOOD,51.765548,-1.258515,110.685561,5736397.003351,620173.109035,-110.685561,30U,1.682313,3.780974,0.061612,-0.029989,-0.006907,1.164476
1403538164537695,1,INS_SOLUTION_GOOD,51.765549,-1.258511,110.679812,5736397.145364,620173.408593,-110.679812,30U,1.686167,3.792955,0.078401,-0.031505,-0.00597,1.166267
1403538164600193,1,INS_SOLUTION_GOOD,51.76555,-1.258508,110.675253,5736397.251777,620173.633886,-110.675253,30U,1.681517,3.802107,0.073426,-0.032491,-0.005616,1.167582
1403538164662694,1,INS_SOLUTION_GOOD,51.765551,-1.258504,110.671554,5736397.35742,620173.859542,-110.671554,30U,1.655882,3.805734,0.043852,-0.031987,-0.005353,1.168678
1403538164725195,1,INS_SOLUTION_GOOD,51.765552,-1.258501,110.669735,5736397.46152,620174.085787,-110.669735,30U,1.631419,3.817684,0.023117,-0.030281,-0.00501,1.169283
1403538164787695,1,INS_SOLUTION_GOOD,51.765552,-1.258498,110.668071,5736397.564413,620174.312751,-110.668071,30U,1.620207,3.82698,0.03642,-0.028395,-0.003876,1.169711
1403538164850196,1,INS_SOLUTION_GOOD,51.765553,-1.258494,110.665656,5736397.66731,620174.539922,-110.665656,30U,1.631815,3.824516,0.038446,-0.026737,-0.00197,1.17036
1403538164912696,1,INS_SOLUTION_GOOD,51.765554,-1.258491,110.663422,5736397.77098,620174.766799,-110.663422,30U,1.644287,3.823582,0.038886,-0.025091,-0.000461,1.171452
1403538164975199,1,INS_SOLUTION_GOOD,51.765555,-1.258488,110.66072,5736397.875318,620174.993729,-110.66072,30U,1.652768,3.823629,0.05272,-0.024592,0.000634,1.172823
1403538165037699,1,INS_SOLUTION_GOOD,51.765556,-1.258483,110.656171,5736398.014735,620175.296387,-110.656171,30U,1.648622,3.82798,0.064264,-0.024296,0.001554,1.174655
1403538165100201,1,INS_SOLUTION_GOOD,51.765557,-1.25848,110.652243,5736398.118748,620175.52367,-110.652243,30U,1.634297,3.831232,0.059381,-0.024447,0.002083,1.175754
1403538165162699,1,INS_SOLUTION_GOOD,51.765558,-1.258477,110.649018,5736398.222101,620175.751244,-110.649018,30U,1.626567,3.836541,0.056766,-0.025439,0.002335,1.17667
1403538165225201,1,INS_SOLUTION_GOOD,51.765559,-1.258473,110.645075,5736398.325236,620175.979031,-110.645075,30U,1.62595,3.84052,0.071021,-0.025545,0.003358,1.177434
1403538165287700,1,INS_SOLUTION_GOOD,51.76556,-1.25847,110.641303,5736398.427934,620176.207174,-110.641303,30U,1.618172,3.846009,0.048586,-0.025298,0.004415,1.177984
1403538165350203,1,INS_SOLUTION_GOOD,51.765561,-1.258467,110.639912,5736398.530191,620176.435465,-110.639912,30U,1.613219,3.846776,-0.000808,-0.0253,0.004386,1.178518
1403538165412701,1,INS_SOLUTION_GOOD,51.765562,-1.258463,110.641052,5736398.632447,620176.663687,-110.641052,30U,1.617994,3.842995,-0.03224,-0.025632,0.003432,1.179235
1403538165475202,1,INS_SOLUTION_GOOD,51.765562,-1.25846,110.643434,5736398.73514,620176.891623,-110.643434,30U,1.624308,3.838666,-0.042378,-0.025121,0.00242,1.180277
1403538165537705,1,INS_SOLUTION_GOOD,51.765564,-1.258456,110.646241,5736398.872147,620177.195857,-110.646241,30U,1.617988,3.848164,-0.027673,-0.023824,0.001457,1.181788
1403538165600204,1,INS_SOLUTION_GOOD,51.765564,-1.258452,110.647172,5736398.974306,620177.424703,-110.647172,30U,1.60681,3.859067,-0.002119,-0.023807,0.000724,1.182806
1403538165662707,1,INS_SOLUTION_GOOD,51.765565,-1.258449,110.646577,5736399.076035,620177.65418,-110.646577,30U,1.600177,3.86977,0.022682,-0.022121,0.000147,1.183515
1403538165725207,1,INS_SOLUTION_GOOD,51.765566,-1.258445,110.64458,5736399.177226,620177.88443,-110.64458,30U,1.590837,3.884406,0.043549,-0.020032,-6.8e-05,1.18391
1403538165787707,1,INS_SOLUTION_GOOD,51.765567,-1.258442,110.641375,5736399.2781,620178.115378,-110.641375,30U,1.591091,3.891118,0.058677,-0.019309,0.000219,1.184218
1403538165850207,1,INS_SOLUTION_GOOD,51.765568,-1.258439,110.638461,5736399.37987,620178.34658,-110.638461,30U,1.613621,3.896151,0.035807,-0.018471,0.000535,1.184856
1403538165912711,1,INS_SOLUTION_GOOD,51.765569,-1.258435,110.63639,5736399.48287,620178.57803,-110.63639,30U,1.631141,3.900815,0.030868,-0.017258,0.000192,1.185912
1403538165975208,1,INS_SOLUTION_GOOD,51.76557,-1.258432,110.634681,5736399.586436,620178.80988,-110.634681,30U,1.633952,3.913073,0.025443,-0.017123,-0.000544,1.187191
1403538166037713,1,INS_SOLUTION_GOOD,51.765571,-1.258427,110.632773,5736399.724698,620179.12009,-110.632773,30U,1.63539,3.922944,0.014428,-0.01904,-0.001686,1.188715
1403538166100212,1,INS_SOLUTION_GOOD,51.765572,-1.258424,110.632291,5736399.828186,620179.353323,-110.632291,30U,1.62945,3.934168,0.000401,-0.019422,-0.0025,1.189421
1403538166162711,1,INS_SOLUTION_GOOD,51.765573,-1.258421,110.632252,5736399.931136,620179.587328,-110.632252,30U,1.616606,3.94574,0.002103,-0.019859,-0.002866,1.189751
1403538166225215,1,INS_SOLUTION_GOOD,51.765573,-1.258417,110.63154,5736400.033662,620179.82224,-110.63154,30U,1.61433,3.965569,0.024591,-0.020671,-0.002883,1.189939
1403538166287715,1,INS_SOLUTION_GOOD,51.765574,-1.258414,110.627622,5736400.110695,620180.042642,-110.627622,30U,1.61678,3.972517,0.034393,-0.020193,-0.002543,1.190175
1403538166350216,1,INS_SOLUTION_GOOD,51.765575,-1.25841,110.625264,5736400.213253,620180.278865,-110.625264,30U,1.61797,3.981635,0.045167,-0.018973,-0.002286,1.190178
1403538166412715,1,INS_SOLUTION_GOOD,51.765576,-1.258407,110.622351,5736400.316271,620180.515699,-110.622351,30U,1.624778,3.994465,0.044099,-0.018142,-0.002103,1.19017
1403538166475216,1,INS_SOLUTION_GOOD,51.765577,-1.258402,110.61885,5736400.453916,620180.832691,-110.61885,30U,1.62104,4.012551,0.052604,-0.016011,-0.002968,1.18992
1403538166537717,1,INS_SOLUTION_GOOD,51.765578,-1.258399,110.615679,5736400.556979,620181.071457,-110.615679,30U,1.62437,4.027336,0.060877,-0.014098,-0.003583,1.18938
1403538166600219,1,INS_SOLUTION_GOOD,51.765579,-1.258395,110.611651,5736400.660282,620181.310907,-110.611651,30U,1.631496,4.036326,0.071106,-0.012763,-0.003517,1.188725
1403538166662718,1,INS_SOLUTION_GOOD,51.76558,-1.258392,110.607307,5736400.76426,620181.550687,-110.607307,30U,1.645313,4.039361,0.070933,-0.012584,-0.002869,1.188061
1403538166725218,1,INS_SOLUTION_GOOD,51.765581,-1.258388,110.603671,5736400.869352,620181.790509,-110.603671,30U,1.665895,4.037637,0.045307,-0.012265,-0.00198,1.187535
1403538166787722,1,INS_SOLUTION_GOOD,51.765581,-1.258385,110.60199,5736400.975448,620182.030445,-110.60199,30U,1.678941,4.043692,0.014711,-0.012223,-0.001772,1.187321
1403538166850219,1,INS_SOLUTION_GOOD,51.765582,-1.258381,110.601157,5736401.08211,620182.270782,-110.601157,30U,1.685316,4.052898,0.014737,-0.012935,-0.002314,1.187337
1403538166912719,1,INS_SOLUTION_GOOD,51.765583,-1.258378,110.600497,5736401.18912,620182.511732,-110.600497,30U,1.689269,4.064906,0.008487,-0.013737,-0.003391,1.187363
1403538166975220,1,INS_SOLUTION_GOOD,51.765584,-1.258374,110.599711,5736401.296374,620182.753574,-110.599711,30U,1.691967,4.080469,0.016724,-0.013732,-0.00559,1.187158
1403538167037720,1,INS_SOLUTION_GOOD,51.765585,-1.258369,110.597541,5736401.439411,620183.07734,-110.597541,30U,1.689194,4.099947,0.049524,-0.014746,-0.00954,1.186439
1403538167100222,1,INS_SOLUTION_GOOD,51.765586,-1.258366,110.593165,5736401.54637,620183.320777,-110.593165,30U,1.682903,4.10024,0.090649,-0.014762,-0.01094,1.185618
1403538167162723,1,INS_SOLUTION_GOOD,51.765587,-1.258362,110.587389,5736401.653219,620183.564285,-110.587389,30U,1.685411,4.102419,0.097749,-0.014074,-0.010477,1.184697
1403538167225224,1,INS_SOLUTION_GOOD,51.765588,-1.258359,110.581903,5736401.760406,620183.807992,-110.581903,30U,1.697353,4.104434,0.081072,-0.013496,-0.009328,1.18402
1403538167287725,1,INS_SOLUTION_GOOD,51.765589,-1.258355,110.54519,5736401.822737,620184.046419,-110.54519,30U,1.709892,4.098543,0.034064,-0.012662,-0.009339,1.183908
1403538167350225,1,INS_SOLUTION_GOOD,51.76559,-1.258352,110.544212,5736401.931137,620184.289614,-110.544212,30U,1.708615,4.092568,0.007984,-0.011082,-0.010484,1.183987
1403538167412727,1,INS_SOLUTION_GOOD,51.76559,-1.258348,110.543258,5736402.039197,620184.53261,-110.543258,30U,1.695225,4.092797,0.023204,-0.008976,-0.010537,1.183902
1403538167475226,1,INS_SOLUTION_GOOD,51.765591,-1.258345,110.541551,5736402.14626,620184.775768,-110.541551,30U,1.68372,4.09415,0.030874,-0.008532,-0.00964,1.183609
1403538167537727,1,INS_SOLUTION_GOOD,51.765593,-1.25834,110.536983,5736402.289195,620185.099882,-110.536983,30U,1.699707,4.094951,0.097676,-0.00959,-0.007516,1.18292
1403538167600227,1,INS_SOLUTION_GOOD,51.765593,-1.258336,110.529062,5736402.397476,620185.342804,-110.529062,30U,1.715154,4.087152,0.156537,-0.009747,-0.00471,1.182495
1403538167662730,1,INS_SOLUTION_GOOD,51.765594,-1.258333,110.519182,5736402.506637,620185.58529,-110.519182,30U,1.725704,4.079484,0.165342,-0.009864,-0.001815,1.182398
1403538167725229,1,INS_SOLUTION_GOOD,51.765595,-1.258329,110.510886,5736402.615673,620185.827158,-110.510886,30U,1.717181,4.070539,0.104004,-0.010455,6e-05,1.182518
1403538167787729,1,INS_SOLUTION_GOOD,51.765596,-1.258326,110.506024,5736402.724371,620186.068896,-110.506024,30U,1.711484,4.072233,0.060766,-0.010882,0.000333,1.182674
1403538167850231,1,INS_SOLUTION_GOOD,51.765597,-1.258322,110.502653,5736402.832402,620186.31065,-110.502653,30U,1.697436,4.073931,0.058248,-0.009918,0.000202,1.182637
1403538167912730,1,INS_SOLUTION_GOOD,51.765598,-1.258319,110.498439,5736402.939552,620186.55277,-110.498439,30U,1.680804,4.078959,0.071256,-0.008392,0.000976,1.18214
1403538167975232,1,INS_SOLUTION_GOOD,51.765599,-1.258315,110.495545,5736403.045809,620186.794774,-110.495545,30U,1.670861,4.072047,0.015361,-0.005789,0.001173,1.181572
1403538168037733,1,INS_SOLUTION_GOOD,51.7656,-1.25831,110.496723,5736403.187248,620187.116852,-110.496723,30U,1.671596,4.063349,-0.025446,-0.001545,-0.001034,1.181224
1403538168100232,1,INS_SOLUTION_GOOD,51.765601,-1.258307,110.498039,5736403.293811,620187.357675,-110.498039,30U,1.692011,4.047444,-0.017265,-0.000638,-0.002325,1.181495
1403538168162733,1,INS_SOLUTION_GOOD,51.765602,-1.258303,110.498304,5736403.401799,620187.597634,-110.498304,30U,1.715857,4.037963,0.010759,-0.001267,-0.002479,1.182102
1403538168225235,1,INS_SOLUTION_GOOD,51.765603,-1.2583,110.496534,5736403.510889,620187.837154,-110.496534,30U,1.724383,4.035731,0.041555,-0.00302,-0.001699,1.182569
1403538168287737,1,INS_SOLUTION_GOOD,51.765604,-1.258296,110.493488,5736403.619761,620188.076816,-110.493488,30U,1.714046,4.040615,0.054306,-0.004566,-0.000455,1.182469
1403538168350236,1,INS_SOLUTION_GOOD,51.765604,-1.258293,110.456209,5736403.690515,620188.276586,-110.456209,30U,1.698979,4.048312,0.052705,-0.006204,0.000488,1.18212
1403538168412739,1,INS_SOLUTION_GOOD,51.765605,-1.25829,110.452947,5736403.797966,620188.517318,-110.452947,30U,1.691316,4.059925,0.054963,-0.007772,0.000819,1.181464
1403538168475237,1,INS_SOLUTION_GOOD,51.765606,-1.258286,110.450105,5736403.905315,620188.758467,-110.450105,30U,1.697118,4.06464,0.038917,-0.007886,0.00025,1.18102
1403538168537738,1,INS_SOLUTION_GOOD,51.765608,-1.258282,110.447059,5736404.049093,620189.080627,-110.447059,30U,1.705517,4.075611,0.04746,-0.007878,-0.001396,1.180955
1403538168600239,1,INS_SOLUTION_GOOD,51.765608,-1.258278,110.44367,5736404.157139,620189.323002,-110.44367,30U,1.701888,4.089384,0.063777,-0.00684,-0.001922,1.180912
1403538168662740,1,INS_SOLUTION_GOOD,51.765609,-1.258274,110.440228,5736404.264759,620189.566147,-110.440228,30U,1.695529,4.099216,0.044623,-0.005585,-0.002595,1.180632
1403538168725241,1,INS_SOLUTION_GOOD,51.76561,-1.258271,110.43841,5736404.372498,620189.809633,-110.43841,30U,1.702126,4.103013,0.016342,-0.004746,-0.004078,1.180354
1403538168787744,1,INS_SOLUTION_GOOD,51.765611,-1.258267,110.437753,5736404.480907,620190.053242,-110.437753,30U,1.722607,4.100468,0.011169,-0.004849,-0.005609,1.180223
1403538168850243,1,INS_SOLUTION_GOOD,51.765612,-1.258264,110.437129,5736404.590757,620190.296609,-110.437129,30U,1.741274,4.100391,0.007417,-0.00512,-0.006522,1.180296
1403538168912743,1,INS_SOLUTION_GOOD,51.765613,-1.25826,110.437024,5736404.701283,620190.540306,-110.437024,30U,1.7478,4.111228,0.00366,-0.004294,-0.007943,1.180516
1403538168975245,1,INS_SOLUTION_GOOD,51.765614,-1.258257,110.436369,5736404.811601,620190.784628,-110.436369,30U,1.735172,4.122111,0.02173,-0.004708,-0.009172,1.180647
1403538169037745,1,INS_SOLUTION_GOOD,51.765615,-1.258252,110.432754,5736404.958502,620191.111754,-110.432754,30U,1.740824,4.144295,0.06914,-0.005143,-0.009613,1.180729
1403538169100247,1,INS_SOLUTION_GOOD,51.765616,-1.258248,110.427511,5736405.069198,620191.357932,-110.427511,30U,1.752554,4.149567,0.097814,-0.006726,-0.009476,1.181012
1403538169162748,1,INS_SOLUTION_GOOD,51.765617,-1.258245,110.421521,5736405.18068,620191.604367,-110.421521,30U,1.766585,4.157007,0.100108,-0.006719,-0.008974,1.181401
1403538169225247,1,INS_SOLUTION_GOOD,51.765618,-1.258241,110.415558,5736405.292511,620191.851484,-110.415558,30U,1.760402,4.171916,0.104149,-0.005691,-0.008645,1.181948
1403538169287748,1,INS_SOLUTION_GOOD,51.765619,-1.258237,110.40893,5736405.403705,620192.099859,-110.40893,30U,1.74709,4.191334,0.113401,-0.007118,-0.008113,1.182429
1403538169350248,1,INS_SOLUTION_GOOD,51.765619,-1.258234,110.370459,5736405.458858,620192.326582,-110.370459,30U,1.75394,4.197944,0.087658,-0.008633,-0.007974,1.182889
1403538169412749,1,INS_SOLUTION_GOOD,51.76562,-1.25823,110.366068,5736405.570523,620192.576051,-110.366068,30U,1.766005,4.204442,0.057029,-0.008281,-0.008655,1.1832
1403538169475249,1,INS_SOLUTION_GOOD,51.765621,-1.258227,110.362693,5736405.682426,620192.826135,-110.362693,30U,1.76336,4.221527,0.06396,-0.009161,-0.009673,1.183574
1403538169537749,1,INS_SOLUTION_GOOD,51.765623,-1.258222,110.356844,5736405.831398,620193.160805,-110.356844,30U,1.765318,4.232286,0.070748,-0.010322,-0.009538,1.183929
1403538169600250,1,INS_SOLUTION_GOOD,51.765624,-1.258218,110.353242,5736405.943558,620193.412333,-110.353242,30U,1.767461,4.246095,0.056515,-0.009326,-0.009395,1.184311
1403538169662750,1,INS_SOLUTION_GOOD,51.765625,-1.258214,110.349091,5736406.055408,620193.664904,-110.349091,30U,1.76281,4.259733,0.072964,-0.008848,-0.009415,1.184748
1403538169725250,1,INS_SOLUTION_GOOD,51.765626,-1.258211,110.344779,5736406.167161,620193.918029,-110.344779,30U,1.760546,4.265919,0.070561,-0.008517,-0.00933,1.185092
1403538169787752,1,INS_SOLUTION_GOOD,51.765626,-1.258207,110.340224,5736406.278928,620194.171776,-110.340224,30U,1.756566,4.28214,0.081104,-0.00537,-0.009091,1.185307
1403538169850251,1,INS_SOLUTION_GOOD,51.765627,-1.258203,110.335338,5736406.390272,620194.42643,-110.335338,30U,1.75625,4.296433,0.086779,-0.0042,-0.008883,1.185633
1403538169912753,1,INS_SOLUTION_GOOD,51.765628,-1.2582,110.32968,5736406.502406,620194.681548,-110.32968,30U,1.787314,4.291932,0.095475,-0.005464,-0.008553,1.186433
1403538169975253,1,INS_SOLUTION_GOOD,51.765629,-1.258196,110.32339,5736406.616429,620194.936553,-110.32339,30U,1.807419,4.296787,0.119131,-0.004845,-0.008018,1.187557
1403538170037753,1,INS_SOLUTION_GOOD,51.765631,-1.258191,110.313807,5736406.768774,620195.277287,-110.313807,30U,1.796519,4.310378,0.109866,-0.005249,-0.006543,1.188845
1403538170100255,1,INS_SOLUTION_GOOD,51.765632,-1.258187,110.308394,5736406.882378,620195.533406,-110.308394,30U,1.786384,4.318737,0.067208,-0.006517,-0.006317,1.189433
1403538170162756,1,INS_SOLUTION_GOOD,51.765633,-1.258183,110.304982,5736406.995442,620195.790159,-110.304982,30U,1.776177,4.329898,0.056488,-0.006472,-0.007032,1.189758
1403538170225257,1,INS_SOLUTION_GOOD,51.765634,-1.25818,110.301245,5736407.107962,620196.047478,-110.301245,30U,1.76734,4.336189,0.065898,-0.004618,-0.007671,1.190024
1403538170287759,1,INS_SOLUTION_GOOD,51.765634,-1.258176,110.297637,5736407.220046,620196.305152,-110.297637,30U,1.767996,4.341025,0.053083,-0.003443,-0.008476,1.190614
1403538170350258,1,INS_SOLUTION_GOOD,51.765635,-1.258172,110.194128,5736407.311772,620196.535074,-110.194128,30U,1.768018,4.344102,0.05066,-0.002208,-0.010018,1.191638
1403538170412758,1,INS_SOLUTION_GOOD,51.765636,-1.258169,110.190347,5736407.42398,620196.793298,-110.190347,30U,1.767078,4.351145,0.072514,-0.001524,-0.011164,1.192399
1403538170475261,1,INS_SOLUTION_GOOD,51.765637,-1.258165,110.185555,5736407.536418,620197.051792,-110.185555,30U,1.773157,4.356181,0.089111,-0.001069,-0.011859,1.192944
1403538170537760,1,INS_SOLUTION_GOOD,51.765638,-1.25816,110.178251,5736407.68642,620197.396932,-110.178251,30U,1.771994,4.360251,0.086526,-0.001377,-0.011507,1.19337
1403538170600261,1,INS_SOLUTION_GOOD,51.765639,-1.258156,110.173065,5736407.799094,620197.656042,-110.173065,30U,1.777939,4.366181,0.087125,-0.002888,-0.010652,1.193604
1403538170662763,1,INS_SOLUTION_GOOD,51.76564,-1.258152,110.168059,5736407.912331,620197.915414,-110.168059,30U,1.786898,4.369795,0.078616,-0.004107,-0.009789,1.193991
1403538170725265,1,INS_SOLUTION_GOOD,51.765641,-1.258148,110.16368,5736408.025915,620198.175331,-110.16368,30U,1.785914,4.383139,0.071876,-0.004144,-0.009775,1.194555
1403538170787764,1,INS_SOLUTION_GOOD,51.765642,-1.258145,110.159194,5736408.138847,620198.435884,-110.159194,30U,1.76896,4.394318,0.077505,-0.002999,-0.01035,1.195021
1403538170850264,1,INS_SOLUTION_GOOD,51.765643,-1.258141,110.153887,5736408.250686,620198.697292,-110.153887,30U,1.755576,4.407618,0.106544,-0.00254,-0.010264,1.195164
1403538170912765,1,INS_SOLUTION_GOOD,51.765644,-1.258137,110.146483,5736408.362317,620198.959257,-110.146483,30U,1.760068,4.411489,0.129466,-0.00153,-0.008925,1.195085
1403538170975281,1,INS_SOLUTION_GOOD,51.765645,-1.258133,110.138909,5736408.474617,620199.221345,-110.138909,30U,1.773553,4.41422,0.123517,-0.000776,-0.007573,1.195107
1403538171037767,1,INS_SOLUTION_GOOD,51.765646,-1.258128,110.129221,5736408.625281,620199.570887,-110.129221,30U,1.782301,4.412859,0.112962,0.000673,-0.006479,1.195369
1403538171100268,1,INS_SOLUTION_GOOD,51.765647,-1.258124,110.123705,5736408.738692,620199.832879,-110.123705,30U,1.7887,4.411007,0.070288,-0.000472,-0.006284,1.195795
1403538171162769,1,INS_SOLUTION_GOOD,51.765648,-1.25812,110.12017,5736408.852656,620200.09472,-110.12017,30U,1.802144,4.406526,0.047529,-0.002657,-0.006945,1.196356
1403538171225270,1,INS_SOLUTION_GOOD,51.765649,-1.258117,110.117535,5736408.967174,620200.356478,-110.117535,30U,1.80488,4.411643,0.047232,-0.004057,-0.008022,1.196899
1403538171287771,1,INS_SOLUTION_GOOD,51.76565,-1.258113,110.113895,5736409.081374,620200.618865,-110.113895,30U,1.788184,4.423126,0.08073,-0.004366,-0.008687,1.197089
1403538171350272,1,INS_SOLUTION_GOOD,51.76565,-1.258107,110.032546,5736409.091117,620200.984822,-110.032546,30U,1.768098,4.431518,0.094688,-0.004664,-0.008188,1.197384
1403538171412773,1,INS_SOLUTION_GOOD,51.765651,-1.258104,110.02757,5736409.203557,620201.24808,-110.02757,30U,1.770669,4.431804,0.071536,-0.004389,-0.007934,1.197409
1403538171475273,1,INS_SOLUTION_GOOD,51.765652,-1.2581,110.023531,5736409.316223,620201.51147,-110.023531,30U,1.775651,4.436144,0.063181,-0.002965,-0.008526,1.197922
1403538171537774,1,INS_SOLUTION_GOOD,51.765653,-1.258095,110.017976,5736409.46681,620201.862464,-110.017976,30U,1.78114,4.431082,0.082711,-0.005253,-0.009271,1.199361
1403538171600275,1,INS_SOLUTION_GOOD,51.765654,-1.258091,110.01267,5736409.580251,620202.125698,-110.01267,30U,1.790012,4.431945,0.088829,-0.007924,-0.008866,1.200507
1403538171662776,1,INS_SOLUTION_GOOD,51.765655,-1.258087,110.007629,5736409.694026,620202.388924,-110.007629,30U,1.788102,4.434872,0.080823,-0.008992,-0.008548,1.201469
1403538171725277,1,INS_SOLUTION_GOOD,51.765656,-1.258083,110.002715,5736409.807256,620202.652646,-110.002715,30U,1.773353,4.446586,0.081743,-0.010019,-0.008658,1.202183
1403538171787778,1,INS_SOLUTION_GOOD,51.765657,-1.258079,109.997663,5736409.919502,620202.917082,-109.997663,30U,1.759396,4.45483,0.089683,-0.010386,-0.009223,1.202679
1403538171850278,1,INS_SOLUTION_GOOD,51.765658,-1.258075,109.99177,5736410.031088,620203.181878,-109.99177,30U,1.749823,4.460386,0.101547,-0.008984,-0.009245,1.203123
1403538171912780,1,INS_SOLUTION_GOOD,51.765659,-1.258071,109.986533,5736410.142348,620203.446959,-109.986533,30U,1.748397,4.466479,0.073364,-0.006617,-0.009764,1.20382
1403538171975283,1,INS_SOLUTION_GOOD,51.76566,-1.258067,109.98225,5736410.253513,620203.712733,-109.98225,30U,1.745122,4.481067,0.069966,-0.004137,-0.011825,1.204601
1403538172037781,1,INS_SOLUTION_GOOD,51.765661,-1.258062,109.975946,5736410.401532,620204.068,-109.975946,30U,1.744521,4.482983,0.090753,-0.000793,-0.016444,1.205552
1403538172100283,1,INS_SOLUTION_GOOD,51.765662,-1.258058,109.971017,5736410.513024,620204.333489,-109.971017,30U,1.761588,4.456388,0.069401,-6.8e-05,-0.018772,1.206591
1403538172162783,1,INS_SOLUTION_GOOD,51.765663,-1.258055,109.965709,5736410.625384,620204.59806,-109.965709,30U,1.772168,4.449597,0.110172,-0.001475,-0.018197,1.207463
1403538172225284,1,INS_SOLUTION_GOOD,51.765664,-1.258051,109.959156,5736410.738073,620204.862416,-109.959156,30U,1.77343,4.452993,0.103206,-0.002881,-0.014581,1.207732
1403538172287785,1,INS_SOLUTION_GOOD,51.765665,-1.258047,109.952586,5736410.850442,620205.127332,-109.952586,30U,1.761928,4.463879,0.117954,-0.00515,-0.010133,1.207648
1403538172350285,1,INS_SOLUTION_GOOD,51.765666,-1.258043,109.935159,5736410.936837,620205.362284,-109.935159,30U,1.756014,4.467,0.092662,-0.007223,-0.006035,1.207728
1403538172412787,1,INS_SOLUTION_GOOD,51.765667,-1.258039,109.930317,5736411.04844,620205.627771,-109.930317,30U,1.752264,4.47355,0.072696,-0.007258,-0.003982,1.207998
1403538172475287,1,INS_SOLUTION_GOOD,51.765668,-1.258036,109.925223,5736411.15973,620205.894094,-109.925223,30U,1.74443,4.489497,0.106885,-0.004721,-0.003456,1.208336
1403538172537790,1,INS_SOLUTION_GOOD,51.765669,-1.25803,109.912365,5736411.307111,620206.250618,-109.912365,30U,1.729849,4.510592,0.229313,-0.002467,-0.001854,1.208774
1403538172600288,1,INS_SOLUTION_GOOD,51.76567,-1.258026,109.897114,5736411.417109,620206.518767,-109.897114,30U,1.724034,4.513136,0.254835,-0.004253,0.001833,1.208821
1403538172662789,1,INS_SOLUTION_GOOD,51.765671,-1.258023,109.884431,5736411.527431,620206.786494,-109.884431,30U,1.743108,4.498734,0.152795,-0.006239,0.00463,1.208601
1403538172725289,1,INS_SOLUTION_GOOD,51.765672,-1.258019,109.879368,5736411.639512,620207.05335,-109.879368,30U,1.774083,4.483224,0.022564,-0.0068,0.004432,1.208826
1403538172787790,1,INS_SOLUTION_GOOD,51.765673,-1.258015,109.880523,5736411.752363,620207.319842,-109.880523,30U,1.771988,4.488878,-0.054546,-0.00786,0.002613,1.209585
1403538172850289,1,INS_SOLUTION_GOOD,51.765674,-1.258011,109.884944,5736411.864782,620207.586828,-109.884944,30U,1.761869,4.503027,-0.08631,-0.009478,7.6e-05,1.210286
1403538172912792,1,INS_SOLUTION_GOOD,51.765675,-1.258007,109.889948,5736411.976443,620207.85473,-109.889948,30U,1.747831,4.519313,-0.075605,-0.009528,-0.002468,1.210534
1403538172975291,1,INS_SOLUTION_GOOD,51.765676,-1.258003,109.892975,5736412.087241,620208.123757,-109.892975,30U,1.729518,4.537245,-0.022971,-0.008519,-0.004468,1.21028
1403538173037790,1,INS_SOLUTION_GOOD,51.765677,-1.257998,109.890467,5736412.234268,620208.484087,-109.890467,30U,1.736723,4.551585,0.077934,-0.006822,-0.005505,1.209726
1403538173100292,1,INS_SOLUTION_GOOD,51.765678,-1.257994,109.884999,5736412.345544,620208.754483,-109.884999,30U,1.764933,4.548959,0.098543,-0.007621,-0.005578,1.210074
1403538173162791,1,INS_SOLUTION_GOOD,51.765679,-1.25799,109.879219,5736412.459147,620209.024479,-109.879219,30U,1.804316,4.542807,0.094666,-0.009708,-0.006089,1.211085
1403538173225292,1,INS_SOLUTION_GOOD,51.76568,-1.257986,109.872999,5736412.574529,620209.294432,-109.872999,30U,1.812375,4.551027,0.107396,-0.010867,-0.006814,1.212217
1403538173287795,1,INS_SOLUTION_GOOD,51.765681,-1.257982,109.86683,5736412.688821,620209.565308,-109.86683,30U,1.785779,4.564808,0.084482,-0.012184,-0.007525,1.212513
1403538173350293,1,INS_SOLUTION_GOOD,51.765682,-1.257978,109.942193,5736412.788341,620209.800084,-109.942193,30U,1.765643,4.583574,0.040316,-0.014465,-0.009395,1.212213
1403538173412792,1,INS_SOLUTION_GOOD,51.765683,-1.257974,109.940061,5736412.900559,620210.072667,-109.940061,30U,1.763494,4.589174,0.03532,-0.015246,-0.011761,1.211538
1403538173475294,1,INS_SOLUTION_GOOD,51.765684,-1.25797,109.937438,5736413.013118,620210.345518,-109.937438,30U,1.770102,4.592732,0.05238,-0.014382,-0.012926,1.211032
1403538173537794,1,INS_SOLUTION_GOOD,51.765685,-1.257965,109.932135,5736413.16368,620210.709423,-109.932135,30U,1.776839,4.597747,0.081035,-0.012919,-0.012108,1.211062
1403538173600294,1,INS_SOLUTION_GOOD,51.765686,-1.257961,109.926473,5736413.27681,620210.982882,-109.926473,30U,1.777079,4.603739,0.100374,-0.011832,-0.010381,1.211263
1403538173662795,1,INS_SOLUTION_GOOD,51.765687,-1.257957,109.921001,5736413.389947,620211.256686,-109.921001,30U,1.781628,4.613865,0.083066,-0.011505,-0.009713,1.211334
1403538173725296,1,INS_SOLUTION_GOOD,51.765688,-1.257953,109.915276,5736413.503314,620211.53076,-109.915276,30U,1.784084,4.61424,0.109213,-0.011466,-0.01013,1.211074
1403538173787795,1,INS_SOLUTION_GOOD,51.765689,-1.257949,109.908398,5736413.616793,620211.804901,-109.908398,30U,1.780992,4.617419,0.119482,-0.008542,-0.010074,1.210604
1403538173850295,1,INS_SOLUTION_GOOD,51.76569,-1.257945,109.900492,5736413.729952,620212.079601,-109.900492,30U,1.771834,4.625674,0.144607,-0.006215,-0.009426,1.210186
1403538173912796,1,INS_SOLUTION_GOOD,51.765691,-1.257941,109.89148,5736413.843123,620212.354785,-109.89148,30U,1.785943,4.635239,0.156548,-0.005532,-0.008153,1.209978
1403538173975296,1,INS_SOLUTION_GOOD,51.765692,-1.257937,109.882899,5736413.957409,620212.63008,-109.882899,30U,1.803519,4.630305,0.115729,-0.003461,-0.00758,1.210131
1403538174037799,1,INS_SOLUTION_GOOD,51.765693,-1.257932,109.876678,5736414.110268,620212.996968,-109.876678,30U,1.797974,4.629383,0.044039,-0.002195,-0.009117,1.210521
1403538174100298,1,INS_SOLUTION_GOOD,51.765694,-1.257928,109.875075,5736414.224774,620213.27212,-109.875075,30U,1.803069,4.632047,0.017367,-0.003167,-0.010989,1.210459
