timestamp,burst,ins_status,latitude,longitude,altitude,northing,easting,down,utm_zone,velocity_north,velocity_east,velocity_down,roll,pitch,yaw,serie
1403621577461907,1,INS_BAD_GPS_AGREEMENT,51.760611,-1.260213,111.663957,5735845.256321,620069.089358,-111.663957,30U,7.960408,-0.539673,0.032614,0.004344,-0.011388,6.233018,1
1403621577774411,1,INS_BAD_GPS_AGREEMENT,51.760633,-1.260212,111.608433,5735847.67892,620069.048893,-111.608433,30U,7.953205,-0.527013,0.054759,0.006745,-0.008727,6.232236,1
1403621578024411,1,INS_BAD_GPS_AGREEMENT,51.760652,-1.260214,111.597957,5735849.741282,620068.861458,-111.597957,30U,7.942847,-0.548493,-0.024654,0.008753,-0.008071,6.230797,1
1403621578336915,1,INS_BAD_GPS_AGREEMENT,51.760673,-1.260217,111.591967,5735852.11816,620068.63959,-111.591967,30U,7.943724,-0.553626,0.067095,0.009741,-0.012402,6.230735,1
1403621578586919,1,INS_BAD_GPS_AGREEMENT,51.760692,-1.260217,111.631358,5735854.198912,620068.607349,-111.631358,30U,7.961648,-0.5348,0.066292,0.010007,-0.008581,6.230531,1
1403621579649432,1,INS_SOLUTION_GOOD,51.760759,-1.260217,113.337172,5735861.645704,620068.428449,-113.337172,30U,8.048712,-0.46845,-0.043315,0.012559,-0.006152,6.238261,2
1403621579961936,1,INS_SOLUTION_GOOD,51.760782,-1.260219,113.352144,5735864.226107,620068.221059,-113.352144,30U,8.110731,-0.448708,-0.074818,0.01956,-0.007723,6.241169,2
1403621580274442,1,INS_SOLUTION_GOOD,51.760804,-1.260221,113.36197,5735866.661817,620068.030586,-113.36197,30U,8.15739,-0.461447,0.017554,0.016971,-0.005857,6.241706,2
1403621580524440,1,INS_SOLUTION_GOOD,51.760827,-1.260222,112.666187,5735869.276502,620067.842334,-112.666187,30U,8.20249,-0.458224,-0.079439,0.014572,-0.002025,6.243293,2
1403621580836944,1,INS_SOLUTION_GOOD,51.76085,-1.260224,112.687484,5735871.73606,620067.653363,-112.687484,30U,8.225186,-0.437563,-0.002903,0.010824,-0.010806,6.244063,2
1403621582024462,1,INS_BAD_GPS_AGREEMENT,51.760939,-1.260231,112.71586,5735881.660944,620066.952311,-112.71586,30U,8.283201,-0.472652,0.006746,0.009851,-0.012959,6.239393,3
1403621582336961,1,INS_BAD_GPS_AGREEMENT,51.760961,-1.260233,112.703832,5735884.141415,620066.749101,-112.703832,30U,8.280703,-0.488705,0.036367,0.011122,-0.004639,6.236774,3
1403621582586962,1,INS_BAD_GPS_AGREEMENT,51.760981,-1.260235,112.71017,5735886.294556,620066.593611,-112.71017,30U,8.263698,-0.524091,-0.12345,0.010648,-0.00605,6.233089,3
1403621582899466,1,INS_BAD_GPS_AGREEMENT,51.761003,-1.260237,112.722383,5735888.764465,620066.37208,-112.722383,30U,8.235974,-0.568177,0.02556,0.005822,-0.008145,6.226643,3
1403621583149471,1,INS_BAD_GPS_AGREEMENT,51.761022,-1.260239,112.723858,5735890.897474,620066.16563,-112.723858,30U,8.211318,-0.622257,-0.025393,-0.001672,-0.00993,6.222281,3
1403621584336983,1,INS_BAD_GPS_AGREEMENT,51.761108,-1.26025,112.717737,5735900.41253,620065.225787,-112.717737,30U,7.91121,-0.668707,-0.013443,-0.007332,-0.010342,6.211021,4
1403621584586988,1,INS_BAD_GPS_AGREEMENT,51.761126,-1.260252,112.718352,5735902.45679,620065.007162,-112.718352,30U,7.841255,-0.684927,0.00843,-0.008033,-0.003798,6.210036,4
1403621584899488,1,INS_BAD_GPS_AGREEMENT,51.761147,-1.260255,112.737597,5735904.789581,620064.746923,-112.737597,30U,7.756439,-0.661373,-0.0664,-0.006966,-0.011034,6.211624,4
1403621585149492,1,INS_BAD_GPS_AGREEMENT,51.761165,-1.260257,112.738342,5735906.792224,620064.528186,-112.738342,30U,7.686884,-0.666244,-0.003794,-0.006749,-0.007572,6.212752,4
1403621585461995,1,INS_BAD_GPS_AGREEMENT,51.761187,-1.26026,112.746661,5735909.228259,620064.262722,-112.746661,30U,7.568509,-0.64888,0.001574,-0.00545,-0.006593,6.214602,4
1403621586837013,1,INS_BAD_GPS_AGREEMENT,51.761274,-1.260272,112.821308,5735918.840742,620063.241639,-112.821308,30U,6.576855,-0.518512,-0.049401,-0.011925,-0.005002,6.221451,5
1403621587149514,1,INS_BAD_GPS_AGREEMENT,51.761292,-1.260274,112.839376,5735920.899621,620063.029502,-112.839376,30U,6.31566,-0.503451,-0.084359,-0.006884,-0.002344,6.221551,5
1403621587524520,1,INS_BAD_GPS_AGREEMENT,51.761313,-1.260277,112.872893,5735923.232816,620062.790866,-112.872893,30U,5.9794,-0.475265,-0.075783,-0.001939,-0.006165,6.218315,5
1403621587899523,1,INS_BAD_GPS_AGREEMENT,51.761332,-1.26028,112.8923,5735925.315629,620062.560482,-112.8923,30U,5.619219,-0.513189,-0.077447,-0.017406,0.000712,6.21514,5
1403621588274529,1,INS_BAD_GPS_AGREEMENT,51.761351,-1.260282,112.934656,5735927.371829,620062.329283,-112.934656,30U,5.221402,-0.522469,-0.11605,-0.008028,-0.010104,6.211749,5
1403621591274559,1,INS_BAD_GPS_AGREEMENT,51.761436,-1.260296,113.107587,5735936.804493,620061.130696,-113.107587,30U,0.690932,-0.157781,-0.073513,-0.002254,-0.006259,6.194633,6
1403621598524651,1,INS_BAD_GPS_AGREEMENT,51.761438,-1.260288,113.469318,5735937.083393,620061.669512,-113.469318,30U,-0.079781,-0.036906,-0.081801,-0.002736,-0.003418,6.191581,6
1403621604399717,1,INS_BAD_GPS_AGREEMENT,51.761446,-1.260285,113.818124,5735937.982282,620061.872262,-113.818124,30U,1.518272,-0.200447,-0.093006,-0.000921,0.006017,6.186894,6
1403621605274729,1,INS_BAD_GPS_AGREEMENT,51.761465,-1.260288,113.877389,5735940.113364,620061.626987,-113.877389,30U,3.152326,-0.394293,-0.100051,-0.001587,0.007812,6.182997,6
1403621605899733,1,INS_BAD_GPS_AGREEMENT,51.761487,-1.26029,113.841713,5735942.524666,620061.411484,-113.841713,30U,4.136118,-0.50408,-0.106132,0.009089,0.002786,6.175938,6
1403621607774744,1,INS_BAD_GPS_AGREEMENT,51.761572,-1.260307,114.012886,5735951.952348,620060.045995,-114.012886,30U,5.51798,-0.872454,-0.105034,-0.00791,-0.001125,6.138166,7
1403621608149749,1,INS_BAD_GPS_AGREEMENT,51.761591,-1.260312,114.040789,5735954.067915,620059.654091,-114.040789,30U,5.655262,-0.903585,-0.155647,-0.01552,0.010841,6.136439,7
1403621608524755,1,INS_BAD_GPS_AGREEMENT,51.761612,-1.260315,113.916264,5735956.390018,620059.346952,-113.916264,30U,5.770539,-0.961803,-0.136553,-0.007024,-0.001442,6.137987,7
1403621608899758,1,INS_BAD_GPS_AGREEMENT,51.761632,-1.26032,113.949682,5735958.592667,620058.943926,-113.949682,30U,5.856731,-0.941223,-0.130406,-0.005716,0.001379,6.137456,7
1403621609274761,1,INS_BAD_GPS_AGREEMENT,51.761651,-1.260325,113.999602,5735960.70176,620058.555837,-113.999602,30U,5.900014,-0.952696,-0.048142,-0.009982,-0.012163,6.13863,7
1403621610899785,1,INS_BAD_GPS_AGREEMENT,51.761738,-1.260345,114.075061,5735970.346813,620057.001646,-114.075061,30U,5.656536,-0.874515,-0.110222,-0.015651,-0.001175,6.140256,8
1403621611274787,1,INS_BAD_GPS_AGREEMENT,51.761756,-1.260349,114.118159,5735972.338756,620056.642245,-114.118159,30U,5.456152,-0.862438,-0.116266,-0.017437,-0.003353,6.140468,8
1403621611649792,1,INS_SOLUTION_GOOD,51.761776,-1.260353,113.952006,5735974.583039,620056.305341,-113.952006,30U,5.245114,-0.752433,-0.08294,-0.029865,-0.007335,6.152331,8
1403621612087294,1,INS_SOLUTION_GOOD,51.761797,-1.260357,113.982987,5735976.849722,620055.955889,-113.982987,30U,5.105395,-0.501736,-0.121038,-0.038999,-0.000732,6.211652,8
1403621612524797,1,INS_BAD_GPS_AGREEMENT,51.761817,-1.260357,113.905906,5735979.136238,620055.896717,-113.905906,30U,4.926409,0.116426,-0.076577,-0.034888,0.001751,0.052433,8
1403621614587323,1,INS_BAD_GPS_AGREEMENT,51.761887,-1.260292,114.144572,5735987.013694,620060.262866,-114.144572,30U,2.362401,3.990852,-0.098838,0.004598,-0.008079,1.058643,9
1403621615024826,1,INS_BAD_GPS_AGREEMENT,51.761895,-1.260264,114.173179,5735987.931427,620062.123029,-114.173179,30U,1.576813,4.539218,0.002233,-0.010706,0.006559,1.239024,9
1403621615462332,1,INS_BAD_GPS_AGREEMENT,51.7619,-1.260234,114.227424,5735988.547542,620064.185166,-114.227424,30U,0.945903,4.87992,-0.204189,-0.02821,0.003198,1.389664,9
1403621615899839,1,INS_BAD_GPS_AGREEMENT,51.761903,-1.260202,114.127999,5735988.938496,620066.375231,-114.127999,30U,0.399685,5.10636,-0.073592,-0.02362,0.007714,1.506131,9
1403621616337339,1,INS_BAD_GPS_AGREEMENT,51.761904,-1.260171,114.195515,5735989.039816,620068.546659,-114.195515,30U,-0.149923,5.234699,-0.145154,-0.027259,0.002259,1.605629,9
1403621618087365,1,INS_BAD_GPS_AGREEMENT,51.761883,-1.260039,114.313347,5735986.961356,620077.713156,-114.313347,30U,-2.383117,5.033795,-0.122107,0.014296,-0.011387,2.01155,10
1403621618462369,1,INS_BAD_GPS_AGREEMENT,51.761875,-1.260012,114.280409,5735986.066622,620079.577897,-114.280409,30U,-2.728367,4.916187,0.034622,0.005131,-0.033911,2.082154,10
1403621618837372,1,INS_BAD_GPS_AGREEMENT,51.761865,-1.259987,114.242619,5735985.053743,620081.345685,-114.242619,30U,-3.141274,4.754817,0.093188,1e-06,-0.024924,2.161122,10
1403621619212378,1,INS_BAD_GPS_AGREEMENT,51.761854,-1.259961,114.226625,5735983.814173,620083.140011,-114.226625,30U,-3.587977,4.543758,0.044641,-0.003763,-0.028876,2.253548,10
1403621619587381,1,INS_BAD_GPS_AGREEMENT,51.761841,-1.259938,114.138817,5735982.409963,620084.800658,-114.138817,30U,-4.138832,4.195696,0.093422,-0.004071,-0.028807,2.358956,10
1403621621149894,1,INS_BAD_GPS_AGREEMENT,51.761769,-1.259862,114.015571,5735974.528521,620090.238372,-114.015571,30U,-5.997883,2.524663,0.047854,-0.024216,-0.018963,2.7501,11
1403621621462397,1,INS_BAD_GPS_AGREEMENT,51.76175,-1.259851,114.161093,5735972.523401,620091.029364,-114.161093,30U,-6.251314,2.265113,-0.004422,-0.016717,-0.016569,2.79473,11
1403621621774904,1,INS_BAD_GPS_AGREEMENT,51.761733,-1.259841,114.156452,5735970.639308,620091.735027,-114.156452,30U,-6.415633,2.14908,0.027653,-0.013694,-0.0128,2.818775,11
1403621622087404,1,INS_BAD_GPS_AGREEMENT,51.761715,-1.259832,114.152886,5735968.578418,620092.459754,-114.152886,30U,-6.552435,2.11259,-0.032568,-0.013626,-0.002997,2.830831,11
1403621622399908,1,INS_BAD_GPS_AGREEMENT,51.761697,-1.259822,114.173311,5735966.612086,620093.136931,-114.173311,30U,-6.658047,2.100489,-0.114685,-0.017559,-0.000948,2.833953,11
1403621623774922,1,INS_SOLUTION_GOOD,51.761614,-1.259779,113.994859,5735957.531702,620096.354373,-113.994859,30U,-7.058694,2.307211,-0.016816,-0.010984,-0.00468,2.823237,12
1403621624087429,1,INS_SOLUTION_GOOD,51.761594,-1.259768,114.012378,5735955.280585,620097.15552,-114.012378,30U,-7.125462,2.358242,-0.060344,-0.011562,-0.006547,2.816277,12
1403621624399931,1,INS_SOLUTION_GOOD,51.761575,-1.259758,114.027372,5735953.158787,620097.929692,-114.027372,30U,-7.149961,2.438098,-0.022332,-0.012041,-0.008018,2.809225,12
1403621624712436,1,INS_SOLUTION_GOOD,51.761556,-1.259747,113.854199,5735951.12179,620098.746376,-113.854199,30U,-7.178192,2.478925,-0.042116,-0.008014,-0.007471,2.805042,12
1403621625024940,1,INS_SOLUTION_GOOD,51.761536,-1.259735,113.865977,5735948.838425,620099.599666,-113.865977,30U,-7.22328,2.49921,-0.024559,-0.008821,-0.006419,2.804708,12
1403621626274957,1,INS_SOLUTION_GOOD,51.761457,-1.259689,113.453296,5735940.167479,620102.960021,-113.453296,30U,-7.31501,2.664021,-0.039675,-0.005878,-0.006295,2.787593,13
1403621626524958,1,INS_SOLUTION_GOOD,51.761453,-1.259686,111.086485,5735939.700665,620103.196253,-111.086485,30U,-7.311646,2.684536,0.019628,-0.000421,-0.003862,2.783491,13
1403621626837463,1,INS_SOLUTION_GOOD,51.761433,-1.259674,111.085068,5735937.52322,620104.063107,-111.085068,30U,-7.343567,2.744943,-0.000661,0.000981,-0.004557,2.778358,13
1403621627087468,1,INS_SOLUTION_GOOD,51.761416,-1.259664,111.082502,5735935.62721,620104.828858,-111.082502,30U,-7.375646,2.7972,0.024998,0.000643,-0.003547,2.772862,13
1403621627399967,1,INS_SOLUTION_GOOD,51.761396,-1.259652,111.079232,5735933.433149,620105.731461,-111.079232,30U,-7.395776,2.862775,-0.008808,-0.002029,-0.000921,2.767678,13
1403621628649984,1,INS_SOLUTION_GOOD,51.761313,-1.259596,110.950116,5735924.349121,620109.747006,-110.950116,30U,-7.451705,3.08854,-0.013869,-0.001908,-0.007085,2.742583,14
1403621628899983,1,INS_SOLUTION_GOOD,51.761296,-1.259585,110.943519,5735922.430135,620110.603692,-110.943519,30U,-7.468361,3.139916,0.064192,-0.001565,-0.007014,2.736837,14
1403621629212488,1,INS_SOLUTION_GOOD,51.761276,-1.259571,110.931554,5735920.214872,620111.606302,-110.931554,30U,-7.447002,3.208515,0.008867,0.002111,-0.002291,2.727391,14
1403621629462491,1,INS_SOLUTION_GOOD,51.761258,-1.259559,110.934516,5735918.302438,620112.495009,-110.934516,30U,-7.424285,3.275077,-0.023789,0.001143,-0.003143,2.72053,14
1403621629774995,1,INS_SOLUTION_GOOD,51.761239,-1.259545,110.858699,5735916.183794,620113.527146,-110.858699,30U,-7.409641,3.326841,0.017766,0.001592,-0.004601,2.711963,14
1403621630962509,1,INS_SOLUTION_GOOD,51.76116,-1.259484,110.851194,5735907.52133,620117.91856,-110.851194,30U,-7.349235,3.56025,-0.027996,0.005314,-0.002331,2.683519,15
1403621631275013,1,INS_SOLUTION_GOOD,51.761141,-1.259468,110.854644,5735905.342145,620119.043427,-110.854644,30U,-7.358728,3.587007,0.019294,0.006869,-0.00379,2.679861,15
1403621631525021,1,INS_SOLUTION_GOOD,51.761124,-1.259454,110.857051,5735903.465372,620120.083606,-110.857051,30U,-7.354724,3.636271,-0.009451,0.005759,-0.00079,2.676402,15
1403621631837521,1,INS_SOLUTION_GOOD,51.761104,-1.259438,110.863602,5735901.283946,620121.231106,-110.863602,30U,-7.3656,3.691206,-0.01486,0.00605,-0.001435,2.670746,15
1403621632087523,1,INS_SOLUTION_GOOD,51.761086,-1.259424,110.865808,5735899.38805,620122.243916,-110.865808,30U,-7.403985,3.766097,-0.017019,0.006268,-0.001855,2.664247,15
1403621633275040,1,INS_SOLUTION_GOOD,51.761007,-1.259356,110.905257,5735890.692917,620127.168357,-110.905257,30U,-7.398267,4.201237,0.012772,0.004216,-0.005461,2.616974,16
1403621633525043,1,INS_SOLUTION_GOOD,51.76099,-1.259339,110.909188,5735888.820309,620128.396941,-110.909188,30U,-7.355814,4.300009,0.03057,0.003149,-0.00178,2.604302,16
1403621633837548,1,INS_SOLUTION_GOOD,51.76097,-1.25932,110.913139,5735886.655284,620129.756032,-110.913139,30U,-7.306435,4.416106,-0.02312,-0.000299,0.000311,2.590147,16
1403621634087551,1,INS_SOLUTION_GOOD,51.760953,-1.259303,110.923208,5735884.78936,620130.961604,-110.923208,30U,-7.271587,4.51809,-0.025646,-0.002192,-0.00311,2.579332,16
1403621634337555,1,INS_SOLUTION_GOOD,51.760938,-1.259287,110.924798,5735883.072041,620132.095066,-110.924798,30U,-7.266862,4.580072,0.015615,2.5e-05,-0.004118,2.571431,16
1403621635462560,1,INS_SOLUTION_GOOD,51.760863,-1.259207,111.040705,5735874.925997,620137.810422,-111.040705,30U,-7.171895,4.952692,0.018991,0.007281,-0.004837,2.530786,17
1403621635712562,1,INS_SOLUTION_GOOD,51.760848,-1.25919,111.03714,5735873.236398,620139.047005,-111.03714,30U,-7.141173,5.032129,0.016377,0.002741,-0.003465,2.522321,17
1403621635962563,1,INS_SOLUTION_GOOD,51.760831,-1.259171,111.037062,5735871.413505,620140.405049,-111.037062,30U,-7.122643,5.091814,-0.010793,-0.001219,-0.003951,2.514999,17
1403621636212566,1,INS_SOLUTION_GOOD,51.760816,-1.259153,111.037121,5735869.738013,620141.673197,-111.037121,30U,-7.098,5.136016,0.021396,-0.00387,-0.003682,2.509361,17
1403621636462568,1,INS_SOLUTION_GOOD,51.760799,-1.259134,111.035754,5735867.928287,620143.056063,-111.035754,30U,-7.076314,5.171417,0.001185,-0.002613,-0.00408,2.504928,17
1403621637525079,1,INS_SOLUTION_GOOD,51.760731,-1.25905,111.04891,5735860.469713,620148.99657,-111.04891,30U,-7.075356,5.296306,-0.018703,0.002703,-0.003036,2.494314,18
1403621637775079,1,INS_SOLUTION_GOOD,51.760716,-1.259032,111.045979,5735858.802787,620150.311195,-111.045979,30U,-7.07868,5.323979,0.026273,0.002497,-0.002019,2.492288,18
1403621638025085,1,INS_SOLUTION_GOOD,51.760699,-1.259012,111.045489,5735856.994746,620151.741255,-111.045489,30U,-7.066875,5.365104,0.013173,-0.002643,-0.006625,2.489145,18
1403621638275087,1,INS_SOLUTION_GOOD,51.760684,-1.258993,111.035485,5735855.326606,620153.070204,-111.035485,30U,-7.074321,5.389989,0.06338,-0.002645,-0.003923,2.485926,18
1403621638525091,1,INS_SOLUTION_GOOD,51.760667,-1.258972,111.102947,5735853.4918,620154.562979,-111.102947,30U,-7.068595,5.445425,0.015679,-0.007917,-0.005769,2.48082,18
1403621639650101,1,INS_SOLUTION_GOOD,51.760596,-1.258882,111.129337,5735845.766079,620160.946213,-111.129337,30U,-6.950927,5.439876,0.040606,-0.013251,-0.00452,2.475058,19
1403621639900104,1,INS_SOLUTION_GOOD,51.76058,-1.258862,111.125625,5735843.989339,620162.400874,-111.125625,30U,-6.965244,5.444267,0.046515,-0.013227,-0.004462,2.474368,19
1403621640150108,1,INS_SOLUTION_GOOD,51.760565,-1.258843,111.120447,5735842.347321,620163.742601,-111.120447,30U,-6.969955,5.437958,-0.031584,-0.00113,0.00127,2.474401,19
1403621640400111,1,INS_SOLUTION_GOOD,51.76055,-1.258824,111.132731,5735840.704727,620165.083515,-111.132731,30U,-6.991197,5.40844,-0.029591,0.005735,-0.006753,2.473886,19
1403621640650114,1,INS_SOLUTION_GOOD,51.760533,-1.258803,111.093546,5735838.896015,620166.601845,-111.093546,30U,-6.960613,5.447466,0.04768,0.005457,-0.003375,2.472787,19
1403621641775129,1,INS_SOLUTION_GOOD,51.760463,-1.258713,111.08414,5735831.273492,620172.967943,-111.08414,30U,-6.930581,5.494874,0.104731,-0.001528,-0.005686,2.465628,20
1403621642025133,1,INS_SOLUTION_GOOD,51.760447,-1.258692,111.076893,5735829.510321,620174.436236,-111.076893,30U,-6.885082,5.492297,-0.01352,0.000833,-0.006097,2.463042,20
1403621642275134,1,INS_SOLUTION_GOOD,51.760432,-1.258673,111.075232,5735827.896254,620175.792771,-111.075232,30U,-6.832416,5.489134,0.035386,-0.005659,-0.005041,2.460587,20
1403621642525139,1,INS_SOLUTION_GOOD,51.760417,-1.258652,111.086066,5735826.179384,620177.326799,-111.086066,30U,-6.787589,5.478651,0.04548,-0.002335,-0.010969,2.458454,20
1403621642775140,1,INS_SOLUTION_GOOD,51.760402,-1.258633,111.071134,5735824.585527,620178.676914,-111.071134,30U,-6.759131,5.458032,0.078451,-0.001894,-0.007207,2.455898,20
1403621643900156,1,INS_SOLUTION_GOOD,51.760334,-1.258542,111.036102,5735817.164643,620185.117778,-111.036102,30U,-6.554112,5.418982,0.017669,-0.004166,-0.001192,2.445124,21
1403621644150156,1,INS_SOLUTION_GOOD,51.76032,-1.258523,111.039899,5735815.629534,620186.453721,-111.039899,30U,-6.51037,5.402624,-0.038618,-0.005275,-0.002112,2.443118,21
1403621644400157,1,INS_SOLUTION_GOOD,51.760306,-1.258504,111.04591,5735814.103679,620187.785785,-111.04591,30U,-6.482274,5.396054,0.000489,-0.004651,-0.004042,2.440725,21
1403621644650158,1,INS_SOLUTION_GOOD,51.76029,-1.258483,111.030329,5735812.429424,620189.282346,-111.030329,30U,-6.462743,5.419614,-0.003376,-0.001349,-0.006019,2.437201,21
1403621644900161,1,INS_SOLUTION_GOOD,51.760275,-1.258463,111.024836,5735810.78792,620190.733866,-111.024836,30U,-6.433635,5.449931,0.041454,-0.003267,-0.005638,2.433098,21
1403621646087677,1,INS_SOLUTION_GOOD,51.760208,-1.258369,110.988635,5735803.424332,620197.397459,-110.988635,30U,-6.308813,5.574158,0.06542,-0.003776,-0.008768,2.411483,22
1403621646337686,1,INS_SOLUTION_GOOD,51.760194,-1.258349,110.976419,5735801.945393,620198.774326,-110.976419,30U,-6.293478,5.600963,0.043667,-0.004739,-0.008555,2.407491,22
1403621646587684,1,INS_SOLUTION_GOOD,51.76018,-1.258328,110.963488,5735800.347943,620200.27196,-110.963488,30U,-6.269485,5.627749,0.043087,-0.003789,-0.00574,2.402448,22
1403621646837687,1,INS_SOLUTION_GOOD,51.760166,-1.258309,110.957791,5735798.881,620201.661869,-110.957791,30U,-6.228177,5.666674,0.019873,-0.002876,-0.007871,2.395001,22
1403621647087691,1,INS_SOLUTION_GOOD,51.760152,-1.258287,110.94822,5735797.303853,620203.180286,-110.94822,30U,-6.186173,5.71698,0.051214,-0.000843,-0.01019,2.386761,22
1403621648275211,1,INS_SOLUTION_GOOD,51.760087,-1.258188,110.912076,5735790.317011,620210.234019,-110.912076,30U,-5.925942,5.943003,-0.033022,0.006429,-0.002258,2.344264,23
1403621648525213,1,INS_SOLUTION_GOOD,51.760074,-1.258165,110.914942,5735788.826128,620211.823435,-110.914942,30U,-5.844465,5.998109,0.010349,0.005965,-0.001421,2.332623,23
1403621648775213,1,INS_SOLUTION_GOOD,51.760061,-1.258144,110.914899,5735787.46925,620213.302557,-110.914899,30U,-5.74541,6.064799,-0.023505,0.005394,0.002258,2.320818,23
1403621649025217,1,INS_SOLUTION_GOOD,51.760048,-1.258121,110.929648,5735786.023555,620214.920449,-110.929648,30U,-5.700343,6.085922,-0.028992,0.006801,-0.00944,2.311883,23
1403621649275223,1,INS_SOLUTION_GOOD,51.760035,-1.2581,110.915868,5735784.698421,620216.419528,-110.915868,30U,-5.626184,6.145264,0.030731,0.01339,-0.002689,2.304786,23
1403621650462735,1,INS_SOLUTION_GOOD,51.759976,-1.257992,110.927053,5735778.260444,620224.034951,-110.927053,30U,-5.385162,6.321256,-0.018628,0.015396,-0.002598,2.267037,24
1403621650775236,1,INS_SOLUTION_GOOD,51.759962,-1.257964,110.92703,5735776.700679,620225.977963,-110.92703,30U,-5.320675,6.383844,0.007357,0.014056,-0.002856,2.256107,24
1403621651025236,1,INS_SOLUTION_GOOD,51.759949,-1.25794,110.925891,5735775.364511,620227.67645,-110.925891,30U,-5.270095,6.435491,0.000985,0.013122,-0.002232,2.248104,24
1403621651337743,1,INS_SOLUTION_GOOD,51.759935,-1.257912,110.926449,5735773.836972,620229.65025,-110.926449,30U,-5.225935,6.478826,-0.014475,0.010476,-0.002712,2.240331,24
1403621651650241,1,INS_SOLUTION_GOOD,51.75992,-1.257882,110.927412,5735772.222907,620231.770156,-110.927412,30U,-5.179557,6.527159,0.016027,0.008286,-0.006057,2.233056,24
1403621652837749,1,INS_SOLUTION_GOOD,51.759866,-1.257766,110.818442,5735766.426374,620239.877252,-110.818442,30U,-5.039515,6.536286,0.007159,-0.000279,-0.006253,2.225253,25
1403621653087753,1,INS_SOLUTION_GOOD,51.759854,-1.257742,110.809484,5735765.148262,620241.597698,-110.809484,30U,-5.050031,6.500663,0.064213,0.006076,0.002895,2.230738,25
1403621653400254,1,INS_SOLUTION_GOOD,51.759841,-1.257714,110.826196,5735763.668303,620243.564846,-110.826196,30U,-5.096325,6.418503,-0.026471,0.009609,-0.005413,2.235916,25
1403621653650257,1,INS_SOLUTION_GOOD,51.759829,-1.257688,110.775762,5735762.40248,620245.385121,-110.775762,30U,-5.109769,6.38143,0.034105,0.002538,-0.002992,2.242143,25
1403621653900261,1,INS_SOLUTION_GOOD,51.759817,-1.257664,110.774451,5735761.110842,620247.070263,-110.774451,30U,-5.149758,6.330276,0.001371,0.000743,-0.01005,2.248481,25
1403621655087781,1,INS_SOLUTION_GOOD,51.759761,-1.257558,110.748309,5735755.090968,620254.5095,-110.748309,30U,-5.347869,5.986243,0.01347,0.009035,-0.008931,2.294656,26
1403621655400279,1,INS_SOLUTION_GOOD,51.759747,-1.257533,110.733632,5735753.525454,620256.323201,-110.733632,30U,-5.366017,5.867643,0.068564,0.01092,-0.009085,2.30685,26
1403621655650280,1,INS_SOLUTION_GOOD,51.759734,-1.257509,110.674231,5735752.164197,620257.967824,-110.674231,30U,-5.391401,5.76925,0.047207,0.00204,-0.014707,2.318483,26
1403621655900285,1,INS_SOLUTION_GOOD,51.759721,-1.257488,110.648024,5735750.793226,620259.485283,-110.648024,30U,-5.441204,5.640997,0.108812,0.000975,-0.012972,2.331658,26
1403621656212789,1,INS_SOLUTION_GOOD,51.759707,-1.257464,110.620804,5735749.198706,620261.19797,-110.620804,30U,-5.477544,5.497934,0.066494,-0.006565,-0.010362,2.348704,26
1403621657462805,1,INS_SOLUTION_GOOD,51.759643,-1.257369,110.587424,5735742.299473,620267.87765,-110.587424,30U,-5.853411,4.655017,0.027085,-0.009698,-0.002897,2.464066,27
1403621657775303,1,INS_SOLUTION_GOOD,51.759627,-1.25735,110.584096,5735740.565245,620269.284822,-110.584096,30U,-5.937689,4.454302,-0.009117,-0.009643,-0.004982,2.493466,27
1403621658087808,1,INS_SOLUTION_GOOD,51.75961,-1.257329,110.576592,5735738.681873,620270.718208,-110.576592,30U,-6.048663,4.22022,0.015018,-0.006766,-0.002415,2.526207,27
1403621658400314,1,INS_SOLUTION_GOOD,51.759594,-1.257312,110.574918,5735736.882849,620271.993458,-110.574918,30U,-6.151975,3.994759,0.01002,-0.001814,-0.001453,2.559853,27
1403621658712820,1,INS_SOLUTION_GOOD,51.759576,-1.257294,110.575514,5735734.922617,620273.278914,-110.575514,30U,-6.295621,3.737847,-0.02154,-0.001334,0.00049,2.597115,27
1403621660025334,1,INS_BAD_GPS_AGREEMENT,51.759497,-1.25723,110.573517,5735726.270376,620277.888013,-110.573517,30U,-6.984354,2.931135,0.003571,-0.013747,0.001558,2.734543,28
1403621660337840,1,INS_BAD_GPS_AGREEMENT,51.759478,-1.257217,110.576258,5735724.176212,620278.793171,-110.576258,30U,-7.122745,2.764458,-0.011903,-0.008932,0.001118,2.761581,28
1403621660587843,1,INS_BAD_GPS_AGREEMENT,51.759462,-1.257205,110.583519,5735722.38977,620279.686902,-110.583519,30U,-7.234901,2.61601,-0.037502,-0.000495,0.000909,2.782802,28
1403621660900345,1,INS_BAD_GPS_AGREEMENT,51.759441,-1.257193,110.586918,5735720.07621,620280.56064,-110.586918,30U,-7.358045,2.496077,0.035741,0.001802,-0.007218,2.80372,28
1403621661212850,1,INS_BAD_GPS_AGREEMENT,51.759421,-1.257183,110.565104,5735717.871164,620281.346991,-110.565104,30U,-7.459987,2.40199,0.029781,0.0008,0.00073,2.819555,28
1403621662400366,1,INS_BAD_GPS_AGREEMENT,51.759339,-1.257141,110.386245,5735708.825369,620284.461545,-110.386245,30U,-7.637206,2.371347,0.055419,0.005215,-0.005909,2.82571,29
1403621662650371,1,INS_BAD_GPS_AGREEMENT,51.759321,-1.257132,110.373042,5735706.854589,620285.128645,-110.373042,30U,-7.640689,2.399207,0.059419,0.003349,-0.007785,2.82441,29
1403621662900377,1,INS_BAD_GPS_AGREEMENT,51.759303,-1.257123,110.353271,5735704.884223,620285.799049,-110.353271,30U,-7.63749,2.397436,0.059757,-0.002518,-0.002553,2.826504,29
1403621663212877,1,INS_BAD_GPS_AGREEMENT,51.759283,-1.257112,110.344871,5735702.60996,620286.561787,-110.344871,30U,-7.644543,2.327423,0.003543,-0.005276,-0.001411,2.833136,29
1403621663462879,1,INS_BAD_GPS_AGREEMENT,51.759265,-1.257104,110.34093,5735700.63939,620287.209687,-110.34093,30U,-7.629429,2.294958,0.029988,-0.007314,-0.001398,2.835575,29
1403621664712893,1,INS_BAD_GPS_AGREEMENT,51.75918,-1.257064,110.331954,5735691.326508,620290.187502,-110.331954,30U,-7.497884,2.111345,0.066252,-0.005576,-0.009013,2.850104,30
1403621664962895,1,INS_BAD_GPS_AGREEMENT,51.759163,-1.257056,110.30741,5735689.397632,620290.782828,-110.30741,30U,-7.451638,2.113538,0.054821,-0.005781,-0.000762,2.850002,30
1403621665337899,1,INS_BAD_GPS_AGREEMENT,51.759139,-1.257045,110.3042,5735686.746084,620291.602715,-110.3042,30U,-7.394049,2.075702,0.008168,-0.006264,-0.001703,2.851083,30
1403621665712904,1,INS_BAD_GPS_AGREEMENT,51.759114,-1.257034,110.297217,5735683.969562,620292.454384,-110.297217,30U,-7.332366,2.046951,0.008035,-0.005594,-0.000314,2.854339,30
1403621666025409,1,INS_BAD_GPS_AGREEMENT,51.759093,-1.257024,110.294551,5735681.645514,620293.154584,-110.294551,30U,-7.29422,1.99998,-0.000321,-0.00194,-0.003097,2.858219,30
1403621667337948,1,INS_BAD_GPS_AGREEMENT,51.759008,-1.256988,110.228545,5735672.234711,620295.857453,-110.228545,30U,-7.341819,1.871971,0.105929,-0.010227,-0.009026,2.876848,31
1403621667650427,1,INS_BAD_GPS_AGREEMENT,51.758986,-1.25698,110.199286,5735669.893007,620296.512573,-110.199286,30U,-7.386231,1.891935,0.061224,-0.027137,-0.00829,2.877135,31
1403621668025431,1,INS_BAD_GPS_AGREEMENT,51.758961,-1.256969,110.165551,5735667.09618,620297.29216,-110.165551,30U,-7.419945,1.887891,0.108068,-0.027203,0.004747,2.877758,31
1403621668400433,1,INS_BAD_GPS_AGREEMENT,51.758937,-1.25696,110.172236,5735664.43697,620298.024197,-110.172236,30U,-7.449896,1.822828,-0.077628,-0.019063,0.00426,2.883408,31
1403621668775437,1,INS_BAD_GPS_AGREEMENT,51.758912,-1.25695,110.178704,5735661.619485,620298.777419,-110.178704,30U,-7.478845,1.784028,0.029119,-0.01051,0.000127,2.889809,31
1403621670025451,1,INS_BAD_GPS_AGREEMENT,51.758826,-1.256917,110.157502,5735652.201219,620301.251719,-110.157502,30U,-7.545049,1.853108,0.019645,-0.006848,-0.001417,2.881912,32
1403621670337953,1,INS_BAD_GPS_AGREEMENT,51.758806,-1.256909,110.146598,5735649.947339,620301.861588,-110.146598,30U,-7.576861,1.844171,0.035,0.001112,-0.003062,2.881241,32
1403621670587958,1,INS_BAD_GPS_AGREEMENT,51.758788,-1.256902,110.136476,5735647.986169,620302.390646,-110.136476,30U,-7.604156,1.86207,0.062989,0.005714,-0.005769,2.880916,32
1403621670900460,1,INS_BAD_GPS_AGREEMENT,51.758766,-1.256893,110.113413,5735645.562789,620303.045584,-110.113413,30U,-7.637449,1.875019,0.072093,0.00839,-0.002994,2.880402,32
1403621671212965,1,INS_BAD_GPS_AGREEMENT,51.758746,-1.256885,110.098308,5735643.283033,620303.662218,-110.098308,30U,-7.653369,1.889063,0.013952,0.012642,-0.003501,2.878563,32
1403621672462980,1,INS_BAD_GPS_AGREEMENT,51.758659,-1.25685,110.00687,5735633.715963,620306.34904,-110.00687,30U,-7.598917,2.030524,0.102387,-0.010308,0.001105,2.857707,33
1403621672775484,1,INS_BAD_GPS_AGREEMENT,51.758639,-1.256841,110.002815,5735631.461962,620307.01899,-110.002815,30U,-7.53736,2.047433,-0.083487,-0.0125,-0.003455,2.85187,33
1403621673087984,1,INS_BAD_GPS_AGREEMENT,51.758617,-1.256831,109.990639,5735629.077842,620307.738316,-109.990639,30U,-7.465624,2.097454,0.076148,-0.005581,0.00343,2.845951,33
1403621673337987,1,INS_BAD_GPS_AGREEMENT,51.7586,-1.256823,109.989816,5735627.158622,620308.327899,-109.989816,30U,-7.405579,2.082379,-0.058273,-0.003539,0.001363,2.84307,33
1403621673650488,1,INS_BAD_GPS_AGREEMENT,51.75858,-1.256814,109.990585,5735624.962104,620309.005385,-109.990585,30U,-7.34875,2.068107,0.020145,0.001356,0.003526,2.841587,33
1403621674962998,1,INS_BAD_GPS_AGREEMENT,51.758495,-1.256775,109.945085,5735615.529446,620311.952719,-109.945085,30U,-7.032627,2.0358,0.043932,0.001964,-0.004502,2.834038,34
1403621675275500,1,INS_BAD_GPS_AGREEMENT,51.758476,-1.256766,109.931497,5735613.447841,620312.610336,-109.931497,30U,-6.949136,2.009478,0.05891,-0.001725,-0.007858,2.831639,34
1403621675588004,1,INS_BAD_GPS_AGREEMENT,51.758456,-1.256757,109.905601,5735611.254799,620313.307491,-109.905601,30U,-6.862115,2.007776,0.061812,-0.006896,-0.006836,2.828831,34
1403621675900509,1,INS_BAD_GPS_AGREEMENT,51.758436,-1.256747,109.884772,5735609.090096,620314.003209,-109.884772,30U,-6.774706,2.003386,0.070743,-0.010115,-0.007482,2.824762,34
1403621676213013,1,INS_BAD_GPS_AGREEMENT,51.758418,-1.256739,109.861416,5735607.0858,620314.655181,-109.861416,30U,-6.694705,2.007924,0.044734,-0.016086,-0.009433,2.82208,34
1403621677588032,1,INS_BAD_GPS_AGREEMENT,51.758341,-1.256691,109.859353,5735598.594054,620318.119681,-109.859353,30U,-6.014754,1.869421,0.043037,-0.011038,-0.001449,2.810648,35
1403621677963035,1,INS_BAD_GPS_AGREEMENT,51.758321,-1.256681,109.853673,5735596.385015,620318.864453,-109.853673,30U,-5.712417,1.764458,-0.001802,-0.006554,-0.00295,2.809111,35
1403621678338040,1,INS_BAD_GPS_AGREEMENT,51.758302,-1.256672,109.845317,5735594.288122,620319.566771,-109.845317,30U,-5.408429,1.658324,0.022593,-9.6e-05,-0.003278,2.808169,35
1403621678775542,1,INS_BAD_GPS_AGREEMENT,51.758282,-1.256662,109.83478,5735592.108547,620320.296616,-109.83478,30U,-5.061576,1.550805,0.025872,0.001124,-0.007153,2.805831,35
1403621679213051,1,INS_BAD_GPS_AGREEMENT,51.758263,-1.256653,109.814345,5735589.977358,620321.002517,-109.814345,30U,-4.697911,1.436398,0.067458,0.002954,-0.005382,2.804261,35
1403621681713082,1,INS_BAD_GPS_AGREEMENT,51.75818,-1.256614,109.715645,5735580.84271,620323.871712,-109.715645,30U,-2.696325,0.698044,0.04868,0.004864,-0.01333,2.80181,36
1403621682525593,1,INS_BAD_GPS_AGREEMENT,51.758175,-1.256581,110.458335,5735580.296466,620326.19345,-110.458335,30U,-2.034105,0.579595,0.027871,0.003524,-0.011663,2.802541,36
1403621683900610,1,INS_BAD_GPS_AGREEMENT,51.758157,-1.256574,110.432626,5735578.323594,620326.73095,-110.432626,30U,-0.882571,0.15596,0.0148,0.001368,-0.008539,2.803132,36
1403621689463173,1,INS_BAD_GPS_AGREEMENT,51.758148,-1.256572,110.041267,5735577.345033,620326.886924,-110.041267,30U,-0.06317,-0.114969,0.007899,0.000408,-0.006304,2.803616,36
1403621690463186,1,INS_BAD_GPS_AGREEMENT,51.758159,-1.256544,110.198869,5735578.584462,620328.785705,-110.198869,30U,-0.006824,-0.020828,-0.000974,0.000199,-0.006291,2.804426,36
1403621695463238,1,INS_BAD_GPS_AGREEMENT,51.758077,-1.256502,110.185365,5735569.585681,620331.883065,-110.185365,30U,-3.700156,1.313515,0.008732,-0.01808,-0.003022,2.798397,37
1403621696088244,1,INS_BAD_GPS_AGREEMENT,51.758057,-1.25649,110.184386,5735567.30328,620332.765909,-110.184386,30U,-3.724091,1.337253,-0.016412,-0.019736,-0.001088,2.789797,37
1403621696650751,1,INS_BAD_GPS_AGREEMENT,51.758038,-1.256479,110.196208,5735565.27095,620333.566957,-110.196208,30U,-3.607414,1.348685,-0.004725,-0.016148,-0.007758,2.78327,37
1403621697213258,1,INS_BAD_GPS_AGREEMENT,51.75802,-1.256469,110.191427,5735563.294112,620334.357425,-110.191427,30U,-3.510024,1.32017,-0.011868,-0.008955,-0.006836,2.776301,37
1403621697838264,1,INS_BAD_GPS_AGREEMENT,51.758001,-1.256457,110.187409,5735561.189612,620335.211505,-110.187409,30U,-3.017485,1.124923,-0.027584,-0.008031,-0.005476,2.776204,37
1403621720151018,1,INS_BAD_GPS_AGREEMENT,51.757932,-1.256411,110.153902,5735553.52288,620338.580247,-110.153902,30U,-2.187453,0.867487,-0.012463,-0.004382,0.000199,2.77396,38
1403621720963525,1,INS_BAD_GPS_AGREEMENT,51.757913,-1.256399,110.153142,5735551.489755,620339.43649,-110.153142,30U,-2.814066,1.109878,0.018142,-0.004871,-0.001802,2.772963,38
1403621721588535,1,INS_BAD_GPS_AGREEMENT,51.757896,-1.256388,110.147465,5735549.626591,620340.225074,-110.147465,30U,-3.257522,1.2731,0.022753,-0.010129,-0.00109,2.772527,38
1403621722151039,1,INS_BAD_GPS_AGREEMENT,51.757879,-1.256377,110.141734,5735547.719465,620341.027139,-110.141734,30U,-3.623525,1.415228,-0.006448,-0.013363,0.000934,2.775534,38
1403621722651044,1,INS_BAD_GPS_AGREEMENT,51.757862,-1.256367,110.142728,5735545.846881,620341.808007,-110.142728,30U,-3.939963,1.522004,-0.005426,-0.012309,-7.6e-05,2.778033,38
1403621724838571,1,INS_BAD_GPS_AGREEMENT,51.757782,-1.256317,110.134853,5735537.033344,620345.434754,-110.134853,30U,-4.033053,1.526162,0.003036,-0.005066,-0.000411,2.784258,39
1403621725338573,1,INS_BAD_GPS_AGREEMENT,51.757764,-1.256306,110.136407,5735535.010085,620346.256793,-110.136407,30U,-4.094076,1.557098,-0.02733,0.001174,0.001401,2.779951,39
1403621725838579,1,INS_BAD_GPS_AGREEMENT,51.757745,-1.256295,110.143294,5735533.009098,620347.084238,-110.143294,30U,-3.98228,1.553126,-0.002295,0.003761,0.000878,2.771793,39
1403621726338585,1,INS_BAD_GPS_AGREEMENT,51.757728,-1.256283,110.153098,5735531.075572,620347.908345,-110.153098,30U,-3.817284,1.592931,-0.013902,0.010718,-0.000831,2.741174,39
1403621726838591,1,INS_BAD_GPS_AGREEMENT,51.757711,-1.256271,110.154111,5735529.249174,620348.796596,-110.154111,30U,-3.536618,1.804863,-0.024213,0.019849,0.003813,2.650102,39
1403621729338622,1,INS_BAD_GPS_AGREEMENT,51.75767,-1.256161,110.21756,5735524.848819,620356.527429,-110.21756,30U,0.294867,4.294592,-0.012681,0.013287,0.011491,1.473668,40
1403621729838628,1,INS_BAD_GPS_AGREEMENT,51.757673,-1.256128,110.228657,5735525.282203,620358.75589,-110.228657,30U,1.190756,4.648526,0.01097,0.006841,-0.001068,1.304966,40
1403621730276130,1,INS_BAD_GPS_AGREEMENT,51.757679,-1.256099,110.210156,5735525.950007,620360.755222,-110.210156,30U,1.713294,4.956569,0.084068,-0.004545,-0.012318,1.226073,40
1403621730713634,1,INS_BAD_GPS_AGREEMENT,51.757687,-1.256067,110.168243,5735526.857187,620362.983953,-110.168243,30U,2.124812,5.285763,0.148688,-0.014624,-0.015462,1.18443,40
1403621731151137,1,INS_BAD_GPS_AGREEMENT,51.757696,-1.256032,110.118892,5735527.897362,620365.344087,-110.118892,30U,2.304871,5.554667,0.120051,-0.022344,-0.020276,1.174351,40
1403621732651144,1,INS_BAD_GPS_AGREEMENT,51.757728,-1.255904,109.919553,5735531.689791,620374.124853,-109.919553,30U,2.40246,6.112149,0.126304,-0.013984,-0.018542,1.194107,41
1403621732963647,1,INS_BAD_GPS_AGREEMENT,51.757735,-1.255875,109.880627,5735532.503524,620376.070352,-109.880627,30U,2.382276,6.182528,0.127831,-0.012583,-0.019544,1.20039,41
1403621733276150,1,INS_BAD_GPS_AGREEMENT,51.757741,-1.255848,109.840438,5735533.263817,620377.92149,-109.840438,30U,2.391732,6.28496,0.142204,-0.011864,-0.022843,1.204729,41
1403621733588657,1,INS_BAD_GPS_AGREEMENT,51.757748,-1.255818,109.786811,5735534.086525,620379.944457,-109.786811,30U,2.462396,6.454983,0.200979,-0.012339,-0.012898,1.204696,41
1403621733901166,1,INS_BAD_GPS_AGREEMENT,51.757755,-1.255788,109.74578,5735534.934177,620382.019375,-109.74578,30U,2.535255,6.62415,0.044014,-0.012599,-0.00602,1.203186,41
1403621735213680,1,INS_BAD_GPS_AGREEMENT,51.757786,-1.255658,109.649315,5735538.58076,620390.893099,-109.649315,30U,2.74781,7.153549,0.097972,-0.014213,-0.00934,1.202829,42
1403621735463683,1,INS_BAD_GPS_AGREEMENT,51.757793,-1.255631,109.630015,5735539.350632,620392.75374,-109.630015,30U,2.773687,7.256697,0.082276,-0.012021,-0.013842,1.204133,42
1403621735776185,1,INS_BAD_GPS_AGREEMENT,51.7578,-1.255599,109.594875,5735540.238241,620394.926582,-109.594875,30U,2.792074,7.368777,0.142046,-0.008647,-0.015518,1.20608,42
1403621736026191,1,INS_BAD_GPS_AGREEMENT,51.757807,-1.255571,109.558525,5735541.012121,620396.833736,-109.558525,30U,2.803788,7.436986,0.132108,-0.005587,-0.013368,1.207603,42
1403621736338695,1,INS_BAD_GPS_AGREEMENT,51.757815,-1.255537,109.521565,5735541.967008,620399.200179,-109.521565,30U,2.806371,7.491928,0.104979,-0.005254,-0.012894,1.209662,42
1403621737526211,1,INS_BAD_GPS_AGREEMENT,51.757845,-1.255407,109.43094,5735545.513277,620408.07476,-109.43094,30U,2.79793,7.633099,0.063647,-0.003139,-0.010812,1.217492,43
1403621737838714,1,INS_BAD_GPS_AGREEMENT,51.757853,-1.255372,109.403382,5735546.46691,620410.500199,-109.403382,30U,2.801765,7.665769,0.115035,-0.001206,-0.011581,1.218376,43
1403621738151221,1,INS_BAD_GPS_AGREEMENT,51.75786,-1.255338,109.374043,5735547.361288,620412.783564,-109.374043,30U,2.791915,7.697747,0.07809,0.002751,-0.009645,1.218795,43
1403621738401221,1,INS_BAD_GPS_AGREEMENT,51.757867,-1.255309,109.355367,5735548.137264,620414.768761,-109.355367,30U,2.804134,7.720218,0.079614,0.006457,-0.012041,1.218703,43
1403621738651224,1,INS_BAD_GPS_AGREEMENT,51.757873,-1.255282,109.350551,5735548.898888,620416.642368,-109.350551,30U,2.831282,7.738866,0.112317,0.004304,-0.018689,1.218988,43
1403621739838739,1,INS_BAD_GPS_AGREEMENT,51.757904,-1.255146,109.276096,5735552.531111,620425.927112,-109.276096,30U,2.811703,7.809275,0.043783,0.008297,-0.007438,1.222915,44
1403621740151242,1,INS_BAD_GPS_AGREEMENT,51.757911,-1.255112,109.261318,5735553.429114,620428.25009,-109.261318,30U,2.807517,7.816229,0.066773,0.007044,-0.009232,1.223504,44
1403621740463745,1,INS_BAD_GPS_AGREEMENT,51.75792,-1.255076,109.234212,5735554.383509,620430.75809,-109.234212,30U,2.800111,7.828407,0.07083,0.007423,-0.010405,1.224589,44
1403621740776245,1,INS_BAD_GPS_AGREEMENT,51.757927,-1.255041,109.211337,5735555.277205,620433.08697,-109.211337,30U,2.780943,7.84173,0.078604,0.011548,-0.012105,1.225543,44
1403621741026249,1,INS_BAD_GPS_AGREEMENT,51.757934,-1.255012,109.187317,5735556.048805,620435.107484,-109.187317,30U,2.766034,7.852714,0.103548,0.017082,-0.009434,1.226845,44
1403621742213763,1,INS_BAD_GPS_AGREEMENT,51.757964,-1.254877,109.092667,5735559.609675,620444.347714,-109.092667,30U,2.829235,7.895934,0.134352,0.005274,-0.008501,1.224042,45
1403621742463767,1,INS_BAD_GPS_AGREEMENT,51.757971,-1.254847,109.090467,5735560.432289,620446.426043,-109.090467,30U,2.834175,7.901085,0.033018,0.002779,-0.008296,1.225136,45
1403621742713769,1,INS_BAD_GPS_AGREEMENT,51.757977,-1.254819,109.077416,5735561.154695,620448.306311,-109.077416,30U,2.817569,7.908133,0.069121,0.002628,-0.007146,1.227314,45
1403621742963770,1,INS_BAD_GPS_AGREEMENT,51.757983,-1.254789,109.061153,5735561.930405,620450.344882,-109.061153,30U,2.782506,7.91126,0.043296,0.003371,-0.001424,1.2304,45
1403621743213773,1,INS_BAD_GPS_AGREEMENT,51.757989,-1.254762,109.059192,5735562.63905,620452.226583,-109.059192,30U,2.752952,7.898039,-0.021249,0.004832,-0.002569,1.233833,45
1403621744401287,1,INS_BAD_GPS_AGREEMENT,51.758018,-1.254628,109.054471,5735566.042019,620461.353527,-109.054471,30U,2.618283,7.706276,0.03301,0.018129,-0.004398,1.238766,46
1403621744651289,1,INS_BAD_GPS_AGREEMENT,51.758024,-1.254599,109.09237,5735566.83565,620463.354929,-109.09237,30U,2.619942,7.673683,0.02121,0.017861,-0.005816,1.238305,46
1403621744963789,1,INS_BAD_GPS_AGREEMENT,51.758032,-1.254564,109.081246,5735567.732464,620465.78088,-109.081246,30U,2.623952,7.615877,0.025632,0.012044,-0.000806,1.234255,46
1403621745338793,1,INS_BAD_GPS_AGREEMENT,51.758041,-1.254522,109.093102,5735568.8072,620468.634562,-109.093102,30U,2.670307,7.538495,-0.110487,0.009158,-0.007824,1.225206,46
1403621745651294,1,INS_BAD_GPS_AGREEMENT,51.758049,-1.254489,109.096832,5735569.703733,620470.918478,-109.096832,30U,2.745347,7.511807,0.177525,0.009842,-0.020017,1.214903,46
1403621746838803,1,INS_BAD_GPS_AGREEMENT,51.758081,-1.254359,108.96334,5735573.558547,620479.787377,-108.96334,30U,3.257945,7.34952,0.026588,-0.002997,-0.005996,1.147724,47
1403621747151311,1,INS_BAD_GPS_AGREEMENT,51.75809,-1.254327,108.956638,5735574.609833,620481.958551,-108.956638,30U,3.395913,7.299513,0.092015,-0.003732,-0.018169,1.13051,47
1403621747463812,1,INS_BAD_GPS_AGREEMENT,51.758101,-1.254293,108.937701,5735575.817761,620484.277337,-108.937701,30U,3.574562,7.241158,0.087361,-0.009234,-0.010261,1.110189,47
1403621747776316,1,INS_BAD_GPS_AGREEMENT,51.75811,-1.254262,108.916665,5735576.961276,620486.415298,-108.916665,30U,3.706472,7.194241,0.083043,-0.013861,-0.008923,1.091555,47
1403621748026317,1,INS_BAD_GPS_AGREEMENT,51.758119,-1.254235,108.899253,5735577.985481,620488.254563,-108.899253,30U,3.823728,7.147692,0.055251,-0.01886,-0.010133,1.077038,47
1403621749213831,1,INS_BAD_GPS_AGREEMENT,51.758162,-1.254113,108.8549,5735582.956058,620496.511025,-108.8549,30U,4.10374,7.012038,-0.034592,-0.009435,-0.004741,1.04132,48
1403621749463834,1,INS_BAD_GPS_AGREEMENT,51.758172,-1.254087,108.868381,5735584.091744,620498.340367,-108.868381,30U,4.090117,7.01824,0.048148,-0.002532,-0.012195,1.040235,48
1403621749776338,1,INS_BAD_GPS_AGREEMENT,51.758183,-1.254056,108.839612,5735585.374555,620500.412426,-108.839612,30U,4.109464,7.008814,0.018959,-0.003286,-0.002103,1.037776,48
1403621750026340,1,INS_BAD_GPS_AGREEMENT,51.758193,-1.25403,108.841983,5735586.48876,620502.204233,-108.841983,30U,4.140603,6.981031,-0.016152,-0.006132,-0.006495,1.035634,48
1403621750338843,1,INS_BAD_GPS_AGREEMENT,51.758205,-1.253997,108.831268,5735587.868465,620504.405444,-108.831268,30U,4.155976,6.984934,0.067244,-0.008473,-0.012245,1.034351,48
1403621751526356,1,INS_BAD_GPS_AGREEMENT,51.75825,-1.253876,108.767076,5735593.067782,620512.636235,-108.767076,30U,4.208031,7.083929,0.08867,-0.005864,-0.010281,1.036488,49
1403621751838866,1,INS_BAD_GPS_AGREEMENT,51.758262,-1.253843,108.745506,5735594.462348,620514.876997,-108.745506,30U,4.187469,7.116701,0.048311,-0.006096,-0.00781,1.039213,49
1403621752151366,1,INS_BAD_GPS_AGREEMENT,51.758273,-1.253812,108.732247,5735595.768367,620516.983984,-108.732247,30U,4.184264,7.13707,0.062362,-0.012037,-0.011005,1.040617,49
1403621752463867,1,INS_BAD_GPS_AGREEMENT,51.758285,-1.253779,108.729266,5735597.197819,620519.287505,-108.729266,30U,4.180598,7.158541,0.075195,-0.017037,-0.008373,1.042337,49
1403621752776371,1,INS_BAD_GPS_AGREEMENT,51.758297,-1.253748,108.714015,5735598.502864,620521.404802,-108.714015,30U,4.169349,7.171029,0.052268,-0.019388,-0.010898,1.043632,49
1403621753963885,1,INS_BAD_GPS_AGREEMENT,51.758342,-1.253623,108.624734,5735603.711688,620529.891996,-108.624734,30U,4.179235,7.159028,0.062472,-0.019667,-0.013312,1.040607,50
1403621754276387,1,INS_BAD_GPS_AGREEMENT,51.758353,-1.253592,108.597556,5735605.018794,620532.006891,-108.597556,30U,4.187408,7.151055,0.085363,-0.017105,-0.01044,1.040985,50
1403621754526391,1,INS_BAD_GPS_AGREEMENT,51.758363,-1.253564,108.598832,5735606.178378,620533.881081,-108.598832,30U,4.186394,7.159892,0.065375,-0.015215,-0.015187,1.040491,50
1403621754838894,1,INS_BAD_GPS_AGREEMENT,51.758375,-1.253531,108.566017,5735607.572582,620536.138827,-108.566017,30U,4.193357,7.158049,0.118805,-0.011666,-0.016351,1.039198,50
1403621755151400,1,INS_BAD_GPS_AGREEMENT,51.758386,-1.2535,108.530913,5735608.883028,620538.253707,-108.530913,30U,4.200361,7.150734,0.116883,-0.009019,-0.011942,1.036352,50
1403621756338912,1,INS_BAD_GPS_AGREEMENT,51.758431,-1.253377,108.467195,5735614.114445,620546.586549,-108.467195,30U,4.118569,6.871734,0.02373,-0.004698,-0.008746,1.029865,51
1403621756651418,1,INS_BAD_GPS_AGREEMENT,51.758442,-1.253348,108.455382,5735615.392587,620548.606838,-108.455382,30U,4.087291,6.794617,0.04267,-0.006519,-0.008097,1.028941,51
1403621756901422,1,INS_BAD_GPS_AGREEMENT,51.758452,-1.253322,108.446149,5735616.489887,620550.337849,-108.446149,30U,4.040184,6.711994,0.034023,-0.00936,-0.008457,1.02763,51
1403621757213939,1,INS_BAD_GPS_AGREEMENT,51.758463,-1.253293,108.435838,5735617.7372,620552.301976,-108.435838,30U,3.955639,6.571735,0.028071,-0.00881,-0.01157,1.027573,51
1403621757526431,1,INS_BAD_GPS_AGREEMENT,51.758474,-1.253263,108.422591,5735619.033947,620554.346329,-108.422591,30U,3.83754,6.412708,0.093612,-0.009112,-0.016916,1.028689,51
1403621758901444,1,INS_BAD_GPS_AGREEMENT,51.758519,-1.253142,108.308423,5735624.215279,620562.603139,-108.308423,30U,3.253278,5.515159,0.053647,-0.004245,-0.017839,1.032784,52
1403621759276467,1,INS_BAD_GPS_AGREEMENT,51.758529,-1.253114,108.282705,5735625.387919,620564.48301,-108.282705,30U,3.011889,5.094349,0.068996,-0.002454,-0.018251,1.033717,52
1403621759651461,1,INS_BAD_GPS_AGREEMENT,51.758539,-1.253087,108.262663,5735626.526203,620566.317508,-108.262663,30U,2.734385,4.642159,0.082,0.003325,-0.021443,1.03488,52
1403621760088954,1,INS_BAD_GPS_AGREEMENT,51.758549,-1.25306,108.229517,5735627.680398,620568.193746,-108.229517,30U,2.298115,3.956282,0.056675,0.010442,-0.020342,1.038071,52
1403621760588961,1,INS_BAD_GPS_AGREEMENT,51.758558,-1.253034,108.226245,5735628.773738,620569.972835,-108.226245,30U,1.70778,2.97991,0.007428,0.012297,-0.01779,1.040881,52
1403621769026574,1,INS_BAD_GPS_AGREEMENT,51.758591,-1.252911,108.620503,5735632.577693,620578.355347,-108.620503,30U,-0.13417,3.009209,-0.023853,0.00328,0.000322,1.63622,53
1403621769651562,1,INS_BAD_GPS_AGREEMENT,51.758588,-1.252882,108.725773,5735632.30425,620580.392145,-108.725773,30U,-1.278428,3.398376,-0.013433,0.019903,-0.020817,1.95187,53
1403621770214066,1,INS_BAD_GPS_AGREEMENT,51.758578,-1.252853,108.704912,5735631.305487,620582.351996,-108.704912,30U,-2.479668,3.427298,0.095738,0.010989,-0.035014,2.213145,53
1403621770714073,1,INS_BAD_GPS_AGREEMENT,51.758565,-1.252829,108.635593,5735629.844799,620584.045329,-108.635593,30U,-3.410357,3.271012,0.0924,0.010366,-0.038911,2.401131,53
1403621771151580,1,INS_BAD_GPS_AGREEMENT,51.75855,-1.25281,108.572952,5735628.227207,620585.459379,-108.572952,30U,-4.025836,3.002075,0.186749,0.00578,-0.032751,2.508257,53
1403621772964099,1,INS_BAD_GPS_AGREEMENT,51.758474,-1.252739,108.38741,5735619.904071,620590.506684,-108.38741,30U,-4.933895,2.634631,0.071717,-0.011155,-0.015016,2.647578,54
1403621773339105,1,INS_BAD_GPS_AGREEMENT,51.758457,-1.252725,108.366698,5735618.000659,620591.527295,-108.366698,30U,-5.043617,2.705554,0.046917,-0.010213,-0.021246,2.653696,54
1403621773714107,1,INS_BAD_GPS_AGREEMENT,51.75844,-1.252711,108.342055,5735616.180483,620592.543497,-108.342055,30U,-5.180357,2.737136,0.084118,-0.008515,-0.020705,2.658014,54
1403621774089115,1,INS_BAD_GPS_AGREEMENT,51.758422,-1.252696,108.312659,5735614.204386,620593.641946,-108.312659,30U,-5.37309,2.767491,0.056348,-0.015003,-0.023074,2.662615,54
1403621774464119,1,INS_BAD_GPS_AGREEMENT,51.758403,-1.252681,108.270656,5735612.143819,620594.749049,-108.270656,30U,-5.546366,2.887766,0.083223,-0.014441,-0.020832,2.666665,54
1403621775964133,1,INS_BAD_GPS_AGREEMENT,51.758326,-1.252615,108.131651,5735603.604952,620599.453256,-108.131651,30U,-5.841171,3.083651,0.076221,-0.004343,-0.019304,2.654505,55
1403621776339138,1,INS_BAD_GPS_AGREEMENT,51.758306,-1.252598,108.108049,5735601.417214,620600.686116,-108.108049,30U,-5.83415,3.119087,0.077306,-0.006385,-0.02302,2.651846,55
1403621776714159,1,INS_BAD_GPS_AGREEMENT,51.758287,-1.252582,108.072985,5735599.3321,620601.846015,-108.072985,30U,-5.833685,3.152571,0.117799,-0.005507,-0.021811,2.650162,55
1403621777026644,1,INS_BAD_GPS_AGREEMENT,51.75827,-1.252568,108.044995,5735597.485945,620602.892469,-108.044995,30U,-5.855093,3.126062,0.074405,-0.000714,-0.019147,2.649082,55
1403621777339148,1,INS_BAD_GPS_AGREEMENT,51.758253,-1.252553,108.023767,5735595.639535,620603.946802,-108.023767,30U,-5.852316,3.175454,0.044549,-0.011806,-0.023585,2.648732,55
1403621778776665,1,INS_BAD_GPS_AGREEMENT,51.758178,-1.252487,107.91782,5735587.373255,620608.710038,-107.91782,30U,-5.957786,3.259036,0.042123,-0.009269,-0.018561,2.644117,56
1403621779089169,1,INS_BAD_GPS_AGREEMENT,51.75816,-1.252472,107.899438,5735585.483679,620609.792477,-107.899438,30U,-5.998423,3.240965,0.065898,-0.003322,-0.025417,2.647917,56
1403621779401672,1,INS_BAD_GPS_AGREEMENT,51.758144,-1.252458,107.864966,5735583.702295,620610.802168,-107.864966,30U,-6.029433,3.215061,0.064591,-0.006825,-0.013594,2.651316,56
1403621779714176,1,INS_BAD_GPS_AGREEMENT,51.758127,-1.252443,107.855198,5735581.795684,620611.870241,-107.855198,30U,-6.031616,3.174154,-0.008983,-0.003748,-0.020176,2.657368,56
1403621780026679,1,INS_BAD_GPS_AGREEMENT,51.75811,-1.252429,107.835058,5735579.895805,620612.92669,-107.835058,30U,-6.027838,3.087319,0.055333,-0.007445,-0.022087,2.664279,56
1403621781464196,1,INS_BAD_GPS_AGREEMENT,51.758033,-1.252365,107.74739,5735571.431323,620617.484025,-107.74739,30U,-5.856704,2.998971,0.108788,0.014891,-0.029337,2.664436,57
1403621781839198,1,INS_BAD_GPS_AGREEMENT,51.758013,-1.252349,107.701198,5735569.246498,620618.685066,-107.701198,30U,-5.780729,3.053137,0.172631,-0.014161,-0.025122,2.661128,57
1403621782214205,1,INS_BAD_GPS_AGREEMENT,51.757994,-1.252333,107.661463,5735567.191637,620619.8118,-107.661463,30U,-5.747382,2.981136,0.033021,-0.001164,-0.010684,2.669423,57
1403621782526707,1,INS_BAD_GPS_AGREEMENT,51.757977,-1.25232,107.671471,5735565.379851,620620.797161,-107.671471,30U,-5.791041,2.838457,0.009709,-0.007321,-0.004859,2.677935,57
1403621782839210,1,INS_BAD_GPS_AGREEMENT,51.757961,-1.252306,107.679517,5735563.55003,620621.754297,-107.679517,30U,-5.780761,2.824498,-0.060014,-0.001737,-0.011856,2.687577,57
1403621784401730,1,INS_BAD_GPS_AGREEMENT,51.757882,-1.252245,107.79676,5735554.890506,620626.209788,-107.79676,30U,-5.710901,2.879408,-0.079603,-0.013226,-0.009353,2.675578,58
1403621784714231,1,INS_BAD_GPS_AGREEMENT,51.757865,-1.252231,107.799237,5735553.074285,620627.191116,-107.799237,30U,-5.795177,2.95904,0.01677,-0.024134,-0.010829,2.673457,58
1403621785026736,1,INS_BAD_GPS_AGREEMENT,51.757849,-1.252218,107.796348,5735551.224052,620628.17395,-107.796348,30U,-5.923118,2.89609,0.035103,-0.025598,-0.00122,2.688367,58
1403621785339238,1,INS_BAD_GPS_AGREEMENT,51.757831,-1.252205,107.807569,5735549.33219,620629.128367,-107.807569,30U,-6.025819,2.798715,-0.139209,-0.015124,0.007467,2.712301,58
1403621785714243,1,INS_BAD_GPS_AGREEMENT,51.757812,-1.252191,107.855241,5735547.166393,620630.148251,-107.855241,30U,-6.126573,2.626105,-0.055984,-0.006176,0.000433,2.740523,58
1403621787151760,1,INS_BAD_GPS_AGREEMENT,51.75773,-1.252143,107.957119,5735538.151923,620633.665909,-107.957119,30U,-6.463378,2.038769,-0.099308,0.000639,0.004097,2.83434,59
1403621787464262,1,INS_BAD_GPS_AGREEMENT,51.757711,-1.252133,108.008226,5735536.103696,620634.386881,-108.008226,30U,-6.482218,2.040476,-0.086397,-0.002523,-0.004864,2.833504,59
1403621787776767,1,INS_BAD_GPS_AGREEMENT,51.757694,-1.252124,108.018771,5735534.17275,620635.047591,-108.018771,30U,-6.468503,2.052319,-0.044906,-0.003191,-0.003213,2.832624,59
1403621788089269,1,INS_BAD_GPS_AGREEMENT,51.757675,-1.252115,108.036143,5735532.131444,620635.746232,-108.036143,30U,-6.378578,2.032969,-0.056613,0.002533,0.003139,2.828492,59
1403621788401774,1,INS_BAD_GPS_AGREEMENT,51.757657,-1.252105,108.070842,5735530.125535,620636.445476,-108.070842,30U,-6.27268,2.016395,-0.095497,0.003405,-0.001444,2.822906,59
1403621789901793,1,INS_BAD_GPS_AGREEMENT,51.757575,-1.252061,108.181731,5735521.082968,620639.73775,-108.181731,30U,-6.011168,1.982219,-0.072334,0.009115,0.011199,2.807485,60
1403621790276794,1,INS_BAD_GPS_AGREEMENT,51.757556,-1.25205,108.234573,5735518.938147,620640.527816,-108.234573,30U,-6.032669,2.034584,-0.157879,0.0075,0.002265,2.809096,60
1403621790589298,1,INS_BAD_GPS_AGREEMENT,51.757539,-1.25204,108.280168,5735517.031682,620641.234968,-108.280168,30U,-5.989741,2.02002,-0.075286,0.014002,-0.004435,2.810652,60
1403621790901802,1,INS_BAD_GPS_AGREEMENT,51.757521,-1.252031,108.296678,5735515.145091,620641.921758,-108.296678,30U,-5.9001,1.995602,-0.094097,0.001049,-0.002636,2.818927,60
1403621791276811,1,INS_BAD_GPS_AGREEMENT,51.757502,-1.252021,108.320573,5735513.043743,620642.650086,-108.320573,30U,-5.86095,1.787957,-0.041261,0.004956,-0.007193,2.835843,60
1403621792839322,1,INS_BAD_GPS_AGREEMENT,51.757417,-1.251986,108.579296,5735503.646816,620645.335541,-108.579296,30U,-5.818761,1.240138,-0.183421,-0.012141,0.012557,2.926716,61
1403621793214328,1,INS_BAD_GPS_AGREEMENT,51.757399,-1.251979,108.63737,5735501.569988,620645.814831,-108.63737,30U,-5.760158,1.185686,-0.126891,0.004253,0.008988,2.927328,61
1403621793589331,1,INS_BAD_GPS_AGREEMENT,51.757379,-1.251972,108.719227,5735499.37087,620646.36362,-108.719227,30U,-5.636639,1.181653,-0.123235,-0.000665,-0.001894,2.918245,61
1403621793964335,1,INS_BAD_GPS_AGREEMENT,51.75736,-1.251965,108.750416,5735497.268298,620646.887653,-108.750416,30U,-5.477876,1.337299,-0.020753,0.003898,-0.009284,2.892719,61
1403621794339340,1,INS_BAD_GPS_AGREEMENT,51.757341,-1.251958,108.766548,5735495.235531,620647.464358,-108.766548,30U,-5.297974,1.450518,0.029424,-0.000839,0.013989,2.857099,61
1403621796276868,1,INS_BAD_GPS_AGREEMENT,51.757257,-1.251924,109.004096,5735485.863123,620650.021424,-109.004096,30U,-4.869042,0.535954,-0.144844,-0.020225,0.010578,3.024114,62
1403621796714369,1,INS_BAD_GPS_AGREEMENT,51.757237,-1.251921,109.060851,5735483.698383,620650.272876,-109.060851,30U,-5.017669,0.410607,-0.095609,-0.008969,0.017895,3.049569,62
1403621797151875,1,INS_BAD_GPS_AGREEMENT,51.757217,-1.251918,109.131121,5735481.462587,620650.507664,-109.131121,30U,-5.173136,0.445476,-0.161833,-0.003418,0.013412,3.039838,62
1403621797526880,1,INS_BAD_GPS_AGREEMENT,51.757199,-1.251915,109.185251,5735479.472678,620650.764869,-109.185251,30U,-5.332244,0.637504,-0.14816,-0.002927,0.017785,3.013713,62
1403621797901885,1,INS_BAD_GPS_AGREEMENT,51.75718,-1.251912,109.249413,5735477.420933,620651.074381,-109.249413,30U,-5.505149,0.761389,-0.155858,0.003862,0.013103,2.988843,62
1403621799526911,1,INS_BAD_GPS_AGREEMENT,51.757093,-1.251887,109.556337,5735467.780054,620653.014963,-109.556337,30U,-6.259635,1.098763,-0.133324,-0.004685,0.009072,2.959401,63
1403621799839414,1,INS_BAD_GPS_AGREEMENT,51.757075,-1.251882,109.595488,5735465.765679,620653.416595,-109.595488,30U,-6.383873,1.111318,-0.126166,-0.002266,0.013022,2.960288,63
1403621800214419,1,INS_BAD_GPS_AGREEMENT,51.757054,-1.251876,109.647692,5735463.459008,620653.874401,-109.647692,30U,-6.488867,1.127483,-0.160056,2e-06,0.015231,2.962551,63
1403621800526923,1,INS_BAD_GPS_AGREEMENT,51.757035,-1.25187,109.751476,5735461.3104,620654.353208,-109.751476,30U,-6.583647,1.137174,-0.178215,-0.0083,0.007189,2.965269,63
1403621800839425,1,INS_BAD_GPS_AGREEMENT,51.757016,-1.251865,109.794072,5735459.199895,620654.769092,-109.794072,30U,-6.673926,1.131582,-0.023736,-0.018378,0.005449,2.965433,63
1403621802276934,1,INS_BAD_GPS_AGREEMENT,51.756929,-1.25184,110.043853,5735449.552321,620656.685608,-110.043853,30U,-6.805616,1.135385,-0.193495,-0.004377,0.006148,2.970882,64
1403621802589439,1,INS_BAD_GPS_AGREEMENT,51.756908,-1.251834,110.142388,5735447.281468,620657.194003,-110.142388,30U,-6.814041,1.118932,-0.074066,-0.005845,0.003042,2.97398,64
1403621802901942,1,INS_BAD_GPS_AGREEMENT,51.756889,-1.251828,110.172164,5735445.119481,620657.59745,-110.172164,30U,-6.739195,1.086915,-0.140309,-0.006134,0.004797,2.974867,64
1403621803214444,1,INS_BAD_GPS_AGREEMENT,51.756871,-1.251824,110.212264,5735443.121605,620657.967892,-110.212264,30U,-6.638115,1.078115,-0.093486,-0.007068,0.003391,2.974597,64
1403621803526947,1,INS_BAD_GPS_AGREEMENT,51.75685,-1.251817,110.30768,5735440.87704,620658.486706,-110.30768,30U,-6.553598,1.045748,-0.143239,-0.006563,0.00083,2.975076,64
1403621804964459,1,INS_BAD_GPS_AGREEMENT,51.756766,-1.251794,110.543852,5735431.501532,620660.287607,-110.543852,30U,-6.374819,0.978039,-0.082271,-0.014244,-0.001716,2.983403,65
1403621805339463,1,INS_BAD_GPS_AGREEMENT,51.756744,-1.251789,110.571372,5735429.110691,620660.710768,-110.571372,30U,-6.256155,0.951154,-0.115012,-0.019453,0.006587,2.983086,65
1403621805714468,1,INS_BAD_GPS_AGREEMENT,51.756724,-1.251783,110.657462,5735426.831787,620661.175716,-110.657462,30U,-6.141643,0.920977,-0.131517,-0.028913,-0.000744,2.985901,65
1403621806089472,1,INS_BAD_GPS_AGREEMENT,51.756703,-1.251778,110.689773,5735424.527796,620661.573524,-110.689773,30U,-6.033118,0.88582,-0.080581,-0.033024,-0.000122,2.990419,65
1403621806464479,1,INS_BAD_GPS_AGREEMENT,51.756681,-1.251771,110.783533,5735422.141932,620662.092966,-110.783533,30U,-5.922655,0.836341,-0.115445,-0.031614,0.005697,2.994981,65
1403621808151997,1,INS_BAD_GPS_AGREEMENT,51.756595,-1.25175,111.044325,5735412.632821,620663.797643,-111.044325,30U,-5.363209,0.759689,-0.120987,-0.018157,0.006201,2.991667,66
1403621808527003,1,INS_BAD_GPS_AGREEMENT,51.756576,-1.251744,111.179345,5735410.536007,620664.25084,-111.179345,30U,-5.343163,0.710411,-0.112848,-0.017931,0.012123,2.997563,66
1403621808902005,1,INS_BAD_GPS_AGREEMENT,51.756558,-1.25174,111.235405,5735408.513984,620664.570143,-111.235405,30U,-5.34156,0.696112,-0.152126,-0.017186,0.013072,3.005937,66
1403621809339511,1,INS_BAD_GPS_AGREEMENT,51.756537,-1.251736,111.305787,5735406.170009,620664.919953,-111.305787,30U,-5.372148,0.645086,-0.12482,-0.01756,0.011859,3.01233,66
1403621809714513,1,INS_BAD_GPS_AGREEMENT,51.756519,-1.251732,111.345878,5735404.172671,620665.252476,-111.345878,30U,-5.472023,0.618429,-0.151667,-0.019853,0.01666,3.016431,66
1403621811464538,1,INS_BAD_GPS_AGREEMENT,51.756432,-1.251715,111.665039,5735394.56065,620666.637489,-111.665039,30U,-5.239825,0.490344,-0.334262,-0.014535,0.002503,3.046219,67
1403621811839543,1,INS_BAD_GPS_AGREEMENT,51.756414,-1.251713,111.709265,5735392.566104,620666.845096,-111.709265,30U,-5.277119,0.400982,-0.039648,0.004455,-0.000262,3.048459,67
1403621812277047,1,INS_BAD_GPS_AGREEMENT,51.756394,-1.25171,111.742713,5735390.352056,620667.091248,-111.742713,30U,-5.30498,0.382371,-0.085095,-0.013734,0.019861,3.051355,67
1403621812464549,1,INS_SOLUTION_GOOD,51.756401,-1.251712,110.22257,5735391.038615,620666.934402,-110.22257,30U,-5.279304,0.405528,-0.158798,-0.004648,0.018812,3.052532,67
1403621812839550,1,INS_SOLUTION_GOOD,51.756383,-1.25171,110.283285,5735389.030027,620667.141102,-110.283285,30U,-5.340958,0.417753,-0.070943,-0.015512,0.0153,3.057921,67
1403621814527069,1,INS_SOLUTION_GOOD,51.756312,-1.251708,108.995264,5735381.190946,620667.480183,-108.995264,30U,-5.618048,0.334941,-0.085613,0.001792,0.019098,3.07083,68
1403621814902072,1,INS_SOLUTION_GOOD,51.756293,-1.251706,109.029914,5735379.067449,620667.651106,-109.029914,30U,-5.572078,0.301336,-0.094326,0.004631,0.024934,3.073362,68
1403621815277075,1,INS_SOLUTION_GOOD,51.756275,-1.251704,109.079842,5735377.069706,620667.808932,-109.079842,30U,-5.56544,0.309177,-0.106283,0.001978,0.023109,3.076915,68
1403621815589579,1,INS_SOLUTION_GOOD,51.756264,-1.251704,108.458464,5735375.857194,620667.841313,-108.458464,30U,-5.57312,0.295487,-0.105251,0.000972,0.019804,3.078454,68
1403621815964586,1,INS_SOLUTION_GOOD,51.756245,-1.251703,108.48701,5735373.73272,620667.999346,-108.48701,30U,-5.630567,0.285429,-0.103239,-0.002503,0.020284,3.080981,68
1403621817714608,1,INS_SOLUTION_GOOD,51.756163,-1.251698,108.067774,5735364.595634,620668.568838,-108.067774,30U,-5.242684,0.205969,-0.124076,-0.004404,0.009487,3.084957,69
1403621818152110,1,INS_SOLUTION_GOOD,51.756142,-1.251696,108.073232,5735362.312679,620668.711611,-108.073232,30U,-5.166259,0.213027,0.040423,0.004312,0.003465,3.085729,69
1403621818589615,1,INS_SOLUTION_GOOD,51.756124,-1.251695,107.808477,5735360.273961,620668.835754,-107.808477,30U,-5.103523,0.194111,0.085058,0.005279,-0.002507,3.08615,69
