timestamp,burst,ins_status,latitude,longitude,altitude,northing,easting,down,utm_zone,velocity_north,velocity_east,velocity_down,roll,pitch,yaw,serie
1403538165725207,1,INS_SOLUTION_GOOD,51.765566,-1.258445,110.64458,5736399.17723,620177.88443,-110.64458,30U,1.590837,3.884406,0.043549,-0.020032,-6.8e-05,1.18391,1
1403538166225215,1,INS_SOLUTION_GOOD,51.765573,-1.258417,110.63154,5736400.03366,620179.82224,-110.63154,30U,1.61433,3.965569,0.024591,-0.020671,-0.002883,1.189939,1
1403538166725218,1,INS_SOLUTION_GOOD,51.765581,-1.258388,110.603671,5736400.86935,620181.790509,-110.603671,30U,1.665895,4.037637,0.045307,-0.012265,-0.00198,1.187535,1
1403538167225224,1,INS_SOLUTION_GOOD,51.765588,-1.258359,110.581903,5736401.76041,620183.807992,-110.581903,30U,1.697353,4.104434,0.081072,-0.013496,-0.009328,1.18402,1
1403538167725229,1,INS_SOLUTION_GOOD,51.765595,-1.258329,110.510886,5736402.61567,620185.827158,-110.510886,30U,1.717181,4.070539,0.104004,-0.010455,6e-05,1.182518,1
1403538170037753,1,INS_SOLUTION_GOOD,51.765631,-1.258191,110.313807,5736406.76877,620195.277287,-110.313807,30U,1.796519,4.310378,0.109866,-0.005249,-0.006543,1.188845,2
1403538170537760,1,INS_SOLUTION_GOOD,51.765638,-1.25816,110.178251,5736407.68642,620197.396932,-110.178251,30U,1.771994,4.360251,0.086526,-0.001377,-0.011507,1.19337,2
1403538171037767,1,INS_SOLUTION_GOOD,51.765646,-1.258128,110.129221,5736408.62528,620199.570887,-110.129221,30U,1.782301,4.412859,0.112962,0.000673,-0.006479,1.195369,2
1403538171475273,1,INS_SOLUTION_GOOD,51.765652,-1.2581,110.023531,5736409.31622,620201.51147,-110.023531,30U,1.775651,4.436144,0.063181,-0.002965,-0.008526,1.197922,2
1403538171912780,1,INS_SOLUTION_GOOD,51.765659,-1.258071,109.986533,5736410.14235,620203.446959,-109.986533,30U,1.748397,4.466479,0.073364,-0.006617,-0.009764,1.20382,2
1403538174037799,1,INS_SOLUTION_GOOD,51.765693,-1.257932,109.876678,5736414.11027,620212.996968,-109.876678,30U,1.797974,4.629383,0.044039,-0.002195,-0.009117,1.210521,3
1403538174475303,1,INS_SOLUTION_GOOD,51.765699,-1.257904,109.808914,5736414.88681,620214.915273,-109.808914,30U,1.774362,4.669037,0.130626,0.006679,-0.018714,1.209359,3
1403538174912809,1,INS_SOLUTION_GOOD,51.765707,-1.257874,109.752685,5736415.73456,620216.940753,-109.752685,30U,1.78354,4.669483,0.15291,0.000641,-0.01368,1.208254,3
1403538175350313,1,INS_SOLUTION_GOOD,51.765713,-1.257844,109.705391,5736416.52811,620218.979541,-109.705391,30U,1.833321,4.646791,0.086669,0.004554,-0.012478,1.208105,3
1403538175787819,1,INS_SOLUTION_GOOD,51.76572,-1.257815,109.653131,5736417.37326,620221.008051,-109.653131,30U,1.8434,4.630644,0.096728,0.008664,-0.006301,1.204509,3
1403538177850349,1,INS_SOLUTION_GOOD,51.765754,-1.257676,109.414828,5736421.38844,620230.443402,-109.414828,30U,1.854316,4.631904,0.093242,0.008951,-0.014689,1.197856,4
1403538178287855,1,INS_SOLUTION_GOOD,51.765762,-1.257647,109.364755,5736422.25589,620232.454875,-109.364755,30U,1.863071,4.615246,0.123822,0.006606,-0.013054,1.197028,4
1403538178725361,1,INS_SOLUTION_GOOD,51.765769,-1.257618,109.335059,5736423.07216,620234.438159,-109.335059,30U,1.892117,4.601482,0.105266,-0.001399,-0.01762,1.196965,4
1403538179162864,1,INS_SOLUTION_GOOD,51.765776,-1.257588,109.26921,5736423.94477,620236.455858,-109.26921,30U,1.887167,4.646234,0.106826,-0.001518,-0.011417,1.19655,4
1403538179600366,1,INS_SOLUTION_GOOD,51.765783,-1.257559,109.295608,5736424.75632,620238.493381,-109.295608,30U,1.901661,4.68103,0.12104,-0.005954,-0.011413,1.198661,4
1403538181600383,1,INS_SOLUTION_GOOD,51.765815,-1.257422,108.927211,5736428.54518,620247.862658,-108.927211,30U,1.863626,4.712021,0.148047,0.00234,-0.002863,1.200522,5
1403538182037888,1,INS_SOLUTION_GOOD,51.765822,-1.257392,108.902227,5736429.41327,620249.900484,-108.902227,30U,1.848977,4.660864,0.029114,0.005919,-0.011056,1.201547,5
1403538182475393,1,INS_SOLUTION_GOOD,51.765829,-1.257363,108.864558,5736430.16589,620251.874237,-108.864558,30U,1.846127,4.669509,0.14662,0.008176,-0.018166,1.20152,5
1403538182912900,1,INS_SOLUTION_GOOD,51.765836,-1.257333,108.795695,5736431.03262,620253.910851,-108.795695,30U,1.853044,4.681213,0.107562,0.006053,-0.013284,1.202489,5
1403538183350406,1,INS_SOLUTION_GOOD,51.765843,-1.257303,108.745737,5736431.8316,620255.971452,-108.745737,30U,1.86784,4.671603,0.123896,-0.00893,-0.019859,1.202547,5
1403538185412926,1,INS_SOLUTION_GOOD,51.765876,-1.257165,108.504606,5736435.71893,620265.404146,-108.504606,30U,1.812459,4.610403,0.188166,-0.002889,-0.011107,1.204102,6
1403538185850429,1,INS_SOLUTION_GOOD,51.765883,-1.257136,108.456464,5736436.56768,620267.414605,-108.456464,30U,1.812519,4.632671,0.15012,-0.004138,-0.012044,1.204083,6
1403538186287936,1,INS_SOLUTION_GOOD,51.76589,-1.257106,108.401393,5736437.41198,620269.429588,-108.401393,30U,1.809328,4.655251,0.123901,-0.004116,-0.013586,1.204985,6
1403538186725438,1,INS_SOLUTION_GOOD,51.765897,-1.257077,108.343611,5736438.26736,620271.461359,-108.343611,30U,1.846029,4.677095,0.148556,-0.005985,-0.012552,1.206006,6
1403538187162946,1,INS_SOLUTION_GOOD,51.765905,-1.257047,108.293364,5736439.1294,620273.506432,-108.293364,30U,1.862479,4.715355,0.153474,-0.009121,-0.02028,1.206338,6
1403538189162972,1,INS_SOLUTION_GOOD,51.765938,-1.256911,108.019607,5736443.06787,620282.800834,-108.019607,30U,1.859016,4.60309,0.145273,-0.00578,-0.015888,1.201964,7
1403538189600472,1,INS_SOLUTION_GOOD,51.765945,-1.256881,107.946948,5736443.8917,620284.806636,-107.946948,30U,1.830821,4.566591,0.181365,-0.00478,-0.008923,1.201917,7
1403538190037977,1,INS_SOLUTION_GOOD,51.765952,-1.256852,107.89803,5736444.73928,620286.786187,-107.89803,30U,1.801867,4.535006,0.063079,-0.006151,-0.010479,1.201437,7
1403538190475483,1,INS_SOLUTION_GOOD,51.765959,-1.256824,107.974469,5736445.5467,620288.743154,-107.974469,30U,1.804414,4.518361,0.116479,-0.006257,-0.014711,1.201806,7
1403538190912990,1,INS_SOLUTION_GOOD,51.765966,-1.256796,107.916328,5736446.34929,620290.623326,-107.916328,30U,1.780964,4.525302,0.141179,0.000253,-0.019858,1.202068,7
1403538193038021,1,INS_SOLUTION_GOOD,51.766,-1.256659,107.765488,5736450.39085,620300.025771,-107.765488,30U,1.834065,4.394508,0.19749,0.001582,-0.016405,1.192002,8
1403538193538028,1,INS_SOLUTION_GOOD,51.766008,-1.256627,107.791597,5736451.33151,620302.175415,-107.791597,30U,1.790164,4.399657,0.132287,-0.000501,-0.015211,1.192412,8
1403538194038033,1,INS_SOLUTION_GOOD,51.766016,-1.256595,107.722659,5736452.29064,620304.343741,-107.722659,30U,1.792051,4.386623,0.104927,-0.006347,-0.014397,1.19241,8
1403538194475540,1,INS_SOLUTION_GOOD,51.766023,-1.256568,107.669343,5736453.13144,620306.244259,-107.669343,30U,1.803803,4.353146,0.104534,-0.002072,-0.014756,1.18887,8
1403538195038044,1,INS_SOLUTION_GOOD,51.766033,-1.256533,107.596237,5736454.20352,620308.635988,-107.596237,30U,1.788974,4.291138,0.128471,0.000652,-0.014711,1.183817,8
1403538197288058,1,INS_SOLUTION_GOOD,51.766068,-1.256398,107.319137,5736458.33922,620317.799694,-107.319137,30U,1.46861,4.08779,0.109741,0.017648,-0.016028,1.253409,9
1403538197788061,1,INS_SOLUTION_GOOD,51.766073,-1.256368,107.313094,5736458.97339,620319.872432,-107.313094,30U,1.027558,4.155247,0.159588,0.020841,-0.024077,1.351761,9
1403538198288067,1,INS_SOLUTION_GOOD,51.766076,-1.256338,107.210804,5736459.40552,620321.959804,-107.210804,30U,0.389588,4.206348,0.128997,0.034201,-0.005841,1.499431,9
1403538198788075,1,INS_SOLUTION_GOOD,51.766076,-1.256307,107.167868,5736459.41,620324.106282,-107.167868,30U,-0.413785,4.16791,0.111027,0.033043,0.008756,1.69051,9
1403538199288080,1,INS_SOLUTION_GOOD,51.766072,-1.256277,107.148794,5736459.0605,620326.177066,-107.148794,30U,-1.222388,4.060016,0.102292,0.041836,-0.005328,1.900126,9
1403538201413101,1,INS_SOLUTION_GOOD,51.766015,-1.256169,106.927466,5736452.829,620333.791983,-106.927466,30U,-4.089299,2.826406,0.124963,0.000992,-0.005465,2.555242,10
1403538201850608,1,INS_SOLUTION_GOOD,51.765998,-1.256151,106.875517,5736450.9961,620335.03642,-106.875517,30U,-4.359722,2.642299,0.082229,-0.00688,-0.00414,2.612966,10
1403538202288113,1,INS_SOLUTION_GOOD,51.76598,-1.256135,106.83022,5736449.05908,620336.212236,-106.83022,30U,-4.55347,2.509816,0.094213,-0.010629,-0.000257,2.655435,10
1403538202725617,1,INS_SOLUTION_GOOD,51.765962,-1.256119,106.792252,5736447.04208,620337.333216,-106.792252,30U,-4.74327,2.352565,0.0617,-0.009535,0.000873,2.688421,10
1403538203100622,1,INS_SOLUTION_GOOD,51.765946,-1.256106,106.765359,5736445.24562,620338.272869,-106.765359,30U,-4.842299,2.354376,0.086521,-0.008482,-0.00675,2.697295,10
1403538204975642,1,INS_SOLUTION_GOOD,51.765862,-1.256043,106.588809,5736436.04992,620342.868825,-106.588809,30U,-4.990073,2.29375,0.150237,-0.010174,0.003822,2.725647,11
1403538205350647,1,INS_BAD_GPS_AGREEMENT,51.765845,-1.256031,106.567493,5736434.1716,620343.772882,-106.567493,30U,-4.992643,2.261572,0.071551,-0.01558,-0.000682,2.731935,11
1403538205725653,1,INS_BAD_GPS_AGREEMENT,51.765828,-1.256018,106.53521,5736432.28279,620344.661243,-106.53521,30U,-5.026236,2.246181,0.126641,-0.007012,-0.00404,2.737542,11
1403538206100657,1,INS_BAD_GPS_AGREEMENT,51.765811,-1.256006,106.490334,5736430.38288,620345.546142,-106.490334,30U,-5.065475,2.203583,0.123075,-0.007582,-0.005638,2.741359,11
1403538206475662,1,INS_SOLUTION_GOOD,51.765794,-1.255994,106.607261,5736428.6069,620346.462805,-106.607261,30U,-5.101991,2.192665,0.153276,-0.00827,-0.001912,2.745936,11
1403538208288187,1,INS_SOLUTION_GOOD,51.76571,-1.255936,106.457963,5736419.2834,620350.623577,-106.457963,30U,-5.379181,2.187045,0.136595,-0.012427,0.000674,2.762767,12
1403538208663190,1,INS_SOLUTION_GOOD,51.765691,-1.255924,106.497348,5736417.22027,620351.508863,-106.497348,30U,-5.449899,2.211121,0.032391,-0.010036,-0.001163,2.766356,12
1403538209038192,1,INS_SOLUTION_GOOD,51.765672,-1.255912,106.470574,5736415.16922,620352.387785,-106.470574,30U,-5.403853,2.214742,0.162805,-0.004661,0.001217,2.76721,12
1403538209413194,1,INS_SOLUTION_GOOD,51.765655,-1.255901,106.544459,5736413.24712,620353.21495,-106.544459,30U,-5.310319,2.154951,-0.078244,-0.007113,0.001965,2.764772,12
1403538209788197,1,INS_SOLUTION_GOOD,51.765637,-1.255889,106.530367,5736411.25434,620354.082883,-106.530367,30U,-5.273865,2.191154,0.156292,-0.003569,0.004519,2.759266,12
1403538211600715,1,INS_SOLUTION_GOOD,51.765554,-1.255833,106.461071,5736402.1376,620358.197796,-106.461071,30U,-4.917457,2.20871,0.08323,0.005191,-0.003062,2.727489,13
1403538211975720,1,INS_SOLUTION_GOOD,51.765537,-1.255821,106.426212,5736400.30007,620359.080867,-106.426212,30U,-4.848398,2.22077,0.077811,5.3e-05,-0.008766,2.723601,13
1403538212350725,1,INS_SOLUTION_GOOD,51.765521,-1.255808,106.387248,5736398.48628,620359.956536,-106.387248,30U,-4.80174,2.198526,0.186153,0.001999,0.004611,2.720531,13
1403538212788231,1,INS_SOLUTION_GOOD,51.765502,-1.255795,106.369111,5736396.41039,620360.964405,-106.369111,30U,-4.777744,2.145371,0.060607,0.002301,-0.001201,2.721401,13
1403538213225734,1,INS_SOLUTION_GOOD,51.765483,-1.255781,106.334548,5736394.33532,620361.964868,-106.334548,30U,-4.780982,2.131484,0.057164,0.003919,-0.004532,2.724822,13
1403538215163255,1,INS_SOLUTION_GOOD,51.765402,-1.255725,106.670871,5736385.4325,620366.030504,-106.670871,30U,-4.516325,2.001935,0.069315,0.019232,-0.001868,2.730445,14
1403538215600761,1,INS_SOLUTION_GOOD,51.765384,-1.255712,106.780524,5736383.45952,620367.000499,-106.780524,30U,-4.430469,1.97004,0.054771,0.021003,-0.000229,2.726984,14
1403538216038267,1,INS_SOLUTION_GOOD,51.765367,-1.255699,106.760833,5736381.55297,620367.910151,-106.760833,30U,-4.343587,1.946112,0.041485,0.01551,-0.000185,2.724497,14
1403538216475772,1,INS_SOLUTION_GOOD,51.76535,-1.255686,106.808792,5736379.65101,620368.83509,-106.808792,30U,-4.272529,1.929367,0.020028,0.01516,-0.000374,2.722048,14
1403538216975776,1,INS_SOLUTION_GOOD,51.765331,-1.255673,106.788845,5736377.63884,620369.80416,-106.788845,30U,-4.222156,1.901867,0.004333,0.012885,-0.002407,2.719533,14
1403538219100800,1,INS_SOLUTION_GOOD,51.765248,-1.255613,106.886874,5736368.5205,620374.144652,-106.886874,30U,-4.384334,1.964428,0.01362,0.022992,0.00434,2.719368,15
1403538219538304,1,INS_SOLUTION_GOOD,51.765231,-1.255601,106.974288,5736366.56794,620375.070254,-106.974288,30U,-4.361731,1.98028,-0.080273,0.008889,-0.003962,2.719648,15
1403538219975810,1,INS_SOLUTION_GOOD,51.765214,-1.255589,106.965071,5736364.76294,620375.936265,-106.965071,30U,-4.33456,1.972408,0.120558,0.004996,0.011374,2.721076,15
1403538220413316,1,INS_SOLUTION_GOOD,51.765197,-1.255576,106.963069,5736362.87633,620376.837783,-106.963069,30U,-4.307739,1.953532,-0.173607,0.005196,0.001334,2.723526,15
1403538220850821,1,INS_SOLUTION_GOOD,51.76518,-1.255564,106.959459,5736361.00051,620377.729378,-106.959459,30U,-4.311933,1.910336,0.092426,0.009218,-0.006474,2.725432,15
1403538222850846,1,INS_SOLUTION_GOOD,51.7651,-1.255508,106.859108,5736352.23552,620381.825737,-106.859108,30U,-4.508888,1.95282,0.093339,0.002395,-0.014913,2.734223,16
1403538223288353,1,INS_SOLUTION_GOOD,51.765083,-1.255495,106.908071,5736350.31044,620382.723692,-106.908071,30U,-4.533781,1.961313,0.113998,0.00836,-0.012355,2.737385,16
1403538223725859,1,INS_SOLUTION_GOOD,51.765065,-1.255483,106.87081,5736348.3309,620383.624262,-106.87081,30U,-4.543615,1.949949,0.045087,0.014638,-0.013304,2.739206,16
1403538224163360,1,INS_SOLUTION_GOOD,51.765047,-1.255471,106.823849,5736346.35079,620384.523742,-106.823849,30U,-4.545763,1.928853,0.071146,0.015294,-0.007892,2.741652,16
1403538224600862,1,INS_SOLUTION_GOOD,51.765029,-1.255459,106.848859,5736344.35331,620385.371995,-106.848859,30U,-4.523264,1.914378,0.068523,0.016791,-0.011537,2.743725,16
1403538226600885,1,INS_SOLUTION_GOOD,51.764951,-1.255407,107.75601,5736335.77407,620389.18625,-107.75601,30U,-4.380597,1.881325,0.086737,0.019427,-0.017717,2.733557,17
1403538227038387,1,INS_SOLUTION_GOOD,51.764934,-1.255395,107.715504,5736333.86603,620390.066059,-107.715504,30U,-4.379374,1.900456,0.055286,0.013382,-0.010714,2.728413,17
1403538227475893,1,INS_SOLUTION_GOOD,51.764916,-1.255382,107.828555,5736331.9369,620391.013137,-107.828555,30U,-4.369723,1.915824,0.024623,0.01741,-0.01019,2.72542,17
1403538227913396,1,INS_SOLUTION_GOOD,51.7649,-1.25537,107.821879,5736330.12381,620391.861816,-107.821879,30U,-4.364939,1.922648,0.071202,0.015295,-0.018377,2.723044,17
1403538228350903,1,INS_SOLUTION_GOOD,51.764882,-1.255358,107.723132,5736328.17465,620392.743577,-107.723132,30U,-4.37481,1.93053,0.091521,0.011142,-0.014376,2.723981,17
1403538230475926,1,INS_SOLUTION_GOOD,51.764797,-1.255299,107.586319,5736318.8486,620397.061571,-107.586319,30U,-4.435591,1.922041,0.044155,0.025179,-0.017718,2.731289,18
1403538230913432,1,INS_SOLUTION_GOOD,51.76478,-1.255287,107.557876,5736317.00049,620397.906743,-107.557876,30U,-4.458972,1.897042,0.100247,0.026306,-0.016344,2.729954,18
1403538231350936,1,INS_SOLUTION_GOOD,51.764763,-1.255275,107.506629,5736315.04705,620398.805112,-107.506629,30U,-4.460183,1.904373,0.078691,0.022719,-0.014984,2.729429,18
1403538231788441,1,INS_SOLUTION_GOOD,51.764745,-1.255262,107.479098,5736313.106,620399.695452,-107.479098,30U,-4.460943,1.92321,0.089582,0.019383,-0.015315,2.728245,18
1403538232225946,1,INS_SOLUTION_GOOD,51.764727,-1.25525,107.452348,5736311.16876,620400.58729,-107.452348,30U,-4.440493,1.91744,0.06906,0.018952,-0.010181,2.727284,18
1403538234225968,1,INS_SOLUTION_GOOD,51.76465,-1.255199,108.244572,5736302.66489,620404.360782,-108.244572,30U,-4.298091,1.876784,0.019657,0.024521,-0.014476,2.715645,19
1403538234663475,1,INS_SOLUTION_GOOD,51.764634,-1.255185,108.292514,5736300.86987,620405.308873,-108.292514,30U,-4.242475,1.900903,0.032413,0.029014,-0.021305,2.707201,19
1403538235100981,1,INS_SOLUTION_GOOD,51.764617,-1.255173,108.270327,5736299.03446,620406.201592,-108.270327,30U,-4.20372,1.935728,0.079446,0.028348,-0.02951,2.696724,19
1403538235538485,1,INS_SOLUTION_GOOD,51.764601,-1.25516,108.173611,5736297.2431,620407.176868,-108.173611,30U,-4.163083,1.984388,0.13576,0.02268,-0.020065,2.687179,19
1403538236038488,1,INS_SOLUTION_GOOD,51.764582,-1.255145,108.147795,5736295.20206,620408.222605,-108.147795,30U,-4.09399,2.008176,0.0287,0.025494,-0.016667,2.676774,19
1403538238351014,1,INS_BAD_GPS_AGREEMENT,51.764502,-1.255076,107.685335,5736286.3855,620413.213774,-107.685335,30U,-3.429636,1.748884,0.066069,-0.005285,-0.020173,2.66784,20
1403538238913523,1,INS_BAD_GPS_AGREEMENT,51.764485,-1.255063,107.653945,5736284.55887,620414.184583,-107.653945,30U,-3.195354,1.570291,0.003416,-0.00161,-0.005922,2.674648,20
1403538239476030,1,INS_SOLUTION_GOOD,51.76447,-1.255049,107.858756,5736282.82912,620415.181865,-107.858756,30U,-3.117002,1.446865,-0.067299,-0.004603,-0.009524,2.704209,20
1403538240101040,1,INS_SOLUTION_GOOD,51.764452,-1.255037,107.864615,5736280.91373,620416.038048,-107.864615,30U,-2.999319,1.072746,-0.020236,0.004099,-0.019336,2.790301,20
1403538240726048,1,INS_SOLUTION_GOOD,51.764435,-1.255028,107.852261,5736279.00263,620416.710615,-107.852261,30U,-3.285485,0.74979,-0.02709,0.003238,-0.01031,2.914591,20
1403538243351083,1,INS_SOLUTION_GOOD,51.764345,-1.255046,107.405817,5736269.0121,620415.695249,-107.405817,30U,-3.825327,-2.022889,0.086483,-0.015296,-0.014182,3.628931,21
1403538243851088,1,INS_SOLUTION_GOOD,51.764328,-1.255062,107.379322,5736267.10181,620414.644289,-107.379322,30U,-3.682108,-2.413594,-0.093022,-0.024006,-0.0214,3.717913,21
1403538244351091,1,INS_SOLUTION_GOOD,51.764312,-1.25508,107.638575,5736265.28478,620413.421667,-107.638575,30U,-3.552486,-2.754671,0.061202,-0.037629,-0.015601,3.802852,21
1403538244913594,1,INS_SOLUTION_GOOD,51.764295,-1.255104,107.612664,5736263.30047,620411.834635,-107.612664,30U,-3.326722,-3.102313,-0.013185,-0.041714,-0.011694,3.883134,21
1403538245476096,1,INS_SOLUTION_GOOD,51.764278,-1.25513,107.535217,5736261.38837,620410.061462,-107.535217,30U,-3.097107,-3.305374,-0.076864,-0.047202,-0.001177,3.953921,21
1403538247726125,1,INS_SOLUTION_GOOD,51.76422,-1.255243,107.57714,5736254.78433,620402.404681,-107.57714,30U,-2.91172,-3.608774,0.081077,-0.033232,-0.001464,4.037794,22
1403538248163629,1,INS_SOLUTION_GOOD,51.764209,-1.255267,107.576271,5736253.45076,620400.837283,-107.576271,30U,-2.950419,-3.654911,0.010662,-0.056507,-0.028347,4.032654,22
1403538248601136,1,INS_SOLUTION_GOOD,51.764197,-1.25529,107.420339,5736252.1049,620399.263206,-107.420339,30U,-3.05582,-3.70047,0.26003,-0.040588,0.028462,4.034042,22
1403538249038643,1,INS_SOLUTION_GOOD,51.764185,-1.255314,107.491029,5736250.75034,620397.651224,-107.491029,30U,-2.995107,-3.759408,-0.216059,-0.031739,-0.004791,4.041092,22
1403538249476149,1,INS_SOLUTION_GOOD,51.764173,-1.255338,107.498216,5736249.40077,620396.019929,-107.498216,30U,-3.028112,-3.881247,0.080009,-0.027725,0.004991,4.045642,22
1403538251476164,1,INS_SOLUTION_GOOD,51.764117,-1.255456,107.53878,5736242.91922,620388.045001,-107.53878,30U,-3.251455,-4.304646,0.088267,-0.033894,-0.001339,4.059998,23
1403538251913669,1,INS_SOLUTION_GOOD,51.764104,-1.255482,107.531039,5736241.49292,620386.257358,-107.531039,30U,-3.348977,-4.343204,0.005974,-0.033556,0.012768,4.059,23
1403538252288673,1,INS_SOLUTION_GOOD,51.764093,-1.255505,107.587276,5736240.18483,620384.703911,-107.587276,30U,-3.35098,-4.428693,0.036814,-0.029217,0.006335,4.059044,23
1403538252663677,1,INS_SOLUTION_GOOD,51.764081,-1.255529,107.602695,5736238.85471,620383.048324,-107.602695,30U,-3.395423,-4.487624,-0.001442,-0.030167,-0.007085,4.060294,23
1403538253038677,1,INS_SOLUTION_GOOD,51.764069,-1.255554,107.593912,5736237.50855,620381.363845,-107.593912,30U,-3.468998,-4.565154,0.124169,-0.031662,0.009539,4.061016,23
1403538254788699,1,INS_SOLUTION_GOOD,51.764014,-1.255671,107.659255,5736231.1344,620373.421522,-107.659255,30U,-3.545629,-4.777378,-0.020754,-0.020651,0.000982,4.06913,24
1403538255163700,1,INS_SOLUTION_GOOD,51.764002,-1.255698,107.663339,5736229.73866,620371.645776,-107.663339,30U,-3.525577,-4.753192,-0.026646,-0.024933,-0.001121,4.068868,24
1403538255538706,1,INS_SOLUTION_GOOD,51.76399,-1.255724,107.656889,5736228.36479,620369.886766,-107.656889,30U,-3.4936,-4.679533,-0.039787,-0.016298,-0.002839,4.071832,24
1403538255913713,1,INS_SOLUTION_GOOD,51.763979,-1.255748,107.66955,5736227.08862,620368.248453,-107.66955,30U,-3.363483,-4.616454,0.036398,-0.01708,-0.017575,4.070379,24
1403538256288717,1,INS_SOLUTION_GOOD,51.763967,-1.255773,107.586171,5736225.76973,620366.569113,-107.586171,30U,-3.314832,-4.5398,-0.019527,-0.0346,0.015352,4.070105,24
1403538258101243,1,INS_SOLUTION_GOOD,51.763914,-1.255889,107.674685,5736219.61492,620358.673291,-107.674685,30U,-3.276708,-4.444952,0.005067,-0.02438,0.005514,4.072215,25
1403538258476248,1,INS_SOLUTION_GOOD,51.763903,-1.255913,107.703413,5736218.35912,620357.054162,-107.703413,30U,-3.239773,-4.41512,-0.055633,-0.016928,4.2e-05,4.07348,25
1403538258913754,1,INS_SOLUTION_GOOD,51.76389,-1.25594,107.701643,5736216.95858,620355.235645,-107.701643,30U,-3.21215,-4.406225,-0.057962,-0.015215,-0.001025,4.074226,25
1403538259288756,1,INS_SOLUTION_GOOD,51.76388,-1.255964,107.554149,5736215.71146,620353.588276,-107.554149,30U,-3.208102,-4.397779,0.046518,-0.012236,-0.001002,4.074689,25
1403538259663761,1,INS_SOLUTION_GOOD,51.763869,-1.255988,107.550625,5736214.45423,620351.951296,-107.550625,30U,-3.189456,-4.386567,-0.009531,-0.013911,0.000863,4.075384,25
1403538261663775,1,INS_SOLUTION_GOOD,51.763813,-1.256113,107.677093,5736208.10462,620343.46964,-107.677093,30U,-3.057198,-4.230408,0.069975,-0.005249,-0.014509,4.075001,26
1403538262101279,1,INS_SOLUTION_GOOD,51.763801,-1.25614,107.636826,5736206.71873,620341.644759,-107.636826,30U,-3.061623,-4.194037,0.005607,-0.008132,0.006898,4.075022,26
1403538262476286,1,INS_SOLUTION_GOOD,51.763791,-1.256163,107.830289,5736205.52543,620340.093447,-107.830289,30U,-3.054853,-4.142856,-0.054443,-0.003911,-0.011702,4.074423,26
1403538262913791,1,INS_SOLUTION_GOOD,51.76378,-1.256188,107.805161,5736204.21735,620338.367644,-107.805161,30U,-3.058468,-4.142879,0.03454,-0.000173,0.014846,4.072652,26
1403538263351296,1,INS_SOLUTION_GOOD,51.763768,-1.256215,107.914936,5736202.85911,620336.540235,-107.914936,30U,-2.979593,-4.094287,-0.095789,0.006174,0.003168,4.06901,26
1403538265351319,1,INS_SOLUTION_GOOD,51.763712,-1.25633,108.022185,5736196.51543,620328.799096,-108.022185,30U,-3.146027,-3.9904,-0.013064,-0.010053,-0.002937,4.026192,27
1403538265788824,1,INS_SOLUTION_GOOD,51.7637,-1.256355,108.003228,5736195.07362,620327.083113,-108.003228,30U,-3.189848,-3.997275,-0.184652,-0.018648,0.003625,4.019708,27
1403538266226332,1,INS_SOLUTION_GOOD,51.763687,-1.256381,108.035865,5736193.62171,620325.358396,-108.035865,30U,-3.243174,-4.009271,0.033416,-0.012452,-0.000862,4.016377,27
1403538266663838,1,INS_SOLUTION_GOOD,51.763674,-1.256406,107.950288,5736192.13809,620323.657496,-107.950288,30U,-3.274688,-4.052315,-0.032524,-0.019552,-0.002157,4.017001,27
1403538267101345,1,INS_SOLUTION_GOOD,51.763661,-1.256432,107.951173,5736190.65136,620321.896188,-107.951173,30U,-3.300593,-4.096957,-0.006781,-0.019652,0.000527,4.019871,27
1403538269101371,1,INS_SOLUTION_GOOD,51.763602,-1.256552,107.960938,5736183.82872,620313.783892,-107.960938,30U,-3.172966,-4.173071,0.020358,-0.020319,0.004363,4.044104,28
1403538269538877,1,INS_SOLUTION_GOOD,51.763588,-1.256575,108.004151,5736182.24672,620312.175233,-108.004151,30U,-3.054429,-4.09646,-0.158643,-0.02591,0.005568,4.053321,28
1403538269976380,1,INS_SOLUTION_GOOD,51.763576,-1.2566,108.040157,5736180.92643,620310.487543,-108.040157,30U,-3.031352,-4.119513,0.054951,-0.026432,-0.009895,4.061851,28
1403538270413887,1,INS_SOLUTION_GOOD,51.763564,-1.256627,108.043816,5736179.57586,620308.701361,-108.043816,30U,-2.99204,-4.141016,0.042358,-0.022601,-0.002144,4.071952,28
1403538270851390,1,INS_SOLUTION_GOOD,51.763553,-1.256653,108.045315,5736178.23026,620306.90422,-108.045315,30U,-2.939823,-4.167109,-0.028432,-0.016662,-0.000734,4.077683,28
1403538272851411,1,INS_SOLUTION_GOOD,51.763499,-1.256774,108.121781,5736172.06901,620298.73016,-108.121781,30U,-2.879293,-4.332326,0.022207,-0.017001,-0.001912,4.108305,29
1403538273351418,1,INS_SOLUTION_GOOD,51.763485,-1.256804,108.042709,5736170.48602,620296.707598,-108.042709,30U,-2.825723,-4.320937,0.005874,-0.012172,0.003305,4.116636,29
1403538273788922,1,INS_SOLUTION_GOOD,51.763474,-1.256831,108.056438,5736169.21712,620294.841852,-108.056438,30U,-2.734801,-4.293894,-0.091301,-0.009645,0.00439,4.124765,29
1403538274226428,1,INS_SOLUTION_GOOD,51.763464,-1.256858,108.07193,5736167.97749,620292.995151,-108.07193,30U,-2.666228,-4.25016,-0.080068,-0.01965,0.004882,4.130368,29
1403538274663932,1,INS_SOLUTION_GOOD,51.763452,-1.256884,108.045331,5736166.6802,620291.259124,-108.045331,30U,-2.628461,-4.190543,-0.045294,-0.015025,0.004174,4.137624,29
1403538276726456,1,INS_SOLUTION_GOOD,51.763405,-1.257009,108.124159,5736161.25237,620282.717996,-108.124159,30U,-2.484112,-4.275094,-0.017144,-0.013599,0.001844,4.165613,30
1403538277163960,1,INS_SOLUTION_GOOD,51.763396,-1.257037,108.135088,5736160.11702,620280.853263,-108.135088,30U,-2.47322,-4.334522,-0.019363,-0.013315,0.004441,4.171069,30
1403538277601469,1,INS_SOLUTION_GOOD,51.763386,-1.257064,108.186139,5736158.97615,620278.985484,-108.186139,30U,-2.476099,-4.365498,-0.075517,-0.019985,0.006753,4.175273,30
1403538278038970,1,INS_SOLUTION_GOOD,51.763376,-1.257092,108.206717,5736157.8404,620277.07588,-108.206717,30U,-2.519683,-4.40529,-0.104867,-0.015018,0.007765,4.179269,30
1403538278476477,1,INS_SOLUTION_GOOD,51.763366,-1.25712,108.220572,5736156.67502,620275.18376,-108.220572,30U,-2.492615,-4.483184,-0.081167,-0.023575,0.010048,4.181878,30
1403538280413998,1,INS_SOLUTION_GOOD,51.763316,-1.257236,108.455333,5736150.9514,620267.333687,-108.455333,30U,-2.529433,-4.697967,-0.104197,-0.029474,0.006257,4.206072,31
1403538280851502,1,INS_SOLUTION_GOOD,51.763306,-1.257266,108.482584,5736149.80722,620265.294614,-108.482584,30U,-2.451684,-4.680646,-0.0683,-0.028688,0.000669,4.212415,31
1403538281289010,1,INS_SOLUTION_GOOD,51.763297,-1.257295,108.498142,5736148.6923,620263.274311,-108.498142,30U,-2.390836,-4.628144,-0.008443,-0.033833,0.002154,4.220155,31
1403538281664011,1,INS_SOLUTION_GOOD,51.763285,-1.257312,108.5806,5736147.40936,620262.119623,-108.5806,30U,-2.343399,-4.605776,-0.051202,-0.022546,0.013741,4.225872,31
1403538282164017,1,INS_SOLUTION_GOOD,51.763275,-1.257346,108.632956,5736146.19405,620259.841974,-108.632956,30U,-2.315662,-4.62755,-0.109031,-0.021093,0.003312,4.235339,31
1403538284101538,1,INS_SOLUTION_GOOD,51.763231,-1.257468,108.834369,5736141.11181,620251.535281,-108.834369,30U,-2.115439,-4.669553,-0.043739,-0.005171,0.013122,4.278969,32
1403538284539043,1,INS_SOLUTION_GOOD,51.763221,-1.257495,108.84499,5736139.92889,620249.690934,-108.84499,30U,-2.035276,-4.678997,-0.090235,-0.005038,0.008522,4.287876,32
1403538284976547,1,INS_SOLUTION_GOOD,51.763213,-1.257525,108.874624,5736138.9926,620247.653306,-108.874624,30U,-1.976635,-4.688136,-0.041581,-0.005284,0.010692,4.29799,32
1403538285414053,1,INS_SOLUTION_GOOD,51.763204,-1.257554,108.915284,5736137.97146,620245.655058,-108.915284,30U,-1.899451,-4.706651,-0.078384,-0.004522,0.013701,4.308636,32
1403538285914061,1,INS_SOLUTION_GOOD,51.763196,-1.257588,108.963347,5736136.97069,620243.330641,-108.963347,30U,-1.840566,-4.70111,-0.096622,-0.005273,0.012239,4.321324,32
1403538287914081,1,INS_SOLUTION_GOOD,51.763162,-1.257725,109.080834,5736133.04003,620233.958601,-109.080834,30U,-1.689467,-4.843437,-0.113854,0.016358,0.010881,4.359717,33
1403538288351588,1,INS_SOLUTION_GOOD,51.763154,-1.257754,109.109286,5736132.08037,620232.032066,-109.109286,30U,-1.638233,-4.823921,-0.090524,0.016987,0.010342,4.367276,33
1403538288789092,1,INS_SOLUTION_GOOD,51.763148,-1.257784,109.142685,5736131.31866,620229.92895,-109.142685,30U,-1.596822,-4.826429,-0.077601,0.019027,0.012493,4.374995,33
1403538289226595,1,INS_SOLUTION_GOOD,51.763141,-1.257815,109.181029,5736130.5742,620227.812026,-109.181029,30U,-1.568452,-4.873929,-0.069152,0.023202,0.010122,4.381503,33
1403538289664101,1,INS_SOLUTION_GOOD,51.763133,-1.257843,109.218474,5736129.61184,620225.888937,-109.218474,30U,-1.551092,-4.906412,-0.069819,0.020862,0.016608,4.388604,33
1403538291601622,1,INS_SOLUTION_GOOD,51.763104,-1.257981,109.403132,5736126.17022,620216.487721,-109.403132,30U,-1.465667,-5.05225,-0.038219,0.023951,0.011818,4.408635,34
1403538292101630,1,INS_SOLUTION_GOOD,51.763098,-1.258017,109.450236,5736125.38204,620214.007353,-109.450236,30U,-1.412678,-4.954438,-0.070412,0.020606,0.004736,4.415237,34
1403538292539133,1,INS_SOLUTION_GOOD,51.763091,-1.258048,109.45858,5736124.63428,620211.88215,-109.45858,30U,-1.365008,-4.874273,-0.029025,0.018291,0.002939,4.417885,34
1403538292976638,1,INS_SOLUTION_GOOD,51.763086,-1.258077,109.478323,5736124.01608,620209.865979,-109.478323,30U,-1.346534,-4.802498,-0.018868,0.015514,0.007327,4.41967,34
1403538293414143,1,INS_SOLUTION_GOOD,51.76308,-1.258107,109.355487,5736123.27554,620207.819037,-109.355487,30U,-1.329141,-4.736592,-0.04238,0.013619,0.004382,4.419068,34
1403538295476667,1,INS_SOLUTION_GOOD,51.763055,-1.25825,109.539472,5736120.27157,620198.026496,-109.539472,30U,-1.32938,-4.733108,-0.025529,0.003235,0.007255,4.415972,35
1403538295914171,1,INS_SOLUTION_GOOD,51.76305,-1.258279,109.562719,5736119.67517,620196.05613,-109.562719,30U,-1.303685,-4.69766,-0.105023,0.010626,0.004028,4.413506,35
1403538296414178,1,INS_SOLUTION_GOOD,51.763044,-1.258313,109.581124,5736118.96684,620193.741283,-109.581124,30U,-1.271215,-4.614934,-0.088873,0.004343,0.009182,4.409315,35
1403538296851683,1,INS_SOLUTION_GOOD,51.763039,-1.258342,109.611002,5736118.35449,620191.750446,-109.611002,30U,-1.268061,-4.504078,-0.049621,0.008811,0.005884,4.406342,35
1403538297289187,1,INS_SOLUTION_GOOD,51.763034,-1.258371,109.616663,5736117.70509,620189.736673,-109.616663,30U,-1.262127,-4.459208,-0.029731,0.011749,0.002489,4.401449,35
1403538299414210,1,INS_SOLUTION_GOOD,51.763004,-1.258502,109.625046,5736114.1802,620180.764234,-109.625046,30U,-1.371568,-4.210669,-0.06508,0.006881,0.01148,4.359484,36
1403538299914219,1,INS_SOLUTION_GOOD,51.762998,-1.258532,109.657124,5736113.44315,620178.709606,-109.657124,30U,-1.377958,-4.093654,-0.060616,0.013671,0.008919,4.351889,36
1403538300414222,1,INS_SOLUTION_GOOD,51.762992,-1.258562,109.681973,5736112.71292,620176.69341,-109.681973,30U,-1.36832,-4.029023,-0.072007,0.023218,0.008058,4.344663,36
1403538300914229,1,INS_SOLUTION_GOOD,51.762986,-1.258591,109.70555,5736111.97987,620174.70842,-109.70555,30U,-1.327054,-4.002954,-0.079434,0.024519,0.0072,4.337878,36
1403538301414233,1,INS_SOLUTION_GOOD,51.76298,-1.258619,109.73767,5736111.24661,620172.751535,-109.73767,30U,-1.353962,-3.931262,-0.066365,0.015836,-0.003001,4.334358,36
1403538303914261,1,INS_SOLUTION_GOOD,51.762952,-1.258753,109.931161,5736107.9484,620163.592351,-109.931161,30U,-0.449253,-3.88676,-0.050208,0.009362,0.007241,4.577016,37
1403538304476769,1,INS_BAD_GPS_AGREEMENT,51.762951,-1.258786,109.963504,5736107.84312,620161.340839,-109.963504,30U,0.314239,-3.890766,0.001488,0.024043,0.01312,4.776134,37
1403538305039273,1,INS_BAD_GPS_AGREEMENT,51.762955,-1.258817,110.007096,5736108.19487,620159.202971,-110.007096,30U,1.130767,-3.694075,-0.051942,0.034909,0.007404,5.015029,37
1403538305601779,1,INS_SOLUTION_GOOD,51.76296,-1.258839,109.954107,5736108.72306,620157.637066,-109.954107,30U,1.944616,-3.212189,-0.074299,0.053337,-0.011293,5.271591,37
1403538306164282,1,INS_SOLUTION_GOOD,51.762972,-1.258863,109.950734,5736109.98933,620155.936647,-109.950734,30U,2.745974,-2.683476,0.017675,0.028802,-0.034557,5.527438,37
1403538308664305,1,INS_SOLUTION_GOOD,51.763054,-1.258903,109.613407,5736119.08073,620152.990947,-109.613407,30U,4.503818,-0.02757,0.085592,-0.008091,-0.01717,0.044132,38
1403538309101805,1,INS_SOLUTION_GOOD,51.763072,-1.258902,109.583665,5736121.09107,620152.969254,-109.583665,30U,4.630225,0.159458,0.067974,-0.00882,-0.013369,0.077189,38
1403538309601812,1,INS_SOLUTION_GOOD,51.763091,-1.2589,109.478849,5736123.19689,620153.077847,-109.478849,30U,4.737145,0.265455,0.047289,-0.011049,-0.015444,0.103895,38
1403538310039317,1,INS_SOLUTION_GOOD,51.76311,-1.258898,109.453044,5736125.30489,620153.161531,-109.453044,30U,4.834364,0.307205,0.09511,-0.004523,-0.008562,0.118596,38
1403538310539322,1,INS_SOLUTION_GOOD,51.76313,-1.258894,109.36179,5736127.47297,620153.384632,-109.36179,30U,4.85189,0.403466,0.024151,0.003436,-0.003785,0.129603,38
1403538312601850,1,INS_SOLUTION_GOOD,51.763218,-1.258878,109.255885,5736137.32689,620154.288035,-109.255885,30U,4.852381,0.360143,0.082233,0.001876,-0.012569,0.120142,39
1403538313039354,1,INS_SOLUTION_GOOD,51.763237,-1.258875,109.221563,5736139.47369,620154.393507,-109.221563,30U,4.888758,0.369145,0.033232,0.00164,-0.007379,0.120181,39
1403538313476860,1,INS_SOLUTION_GOOD,51.763256,-1.25887,109.156653,5736141.52554,620154.711969,-109.156653,30U,4.891909,0.361889,0.030872,0.003818,-0.001913,0.119857,39
1403538313914366,1,INS_SOLUTION_GOOD,51.763274,-1.258868,109.15195,5736143.58579,620154.813501,-109.15195,30U,4.890441,0.343698,-0.00908,0.004422,-0.009321,0.119351,39
1403538314351868,1,INS_SOLUTION_GOOD,51.763291,-1.258861,109.263779,5736145.43594,620155.217283,-109.263779,30U,4.854068,0.42685,0.096175,0.002959,-0.01139,0.119803,39
1403538316414392,1,INS_SOLUTION_GOOD,51.763378,-1.258845,109.087924,5736155.21998,620156.129734,-109.087924,30U,4.96281,0.391618,0.035278,0.007762,-0.011079,0.128189,40
1403538316851894,1,INS_SOLUTION_GOOD,51.763398,-1.258842,109.06591,5736157.42514,620156.261015,-109.06591,30U,5.045847,0.460518,0.168322,0.0069,0.001881,0.127959,40
1403538317289398,1,INS_SOLUTION_GOOD,51.763414,-1.258835,109.485347,5736159.21019,620156.715302,-109.485347,30U,5.060003,0.453882,0.011075,0.000503,-0.012308,0.134216,40
1403538317726905,1,INS_SOLUTION_GOOD,51.763434,-1.258832,109.46355,5736161.45466,620156.866563,-109.46355,30U,5.128128,0.457288,0.026048,-0.002546,-0.012449,0.134897,40
1403538318164412,1,INS_SOLUTION_GOOD,51.763455,-1.258829,109.446361,5736163.72887,620157.014284,-109.446361,30U,5.198002,0.439902,0.049271,-0.011381,-0.011589,0.13409,40
1403538320101938,1,INS_SOLUTION_GOOD,51.763546,-1.258818,109.403443,5736173.93142,620157.536303,-109.403443,30U,5.207723,0.247212,-0.025857,-0.000929,-0.005434,0.095558,41
1403538320539445,1,INS_SOLUTION_GOOD,51.763567,-1.258816,109.397757,5736176.1955,620157.599755,-109.397757,30U,5.112452,0.197538,-0.008361,-0.001749,-0.00561,0.08373,41
1403538320976951,1,INS_SOLUTION_GOOD,51.763586,-1.258815,109.397161,5736178.32819,620157.613388,-109.397161,30U,5.049209,0.149697,0.003644,-0.002454,-0.005958,0.073908,41
1403538321414457,1,INS_SOLUTION_GOOD,51.763606,-1.258815,109.402255,5736180.54731,620157.606799,-109.402255,30U,5.043214,0.067832,0.034895,-0.003565,-0.011663,0.063028,41
1403538321851965,1,INS_SOLUTION_GOOD,51.763626,-1.258814,109.384587,5736182.7683,620157.575793,-109.384587,30U,5.054909,0.032195,0.000517,-0.001358,-0.007822,0.054283,41
1403538323664473,1,INS_SOLUTION_GOOD,51.763702,-1.258806,110.121884,5736191.23597,620157.931824,-110.121884,30U,5.111536,-0.064011,0.001975,-0.002358,-0.013379,0.031377,42
1403538324101978,1,INS_SOLUTION_GOOD,51.763722,-1.258807,110.125183,5736193.47962,620157.83869,-110.125183,30U,5.088926,-0.100249,-0.018733,-0.002917,-0.008766,0.024865,42
1403538324539481,1,INS_SOLUTION_GOOD,51.763742,-1.258808,110.135824,5736195.70304,620157.718905,-110.135824,30U,5.059802,-0.131264,-0.045443,-0.001473,-0.013444,0.020812,42
1403538324976987,1,INS_SOLUTION_GOOD,51.763761,-1.258809,110.147393,5736197.82196,620157.607415,-110.147393,30U,5.045664,-0.110512,0.068808,-0.003511,-0.004975,0.01916,42
1403538325414492,1,INS_SOLUTION_GOOD,51.76378,-1.258811,110.154013,5736199.94447,620157.376118,-110.154013,30U,5.037737,-0.161374,-0.101889,0.000853,-0.013589,0.019106,42
1403538327414516,1,INS_SOLUTION_GOOD,51.763869,-1.258816,110.01811,5736209.84729,620156.818063,-110.01811,30U,5.102053,-0.229357,-0.025,0.002303,-0.018266,0.006779,43
1403538327852022,1,INS_SOLUTION_GOOD,51.763889,-1.258818,110.005502,5736212.09451,620156.655663,-110.005502,30U,5.128868,-0.258654,0.0375,-0.002928,-0.001763,0.003278,43
1403538328289530,1,INS_SOLUTION_GOOD,51.763907,-1.258816,109.805401,5736214.03577,620156.69955,-109.805401,30U,5.086028,-0.275737,-0.01622,-0.003551,-0.009323,6.282218,43
1403538328727030,1,INS_SOLUTION_GOOD,51.763927,-1.258818,109.810792,5736216.26463,620156.52309,-109.810792,30U,5.06115,-0.29789,-0.007378,0.003756,-0.003258,6.27727,43
1403538329164533,1,INS_SOLUTION_GOOD,51.763947,-1.25882,109.831192,5736218.48016,620156.333484,-109.831192,30U,5.031216,-0.312621,-0.071318,0.008609,-0.004217,6.271903,43
1403538331227057,1,INS_SOLUTION_GOOD,51.764037,-1.258828,109.649198,5736228.44441,620155.529069,-109.649198,30U,5.028045,-0.443252,-0.049219,0.011586,-0.001826,6.248103,44
1403538331664562,1,INS_SOLUTION_GOOD,51.764056,-1.258831,109.647764,5736230.62358,620155.294004,-109.647764,30U,5.019908,-0.473073,-0.046821,0.018742,0.00083,6.239642,44
1403538332102067,1,INS_SOLUTION_GOOD,51.764076,-1.258834,109.675335,5736232.82302,620155.018065,-109.675335,30U,5.005693,-0.518329,-0.07625,0.021545,-0.003727,6.230774,44
1403538332539574,1,INS_SOLUTION_GOOD,51.764095,-1.258837,109.662721,5736234.9784,620154.741867,-109.662721,30U,5.013771,-0.559896,-0.013701,0.015855,-0.00508,6.222409,44
1403538332977082,1,INS_SOLUTION_GOOD,51.764114,-1.258841,109.681624,5736237.0831,620154.445062,-109.681624,30U,5.041748,-0.601172,0.003574,0.030017,-0.018058,6.216423,44
1403538335039599,1,INS_SOLUTION_GOOD,51.764207,-1.25886,109.683309,5736247.31918,620152.890158,-109.683309,30U,5.076789,-0.708528,-0.063873,-0.009457,-0.014272,6.203846,45
1403538335352104,1,INS_SOLUTION_GOOD,51.764212,-1.258848,110.44736,5736247.93498,620153.688431,-110.44736,30U,5.018686,-0.711882,-0.021256,-0.026263,-0.019881,6.203543,45
1403538335789611,1,INS_SOLUTION_GOOD,51.764232,-1.258852,110.42683,5736250.14245,620153.347609,-110.42683,30U,4.999155,-0.696374,0.003505,-0.009028,-0.005987,6.201754,45
1403538336227119,1,INS_SOLUTION_GOOD,51.764252,-1.258857,110.449894,5736252.33824,620152.99312,-110.449894,30U,5.017205,-0.635594,-0.067437,-0.00073,-0.000667,6.198509,45
1403538336602122,1,INS_SOLUTION_GOOD,51.764265,-1.258854,110.767885,5736253.81687,620153.122067,-110.767885,30U,4.976713,-0.692719,-0.060298,-0.004633,-0.002893,6.194921,45
1403538338914645,1,INS_SOLUTION_GOOD,51.764366,-1.258872,110.249808,5736265.0147,620151.611177,-110.249808,30U,5.150427,-0.716748,-0.053294,0.011397,-0.003724,6.190157,46
1403538339289647,1,INS_SOLUTION_GOOD,51.764383,-1.258876,109.780178,5736266.93744,620151.340881,-109.780178,30U,5.210839,-0.729565,-0.016031,0.008655,-0.003567,6.188278,46
1403538339664652,1,INS_SOLUTION_GOOD,51.764401,-1.25888,109.794641,5736268.91762,620151.011011,-109.794641,30U,5.239226,-0.770362,-0.039582,0.006907,-0.00238,6.184995,46
1403538340039658,1,INS_SOLUTION_GOOD,51.764419,-1.258884,109.818248,5736270.89714,620150.671905,-109.818248,30U,5.223669,-0.776572,-0.049733,0.00294,-0.006769,6.182842,46
1403538340477162,1,INS_SOLUTION_GOOD,51.764439,-1.258887,109.670825,5736273.09952,620150.374566,-109.670825,30U,5.185266,-0.770732,-0.010474,0.008943,-0.006982,6.18176,46
1403538342289689,1,INS_SOLUTION_GOOD,51.764524,-1.258911,108.619194,5736282.50436,620148.500458,-108.619194,30U,5.035338,-0.771168,0.107306,0.008165,0.013137,6.176087,47
1403538342664696,1,INS_SOLUTION_GOOD,51.764541,-1.258915,108.383392,5736284.40326,620148.205395,-108.383392,30U,4.967257,-0.760975,-0.236426,0.002551,0.016842,6.174876,47
1403538343102205,1,INS_SOLUTION_GOOD,51.764561,-1.25892,108.448796,5736286.57116,620147.815259,-108.448796,30U,4.937782,-0.771152,0.075477,0.004967,-0.003354,6.174452,47
1403538343477205,1,INS_SOLUTION_GOOD,51.764578,-1.258925,108.047094,5736288.53143,620147.438987,-108.047094,30U,4.962722,-0.7761,-0.026643,0.000151,0.002134,6.17317,47
1403538343977209,1,INS_SOLUTION_GOOD,51.7646,-1.25893,108.054857,5736290.91923,620147.008321,-108.054857,30U,5.029799,-0.797707,0.026369,0.002981,-0.001303,6.172325,47
1403538345852222,1,INS_SOLUTION_GOOD,51.764686,-1.258951,108.465122,5736300.43632,620145.305323,-108.465122,30U,5.218559,-0.823234,-0.043763,0.010838,-0.023349,6.166397,48
1403538346289727,1,INS_BAD_GPS_AGREEMENT,51.764706,-1.258957,108.422416,5736302.71079,620144.881576,-108.422416,30U,5.22935,-0.849308,0.155705,-0.003071,0.023783,6.164253,48
1403538346664732,1,INS_BAD_GPS_AGREEMENT,51.764724,-1.258961,108.467873,5736304.69126,620144.512694,-108.467873,30U,5.244395,-0.896274,-0.261224,0.000819,-0.014437,6.164243,48
1403538347039736,1,INS_BAD_GPS_AGREEMENT,51.764742,-1.258966,108.452936,5736306.69409,620144.13389,-108.452936,30U,5.316262,-0.855905,0.186416,0.003261,-0.001118,6.162412,48
1403538347414738,1,INS_BAD_GPS_AGREEMENT,51.764759,-1.258969,108.175824,5736308.6025,620143.892385,-108.175824,30U,5.298072,-0.83743,0.011052,-0.013071,0.004691,6.157431,48
1403538349289762,1,INS_BAD_GPS_AGREEMENT,51.764849,-1.258993,107.939236,5736318.47302,620142.000415,-107.939236,30U,5.407498,-1.006803,0.046582,-0.007228,-0.006738,6.138191,49
1403538349664765,1,INS_BAD_GPS_AGREEMENT,51.764867,-1.258999,107.921726,5736320.51778,620141.564963,-107.921726,30U,5.407073,-1.02172,0.049974,-0.009182,-0.003681,6.134552,49
1403538350039768,1,INS_BAD_GPS_AGREEMENT,51.764885,-1.259004,107.909352,5736322.56237,620141.122612,-107.909352,30U,5.407422,-1.031489,0.013564,-0.008935,-0.00545,6.131387,49
1403538350414772,1,INS_BAD_GPS_AGREEMENT,51.764903,-1.259007,107.573394,5736324.5004,620140.873014,-107.573394,30U,5.346846,-1.027703,0.071658,-0.009623,-0.002321,6.127914,49
1403538350852279,1,INS_BAD_GPS_AGREEMENT,51.764923,-1.259014,107.554187,5736326.71346,620140.38425,-107.554187,30U,5.250523,-1.031956,0.006143,-0.008874,-0.0037,6.12521,49
1403538352852301,1,INS_BAD_GPS_AGREEMENT,51.765013,-1.259043,107.443342,5736336.63123,620138.103565,-107.443342,30U,4.756651,-1.013389,-0.029942,-0.005299,-0.001709,6.113864,50
1403538353289805,1,INS_SOLUTION_GOOD,51.765028,-1.259043,107.706093,5736338.33502,620138.095337,-107.706093,30U,4.674369,-0.993444,0.063511,-0.002133,-0.00436,6.114087,50
1403538353727312,1,INS_SOLUTION_GOOD,51.765046,-1.259049,107.672516,5736340.36211,620137.614191,-107.672516,30U,4.564002,-0.954193,-0.026994,-0.000204,0.010519,6.112977,50
1403538354164816,1,INS_SOLUTION_GOOD,51.765064,-1.259055,107.696023,5736342.3369,620137.137469,-107.696023,30U,4.479108,-0.96958,0.036946,-0.003153,0.003846,6.112729,50
1403538354477320,1,INS_SOLUTION_GOOD,51.765076,-1.259057,106.735712,5736343.68555,620136.953864,-106.735712,30U,4.423541,-0.956246,0.043024,-0.00206,-1.2e-05,6.110377,50
1403538357164853,1,INS_SOLUTION_GOOD,51.765176,-1.259095,106.437753,5736354.70617,620134.106547,-106.437753,30U,3.807964,-0.985978,0.047225,-0.00291,-0.001643,6.071681,51
1403538357727357,1,INS_SOLUTION_GOOD,51.765194,-1.2591,106.530367,5736356.75965,620133.705689,-106.530367,30U,3.66421,-1.046247,0.106483,-0.007104,0.000741,6.04963,51
1403538358289863,1,INS_SOLUTION_GOOD,51.765212,-1.259108,106.232673,5736358.75449,620133.104218,-106.232673,30U,3.347193,-1.029824,0.048538,-0.011355,0.010634,6.02993,51
1403538358914872,1,INS_SOLUTION_GOOD,51.76523,-1.259117,106.20094,5736360.73957,620132.415781,-106.20094,30U,2.964699,-0.980554,-0.023889,-0.00747,0.020672,6.015638,51
1403538359602378,1,INS_SOLUTION_GOOD,51.765248,-1.259127,106.316105,5736362.64238,620131.725373,-106.316105,30U,2.892873,-0.901459,-0.025551,0.006968,0.023918,6.048029,51
1403538362539918,1,INS_SOLUTION_GOOD,51.765333,-1.259125,105.962948,5736372.12024,620131.604461,-105.962948,30U,3.416326,1.391248,0.144925,0.011869,-0.021932,0.462058,52
1403538363102424,1,INS_SOLUTION_GOOD,51.76535,-1.259111,105.871242,5736373.99448,620132.504401,-105.871242,30U,3.19976,1.951657,0.185927,-0.009894,-0.021666,0.615071,52
1403538363352429,1,INS_SOLUTION_GOOD,51.76535,-1.25909,108.392697,5736374.03934,620134.010698,-108.392697,30U,3.005342,2.188996,0.071265,-0.010629,-0.014977,0.667315,52
1403538363914939,1,INS_SOLUTION_GOOD,51.765365,-1.25907,108.349627,5736375.73994,620135.308868,-108.349627,30U,2.707078,2.450055,0.033869,-0.012279,-0.01273,0.777925,52
1403538364414939,1,INS_SOLUTION_GOOD,51.765372,-1.259045,109.183101,5736376.65453,620137.054753,-109.183101,30U,2.502659,2.604685,0.087164,-0.018543,-0.021718,0.853796,52
1403538367227466,1,INS_SOLUTION_GOOD,51.765424,-1.258927,109.631095,5736382.56545,620145.021357,-109.631095,30U,1.81138,2.662019,-0.007163,-0.05645,-0.013138,0.999155,53
1403538367852475,1,INS_SOLUTION_GOOD,51.765434,-1.258901,109.796449,5736383.68969,620146.818776,-109.796449,30U,1.75346,2.634992,0.006826,-0.067276,-0.015333,1.013831,53
1403538368477484,1,INS_SOLUTION_GOOD,51.765443,-1.258874,109.93545,5736384.80681,620148.649021,-109.93545,30U,1.682424,2.55798,0.074709,-0.067023,-0.016277,1.027586,53
1403538369227495,1,INS_SOLUTION_GOOD,51.765453,-1.258848,109.918065,5736385.95706,620150.399008,-109.918065,30U,1.367508,2.192902,0.00252,-0.06882,0.000156,1.039321,53
1403538370040008,1,INS_SOLUTION_GOOD,51.765462,-1.258822,110.109987,5736387.0033,620152.191798,-110.109987,30U,1.126883,1.873081,-0.026189,-0.071768,-0.006849,1.055279,53
