timestamp,burst,ins_status,latitude,longitude,altitude,northing,easting,down,utm_zone,velocity_north,velocity_east,velocity_down,roll,pitch,yaw,serie
1418840340868448,1,INS_SOLUTION_GOOD,51.760606,-1.261336,109.756874,5735842.83694,619991.570085,-109.756874,30U,1.142503,-1.334916,0.005317,0.027009,-0.002182,5.437395,1
1418840341805839,1,INS_SOLUTION_GOOD,51.760618,-1.261359,109.639946,5735844.155,619989.959681,-109.639946,30U,1.614512,-1.623266,0.024484,0.021796,-0.00638,5.520003,1
1418840342555751,1,INS_SOLUTION_GOOD,51.760631,-1.261379,109.546123,5735845.56165,619988.545675,-109.546123,30U,2.177109,-1.625035,0.043429,0.001235,-0.007645,5.669456,1
1418840343243171,1,INS_SOLUTION_GOOD,51.760646,-1.261396,109.48003,5735847.18342,619987.356451,-109.48003,30U,2.573588,-1.278763,0.043945,-5.6e-05,-0.006098,5.84904,1
1418840343930590,1,INS_SOLUTION_GOOD,51.760664,-1.261407,109.452969,5735849.10404,619986.533855,-109.452969,30U,2.991389,-1.001639,0.044596,0.000335,0.001106,5.980256,1
1418840346742763,1,INS_SOLUTION_GOOD,51.760751,-1.261444,109.610168,5735858.74336,619983.756189,-109.610168,30U,3.308153,-0.578666,-0.050411,-0.005598,0.003555,6.111151,2
1418840347367690,1,INS_SOLUTION_GOOD,51.760769,-1.261451,109.60912,5735860.72888,619983.245542,-109.60912,30U,3.123627,-0.560532,0.014247,-0.013229,-0.007571,6.110961,2
1418840348055109,1,INS_SOLUTION_GOOD,51.760787,-1.261456,109.580317,5735862.77904,619982.827657,-109.580317,30U,2.937403,-0.532357,0.068671,-0.011947,-0.002502,6.111757,2
1418840348680037,1,INS_SOLUTION_GOOD,51.760804,-1.261462,109.286162,5735864.67351,619982.378021,-109.286162,30U,2.781944,-0.538258,-0.025224,-0.013969,-0.004762,6.095047,2
1418840349304963,1,INS_SOLUTION_GOOD,51.760821,-1.26147,108.955126,5735866.4894,619981.73431,-108.955126,30U,2.617658,-0.654902,0.083766,-0.012907,-0.009301,6.040303,2
1418840353991917,1,INS_SOLUTION_GOOD,51.760872,-1.261567,108.57544,5735872.0174,619974.916969,-108.57544,30U,-0.309043,-1.375212,0.081758,0.049545,-0.000173,4.493933,3
1418840355491742,1,INS_SOLUTION_GOOD,51.760866,-1.261594,108.622884,5735871.32836,619973.091321,-108.622884,30U,-0.559264,-1.122015,0.054139,0.043717,0.013844,4.27619,3
1418840358678870,1,INS_SOLUTION_GOOD,51.760861,-1.261616,108.486255,5735870.68263,619971.591457,-108.486255,30U,-0.049514,-0.015338,0.05093,0.042223,0.010089,4.30306,3
1418840372052310,1,INS_SOLUTION_GOOD,51.76086,-1.261631,108.520963,5735870.58026,619970.56454,-108.520963,30U,-0.31131,-0.785097,-0.032833,0.045317,0.012597,4.338212,3
1418840373614628,1,INS_SOLUTION_GOOD,51.760857,-1.261656,108.301802,5735870.18606,619968.819158,-108.301802,30U,-0.43866,-1.319299,-0.052404,0.050317,0.011481,4.392253,3
1418840380676304,1,INS_SOLUTION_GOOD,51.760836,-1.261777,108.438954,5735867.68666,619960.51146,-108.438954,30U,-0.199103,-0.639728,-0.007215,0.030031,-0.035385,4.389036,4
1418840382676071,1,INS_SOLUTION_GOOD,51.760832,-1.261799,108.028666,5735867.19094,619959.004127,-108.028666,30U,-0.544963,-1.266709,0.040765,0.040916,-0.03998,4.269198,4
1418840383738447,1,INS_SOLUTION_GOOD,51.760823,-1.261824,107.779867,5735866.11017,619957.358399,-107.779867,30U,-1.612634,-1.823098,0.069975,0.041843,0.015991,3.947694,4
1418840384488360,1,INS_SOLUTION_GOOD,51.760808,-1.261841,107.631523,5735864.42747,619956.223955,-107.631523,30U,-2.656127,-1.22492,-0.113256,0.013076,0.039248,3.554799,4
1418840385175778,1,INS_SOLUTION_GOOD,51.760789,-1.261849,107.70904,5735862.29067,619955.704701,-107.70904,30U,-3.602057,-0.307377,-0.074809,0.003622,0.030886,3.193395,4
1418840387238039,1,INS_SOLUTION_GOOD,51.760702,-1.26181,107.685414,5735852.72298,619958.638089,-107.685414,30U,-5.684318,2.133006,-0.028862,-0.009899,0.007859,2.779597,5
1418840387612996,1,INS_SOLUTION_GOOD,51.760682,-1.261797,107.695698,5735850.55265,619959.536918,-107.695698,30U,-5.826898,2.323186,-0.035416,-0.014497,0.005521,2.762842,5
1418840387925459,1,INS_SOLUTION_GOOD,51.760665,-1.261787,107.704224,5735848.69247,619960.33693,-107.704224,30U,-5.914825,2.394758,0.00268,-0.015432,0.003533,2.754434,5
1418840388300415,1,INS_SOLUTION_GOOD,51.760646,-1.261772,107.732853,5735846.60209,619961.357394,-107.732853,30U,-6.008266,2.51296,-0.098052,-0.017985,0.008858,2.74793,5
1418840388612879,1,INS_SOLUTION_GOOD,51.760629,-1.261761,107.75604,5735844.67272,619962.214151,-107.75604,30U,-6.166198,2.593981,0.022056,-0.013192,0.003692,2.746155,5
1418840390300182,1,INS_SOLUTION_GOOD,51.760532,-1.261694,107.816328,5735834.00634,619967.103055,-107.816328,30U,-6.72914,2.75417,-0.029719,-0.019736,0.007609,2.753774,6
1418840390612646,1,INS_SOLUTION_GOOD,51.760513,-1.261681,107.839859,5735831.88209,619968.032576,-107.839859,30U,-6.671694,2.752671,-0.035544,-0.018334,0.003576,2.753664,6
1418840390925109,1,INS_SOLUTION_GOOD,51.760494,-1.261668,107.851737,5735829.7882,619968.94545,-107.851737,30U,-6.536581,2.679373,-0.087876,-0.011775,0.008297,2.753795,6
1418840391237573,1,INS_SOLUTION_GOOD,51.760477,-1.261656,107.832915,5735827.90705,619969.829034,-107.832915,30U,-6.429244,2.601182,-0.128265,-0.008545,0.000892,2.754131,6
1418840391550035,1,INS_SOLUTION_GOOD,51.760458,-1.261644,107.845786,5735825.89267,619970.708198,-107.845786,30U,-6.303782,2.581003,0.053692,-0.013665,-0.003627,2.755162,6
1418840393112354,1,INS_SOLUTION_GOOD,51.760373,-1.261587,107.829276,5735816.53892,619974.862117,-107.829276,30U,-5.96378,2.394176,-0.019316,0.003768,0.011569,2.758813,7
1418840393424818,1,INS_SOLUTION_GOOD,51.760357,-1.261576,107.811408,5735814.70629,619975.676641,-107.811408,30U,-5.972749,2.357209,-0.099607,0.003032,-0.003061,2.762037,7
1418840393799774,1,INS_SOLUTION_GOOD,51.760337,-1.261564,107.806509,5735812.56955,619976.577309,-107.806509,30U,-6.002701,2.407645,0.079292,0.011206,0.005387,2.767329,7
1418840394112237,1,INS_SOLUTION_GOOD,51.76032,-1.261553,107.815298,5735810.65737,619977.375295,-107.815298,30U,-6.058061,2.319272,-0.015976,0.010527,-2.6e-05,2.769977,7
1418840394424701,1,INS_SOLUTION_GOOD,51.760303,-1.261542,107.786494,5735808.76755,619978.199049,-107.786494,30U,-6.044485,2.337397,-0.019502,0.003657,0.006005,2.77669,7
1418840395987019,1,INS_SOLUTION_GOOD,51.760217,-1.26149,107.806883,5735799.32119,619981.95594,-107.806883,30U,-6.248582,2.227028,-0.020279,0.002643,0.002046,2.80173,8
1418840396361973,1,INS_SOLUTION_GOOD,51.760197,-1.261479,107.791434,5735797.09519,619982.819773,-107.791434,30U,-6.208251,2.195387,-0.030226,0.006713,0.005187,2.799854,8
1418840396674437,1,INS_SOLUTION_GOOD,51.760179,-1.261468,107.802658,5735795.13105,619983.573139,-107.802658,30U,-6.192435,2.223582,-0.009519,0.011801,-0.002329,2.79335,8
1418840396986902,1,INS_SOLUTION_GOOD,51.760161,-1.261458,107.794542,5735793.16587,619984.34696,-107.794542,30U,-6.227042,2.264794,0.027231,0.004809,0.001393,2.78911,8
1418840397299366,1,INS_SOLUTION_GOOD,51.760144,-1.261448,107.798679,5735791.301,619985.107581,-107.798679,30U,-6.268038,2.255239,0.000334,0.009227,-0.000818,2.792539,8
1418840398799190,1,INS_SOLUTION_GOOD,51.760059,-1.2614,107.747405,5735781.92283,619988.589001,-107.747405,30U,-6.199996,2.051923,0.115918,0.010792,0.001395,2.821715,9
1418840399111654,1,INS_SOLUTION_GOOD,51.760042,-1.261391,107.749311,5735779.97286,619989.281025,-107.749311,30U,-6.099456,1.971553,-0.059369,0.022131,-0.006213,2.823198,9
1418840399486611,1,INS_SOLUTION_GOOD,51.760021,-1.26138,107.770858,5735777.67466,619990.105683,-107.770858,30U,-5.984641,1.929936,0.074205,0.023969,-0.005821,2.824841,9
1418840399861567,1,INS_SOLUTION_GOOD,51.760002,-1.26137,107.761537,5735775.55936,619990.848892,-107.761537,30U,-5.883287,1.896537,0.021445,0.034065,-0.018822,2.829019,9
1418840400236524,1,INS_SOLUTION_GOOD,51.759982,-1.261359,107.73432,5735773.36091,619991.649043,-107.73432,30U,-5.776515,1.864856,0.107233,0.04616,-0.010851,2.831537,9
1418840401986319,1,INS_SOLUTION_GOOD,51.759894,-1.261314,107.662281,5735763.68604,619994.996898,-107.662281,30U,-5.297101,1.686323,0.099212,0.024163,-0.009142,2.836873,10
1418840402423768,1,INS_SOLUTION_GOOD,51.759874,-1.261303,107.686529,5735761.49811,619995.772781,-107.686529,30U,-5.202397,1.663949,0.049651,0.023551,-0.015046,2.834906,10
1418840402798725,1,INS_SOLUTION_GOOD,51.759857,-1.261294,107.656441,5735759.54806,619996.442584,-107.656441,30U,-5.14261,1.622791,0.102006,0.027757,-0.015396,2.834068,10
1418840403173679,1,INS_SOLUTION_GOOD,51.759839,-1.261285,107.661836,5735757.62893,619997.128725,-107.661836,30U,-5.064115,1.570814,0.061494,0.030322,-0.011411,2.834327,10
1418840403611130,1,INS_SOLUTION_GOOD,51.759819,-1.261275,107.633356,5735755.44741,619997.87808,-107.633356,30U,-4.945919,1.54508,0.058041,0.029952,-0.008977,2.8343,10
1418840405298433,1,INS_SOLUTION_GOOD,51.759748,-1.261238,107.629453,5735747.59091,620000.621836,-107.629453,30U,-4.508997,1.417831,0.088626,0.027555,-0.016451,2.838179,11
1418840405735882,1,INS_SOLUTION_GOOD,51.759731,-1.261229,107.589475,5735745.64335,620001.28531,-107.589475,30U,-4.42213,1.381632,0.106211,0.023051,-0.011942,2.838322,11
1418840406173331,1,INS_SOLUTION_GOOD,51.759713,-1.26122,107.552779,5735743.74969,620001.927566,-107.552779,30U,-4.355462,1.365976,0.059037,0.020285,-0.009676,2.839482,11
1418840406610780,1,INS_SOLUTION_GOOD,51.759696,-1.261212,107.519436,5735741.82035,620002.58107,-107.519436,30U,-4.4855,1.40339,0.038811,0.016135,-0.009222,2.841291,11
1418840407048229,1,INS_SOLUTION_GOOD,51.759678,-1.261203,107.489903,5735739.83009,620003.250166,-107.489903,30U,-4.623129,1.446059,0.099681,0.01571,-0.006976,2.843927,11
1418840409047995,1,INS_SOLUTION_GOOD,51.75959,-1.261159,107.478644,5735730.15107,620006.489483,-107.478644,30U,-5.21504,1.567014,0.044404,-0.002448,-0.008703,2.854509,12
1418840409422952,1,INS_SOLUTION_GOOD,51.759573,-1.26115,107.493035,5735728.24888,620007.125171,-107.493035,30U,-5.389352,1.596066,0.121952,-0.006156,-0.00464,2.855514,12
1418840409797908,1,INS_SOLUTION_GOOD,51.759554,-1.261141,107.467184,5735726.17783,620007.794558,-107.467184,30U,-5.598744,1.651297,0.043861,-0.008715,-0.001992,2.856358,12
1418840410172863,1,INS_SOLUTION_GOOD,51.759535,-1.261132,107.477721,5735724.01289,620008.511379,-107.477721,30U,-5.810865,1.717031,0.038823,-0.007719,-0.005717,2.855066,12
1418840410547821,1,INS_SOLUTION_GOOD,51.759514,-1.261122,107.445649,5735721.75549,620009.245178,-107.445649,30U,-6.194217,1.861322,0.088754,-0.010253,-0.002614,2.853463,12
1418840411985153,1,INS_SOLUTION_GOOD,51.759427,-1.261079,107.383214,5735712.12669,620012.430673,-107.383214,30U,-7.09486,2.197286,0.025136,-0.014932,-0.000427,2.845069,13
1418840412297617,1,INS_SOLUTION_GOOD,51.759408,-1.261069,107.406862,5735709.97713,620013.171478,-107.406862,30U,-7.23833,2.271482,0.05207,-0.016691,-0.000204,2.841817,13
1418840412610079,1,INS_SOLUTION_GOOD,51.759387,-1.261059,107.396005,5735707.66109,620013.961318,-107.396005,30U,-7.318976,2.350951,0.032883,-0.016851,0.000226,2.837946,13
1418840412922544,1,INS_SOLUTION_GOOD,51.759367,-1.261048,107.393014,5735705.48037,620014.716134,-107.393014,30U,-7.310956,2.394618,0.019638,-0.023209,-0.004966,2.832282,13
1418840413172515,1,INS_SOLUTION_GOOD,51.75935,-1.261039,107.417176,5735703.57786,620015.402405,-107.417176,30U,-7.283778,2.380102,0.06302,-0.02512,-0.012953,2.828274,13
1418840414484862,1,INS_SOLUTION_GOOD,51.759264,-1.260991,107.344871,5735694.14026,620018.919902,-107.344871,30U,-7.242635,2.605186,0.03799,-0.03361,-0.008237,2.803364,14
1418840414797326,1,INS_SOLUTION_GOOD,51.759244,-1.26098,107.320944,5735691.98026,620019.746285,-107.320944,30U,-7.274537,2.628457,0.148019,-0.027187,0.000185,2.803202,14
1418840415047296,1,INS_SOLUTION_GOOD,51.759227,-1.26097,107.31117,5735690.10022,620020.469435,-107.31117,30U,-7.317497,2.619934,-0.061234,-0.029133,0.000366,2.8025,14
1418840415359758,1,INS_SOLUTION_GOOD,51.759207,-1.260959,107.343916,5735687.88581,620021.334418,-107.343916,30U,-7.386389,2.657746,0.048904,-0.022011,-0.00137,2.80222,14
1418840415609731,1,INS_SOLUTION_GOOD,51.75919,-1.260949,107.331369,5735685.96763,620022.073848,-107.331369,30U,-7.492779,2.708371,0.102463,-0.022873,-0.002561,2.801443,14
1418840416859584,1,INS_SOLUTION_GOOD,51.759104,-1.260898,107.323151,5735676.49682,620025.780942,-107.323151,30U,-7.834093,2.914775,0.050682,-0.015715,-0.005201,2.788046,15
1418840417109556,1,INS_SOLUTION_GOOD,51.759086,-1.260887,107.304762,5735674.469,620026.597463,-107.304762,30U,-7.894698,3.026035,0.068597,-0.011166,-0.006704,2.778533,15
1418840417359526,1,INS_SOLUTION_GOOD,51.759068,-1.260876,107.320756,5735672.54938,620027.406167,-107.320756,30U,-7.921894,3.123076,0.117111,-0.012064,-0.003489,2.76749,15
1418840417609498,1,INS_SOLUTION_GOOD,51.75905,-1.260864,107.304048,5735670.51383,620028.280928,-107.304048,30U,-7.889798,3.225704,0.002307,-0.016986,0.002033,2.75589,15
1418840417859469,1,INS_SOLUTION_GOOD,51.759033,-1.260853,107.308628,5735668.64522,620029.110557,-107.308628,30U,-7.856032,3.310803,0.013069,-0.02264,-0.001954,2.747754,15
1418840419359294,1,INS_SOLUTION_GOOD,51.758926,-1.260776,107.415878,5735656.8844,620034.667057,-107.415878,30U,-7.834675,3.62729,0.004566,-0.022943,0.002304,2.710243,16
1418840419609263,1,INS_SOLUTION_GOOD,51.758907,-1.260762,107.413791,5735654.87437,620035.665879,-107.413791,30U,-7.80768,3.671893,-0.055123,-0.018106,0.009477,2.704683,16
1418840419859235,1,INS_SOLUTION_GOOD,51.758891,-1.26075,107.433503,5735653.02741,620036.595204,-107.433503,30U,-7.760542,3.722557,-0.03009,-0.018703,0.003686,2.700514,16
1418840420109206,1,INS_SOLUTION_GOOD,51.758873,-1.260736,107.438744,5735651.03604,620037.605592,-107.438744,30U,-7.730529,3.713933,0.005627,-0.018189,-0.000433,2.698888,16
1418840420359176,1,INS_SOLUTION_GOOD,51.758855,-1.260723,107.483687,5735649.13383,620038.524381,-107.483687,30U,-7.729741,3.684294,0.05383,-0.017787,0.000752,2.699659,16
1418840421546538,1,INS_SOLUTION_GOOD,51.758772,-1.260658,107.536014,5735639.98438,620043.236468,-107.536014,30U,-7.575254,3.780493,0.042137,-0.020493,0.003518,2.683151,17
1418840421796510,1,INS_SOLUTION_GOOD,51.758756,-1.260645,107.541153,5735638.19526,620044.183376,-107.541153,30U,-7.521017,3.760735,-0.05366,-0.019851,-0.002243,2.680018,17
1418840422046480,1,INS_SOLUTION_GOOD,51.758738,-1.260631,107.537234,5735636.27255,620045.206177,-107.537234,30U,-7.45589,3.747621,0.040157,-0.015871,-0.00066,2.677929,17
1418840422358944,1,INS_SOLUTION_GOOD,51.758719,-1.260615,107.393322,5735634.11367,620046.376801,-107.393322,30U,-7.420382,3.733646,0.016067,-0.01393,0.001409,2.677909,17
1418840422608915,1,INS_SOLUTION_GOOD,51.758701,-1.2606,107.390509,5735632.21076,620047.392678,-107.390509,30U,-7.402967,3.733209,0.012714,-0.01586,0.003534,2.678447,17
1418840423858769,1,INS_SOLUTION_GOOD,51.758619,-1.260537,107.306378,5735623.18955,620051.998971,-107.306378,30U,-7.303066,3.418969,0.040862,-0.024356,-0.003111,2.708041,18
1418840424108740,1,INS_SOLUTION_GOOD,51.758602,-1.260524,107.297028,5735621.31485,620052.921722,-107.297028,30U,-7.281324,3.345027,0.051572,-0.024756,-0.003965,2.714592,18
1418840424421203,1,INS_SOLUTION_GOOD,51.758582,-1.26051,107.314359,5735619.10441,620053.981605,-107.314359,30U,-7.289426,3.286896,0.049747,-0.023937,-0.008425,2.721434,18
1418840424671175,1,INS_SOLUTION_GOOD,51.758565,-1.260497,107.293092,5735617.22491,620054.877739,-107.293092,30U,-7.332512,3.26153,0.11559,-0.024546,-0.011034,2.72552,18
1418840424983638,1,INS_SOLUTION_GOOD,51.758545,-1.260483,107.258417,5735615.04398,620055.907981,-107.258417,30U,-7.365854,3.266344,0.093143,-0.02593,-0.007212,2.727522,18
1418840426233492,1,INS_SOLUTION_GOOD,51.75846,-1.260422,107.214468,5735605.70951,620060.333866,-107.214468,30U,-7.493379,3.202552,0.286878,-0.030778,0.002245,2.738317,19
1418840426545956,1,INS_SOLUTION_GOOD,51.758439,-1.260407,107.21517,5735603.32853,620061.42068,-107.21517,30U,-7.545486,3.202305,-0.139576,-0.03445,-0.0041,2.744166,19
1418840426858419,1,INS_SOLUTION_GOOD,51.758418,-1.260393,107.206023,5735601.08908,620062.428344,-107.206023,30U,-7.536297,3.152086,0.110202,-0.034533,-0.002218,2.748212,19
1418840427108390,1,INS_SOLUTION_GOOD,51.758401,-1.260382,107.1979,5735599.15891,620063.287935,-107.1979,30U,-7.470027,3.089121,-0.002487,-0.031063,-0.002725,2.751919,19
1418840427420854,1,INS_SOLUTION_GOOD,51.758381,-1.260368,107.166007,5735596.93321,620064.258092,-107.166007,30U,-7.376534,3.018208,0.028554,-0.033358,-0.003969,2.756701,19
1418840428733199,1,INS_SOLUTION_GOOD,51.758295,-1.260313,107.173192,5735587.46059,620068.305215,-107.173192,30U,-6.877131,2.719408,0.046936,-0.034822,-0.006048,2.76867,20
1418840429045664,1,INS_SOLUTION_GOOD,51.758275,-1.260301,107.167275,5735585.34122,620069.198306,-107.167275,30U,-6.483795,2.564245,0.00795,-0.033047,-0.007801,2.766377,20
1418840429358128,1,INS_SOLUTION_GOOD,51.758258,-1.260289,107.239041,5735583.40997,620070.054217,-107.239041,30U,-6.134586,2.455732,0.021397,-0.032309,-0.008076,2.761956,20
1418840429670591,1,INS_SOLUTION_GOOD,51.758241,-1.260278,107.232917,5735581.52065,620070.872519,-107.232917,30U,-5.811687,2.364224,0.026362,-0.033646,-0.008946,2.754937,20
1418840430045548,1,INS_SOLUTION_GOOD,51.758221,-1.260265,107.221394,5735579.40062,620071.810996,-107.221394,30U,-5.468743,2.309803,0.031229,-0.030795,-0.009116,2.740362,20
1418840432232793,1,INS_SOLUTION_GOOD,51.758139,-1.260195,107.009155,5735570.36258,620076.874077,-107.009155,30U,-2.746642,2.157372,0.03089,-0.020107,-0.010842,2.463698,21
1418840432920213,1,INS_SOLUTION_GOOD,51.758125,-1.260174,106.97877,5735568.86493,620078.344174,-106.97877,30U,-1.801367,2.029193,0.05933,-0.019571,-0.010575,2.279906,21
1418840433920096,1,INS_SOLUTION_GOOD,51.758115,-1.26015,106.906605,5735567.7377,620080.01866,-106.906605,30U,-0.592826,1.089718,0.053875,-0.012972,-0.015689,2.058473,21
1418840438669543,1,INS_SOLUTION_GOOD,51.758108,-1.260124,106.799488,5735567.06019,620081.821642,-106.799488,30U,-0.018944,0.148757,0.003703,-0.002398,-0.005658,1.826275,21
1418840443044033,1,INS_SOLUTION_GOOD,51.758105,-1.260095,106.76446,5735566.77904,620083.83087,-106.76446,30U,-0.058368,2.074507,-0.017578,0.008999,0.004961,1.584994,21
1418840445606233,1,INS_SOLUTION_GOOD,51.758158,-1.259989,106.777484,5735572.76907,620090.999989,-106.777484,30U,5.358502,1.739194,0.089125,0.041325,-0.007135,0.292647,22
1418840445981191,1,INS_SOLUTION_GOOD,51.758176,-1.259982,106.753991,5735574.8499,620091.443181,-106.753991,30U,6.096789,1.035681,0.044721,0.031054,-0.007598,0.165237,22
1418840446293654,1,INS_SOLUTION_GOOD,51.758194,-1.25998,106.836949,5735576.85536,620091.559678,-106.836949,30U,6.570375,0.742921,0.088921,0.033697,-0.007491,0.10929,22
1418840446606118,1,INS_SOLUTION_GOOD,51.758214,-1.259977,106.815286,5735579.02762,620091.704969,-106.815286,30U,6.975719,0.521145,0.067706,0.019926,-0.001063,0.078046,22
1418840446918581,1,INS_SOLUTION_GOOD,51.758233,-1.259975,106.81128,5735581.17261,620091.807269,-106.81128,30U,7.300416,0.460351,-0.002633,0.030728,-0.003323,0.061584,22
1418840448230928,1,INS_SOLUTION_GOOD,51.758324,-1.259971,106.668561,5735591.2786,620091.81465,-106.668561,30U,7.774379,0.085662,0.024711,0.014443,-0.010347,0.012695,23
1418840448543392,1,INS_SOLUTION_GOOD,51.758345,-1.259971,106.655907,5735593.60444,620091.774415,-106.655907,30U,7.737773,0.013133,0.038827,0.011555,-0.008801,0.0056,23
1418840448793363,1,INS_SOLUTION_GOOD,51.758363,-1.259971,106.653583,5735595.60606,620091.726995,-106.653583,30U,7.666645,-0.020476,0.033812,0.00828,-0.01443,0.001976,23
1418840449105827,1,INS_SOLUTION_GOOD,51.758385,-1.259971,106.632338,5735598.04395,620091.662835,-106.632338,30U,7.578634,-0.014609,0.066044,0.00662,-0.012878,0.002539,23
1418840449418290,1,INS_SOLUTION_GOOD,51.758406,-1.259971,106.5845,5735600.3651,620091.601677,-106.5845,30U,7.539686,-0.009527,0.054338,0.006954,-0.011685,0.004381,23
1418840450793130,1,INS_SOLUTION_GOOD,51.758497,-1.259971,106.505516,5735610.56802,620091.359368,-106.505516,30U,7.235244,-0.004848,-0.046263,0.003482,-0.006335,0.003926,24
1418840451105592,1,INS_SOLUTION_GOOD,51.758518,-1.259971,106.506493,5735612.86407,620091.303824,-106.506493,30U,7.12143,-0.009836,0.009352,0.009668,-0.003751,0.001952,24
1418840451418057,1,INS_SOLUTION_GOOD,51.758537,-1.259971,106.505062,5735614.93005,620091.267627,-106.505062,30U,7.010133,-0.025349,-0.010589,0.012355,-0.005778,6.28301,24
1418840451730520,1,INS_SOLUTION_GOOD,51.758557,-1.259971,106.507144,5735617.15245,620091.204036,-106.507144,30U,6.889203,-0.048557,0.012083,0.013108,-0.000581,6.281184,24
1418840452042984,1,INS_SOLUTION_GOOD,51.758575,-1.259971,106.519748,5735619.20083,620091.143101,-106.519748,30U,6.774652,-0.053722,-0.073388,0.019038,-0.004371,6.280759,24
1418840453730288,1,INS_SOLUTION_GOOD,51.758666,-1.259971,106.508642,5735629.36771,620090.933608,-106.508642,30U,5.13385,-0.013385,-0.003825,0.025538,-0.005968,0.001134,25
1418840454167737,1,INS_SOLUTION_GOOD,51.758685,-1.25997,106.622852,5735631.41527,620090.93265,-106.622852,30U,4.502213,0.02052,-0.038827,0.022561,-0.00684,0.001281,25
1418840454667678,1,INS_SOLUTION_GOOD,51.758703,-1.25997,106.634741,5735633.48829,620090.884617,-106.634741,30U,3.791776,0.012599,-0.047816,0.018117,-0.005669,0.00253,25
1418840455355098,1,INS_SOLUTION_GOOD,51.758723,-1.25997,106.675208,5735635.63169,620090.852098,-106.675208,30U,2.773844,0.00302,-0.032084,0.014754,-0.003657,0.003149,25
1418840456479967,1,INS_SOLUTION_GOOD,51.758741,-1.259969,106.716486,5735637.69256,620090.832562,-106.716486,30U,1.099145,0.003862,-0.023048,0.019763,-2.4e-05,0.004485,25
1418840465853875,1,INS_SOLUTION_GOOD,51.758831,-1.259971,106.520579,5735647.62105,620090.46422,-106.520579,30U,4.140141,-0.030871,-0.041779,0.024722,0.010094,0.003468,26
1418840466353816,1,INS_SOLUTION_GOOD,51.758851,-1.259972,106.514834,5735649.89062,620090.388585,-106.514834,30U,4.777438,-0.027965,-0.054645,0.02281,0.013227,0.00273,26
1418840466791265,1,INS_SOLUTION_GOOD,51.75887,-1.259972,106.550763,5735652.0493,620090.324277,-106.550763,30U,5.005728,-0.038627,-0.071089,0.026763,0.007311,6.280946,26
1418840467228715,1,INS_BAD_GPS_AGREEMENT,51.75889,-1.259972,106.560281,5735654.28775,620090.254222,-106.560281,30U,5.155938,-0.054797,-0.050322,0.023199,0.010997,6.273053,26
1418840467666164,1,INS_BAD_GPS_AGREEMENT,51.758911,-1.259973,106.592949,5735656.58638,620090.151369,-106.592949,30U,5.300736,-0.133193,-0.098016,0.021546,0.007148,6.264959,26
1418840469415959,1,INS_SOLUTION_GOOD,51.759001,-1.259977,106.727101,5735666.58813,620089.625617,-106.727101,30U,6.267874,-0.273177,-0.067756,0.013961,0.011106,6.245375,27
1418840469728423,1,INS_SOLUTION_GOOD,51.759019,-1.259978,106.752944,5735668.62314,620089.481402,-106.752944,30U,6.473612,-0.328565,-0.067801,0.009742,0.010111,6.240053,27
1418840470103379,1,INS_SOLUTION_GOOD,51.759041,-1.25998,106.781995,5735670.9815,620089.299403,-106.781995,30U,6.646177,-0.383604,-0.072763,0.005532,0.012246,6.233038,27
1418840470415843,1,INS_SOLUTION_GOOD,51.75906,-1.259982,106.813038,5735673.15721,620089.146079,-106.813038,30U,6.745969,-0.425937,-0.090114,0.004601,0.004956,6.227125,27
1418840470728306,1,INS_SOLUTION_GOOD,51.75908,-1.259984,106.827246,5735675.32758,620088.949221,-106.827246,30U,6.846066,-0.48564,-0.042291,-0.002782,0.010118,6.219858,27
1418840472165639,1,INS_SOLUTION_GOOD,51.759171,-1.259996,107.00353,5735685.44691,620087.831085,-107.00353,30U,7.496975,-0.788779,-0.040943,-0.014891,0.006404,6.183394,28
1418840472478103,1,INS_SOLUTION_GOOD,51.759193,-1.26,107.016856,5735687.87121,620087.499969,-107.016856,30U,7.700262,-0.893315,-0.118951,-0.024486,0.012521,6.175222,28
1418840472728073,1,INS_SOLUTION_GOOD,51.759211,-1.260004,107.048586,5735689.88765,620087.211468,-107.048586,30U,7.858166,-0.970735,-0.079401,-0.026673,0.001567,6.168731,28
1418840473040537,1,INS_SOLUTION_GOOD,51.759232,-1.260008,107.053658,5735692.26064,620086.856511,-107.053658,30U,8.002493,-1.037434,-0.023708,-0.020473,0.004976,6.160818,28
1418840473290508,1,INS_SOLUTION_GOOD,51.759252,-1.260012,107.085092,5735694.38937,620086.553923,-107.085092,30U,8.088308,-1.083855,-0.090725,-0.020942,0.00607,6.153428,28
1418840474540363,1,INS_SOLUTION_GOOD,51.759344,-1.260034,107.199412,5735704.65545,620084.775346,-107.199412,30U,8.533151,-1.332077,-0.051836,-0.03057,0.004103,6.133313,29
1418840474790333,1,INS_SOLUTION_GOOD,51.759364,-1.260039,107.214082,5735706.87613,620084.370465,-107.214082,30U,8.622149,-1.361103,-0.094129,-0.025082,0.007858,6.1339,29
1418840475040305,1,INS_SOLUTION_GOOD,51.759383,-1.260044,107.2388,5735708.94531,620083.99594,-107.2388,30U,8.698836,-1.357491,-0.07941,-0.022938,0.004738,6.134924,29
1418840475290275,1,INS_SOLUTION_GOOD,51.759404,-1.260048,107.292651,5735711.22324,620083.689912,-107.292651,30U,8.795876,-1.352794,-0.061836,-0.021191,0.002354,6.13807,29
1418840475540246,1,INS_SOLUTION_GOOD,51.759423,-1.260052,107.305286,5735713.33667,620083.318044,-107.305286,30U,8.882548,-1.324979,-0.00545,-0.015003,-0.000694,6.142568,29
1418840476665116,1,INS_SOLUTION_GOOD,51.759513,-1.260071,107.263839,5735723.36408,620081.771941,-107.263839,30U,9.074089,-1.091295,0.07069,-0.005831,-0.010868,6.170133,30
1418840476915085,1,INS_SOLUTION_GOOD,51.759534,-1.260075,107.244561,5735725.71952,620081.436892,-107.244561,30U,9.106263,-1.035168,0.060677,-0.003354,-0.008933,6.176205,30
1418840477165056,1,INS_SOLUTION_GOOD,51.759554,-1.260078,107.218985,5735727.9092,620081.176719,-107.218985,30U,9.131046,-0.98755,0.038626,-0.001979,-0.007501,6.181418,30
1418840477415028,1,INS_SOLUTION_GOOD,51.759575,-1.260082,107.210327,5735730.27928,620080.866334,-107.210327,30U,9.155123,-0.951334,0.039229,-0.001215,-0.007021,6.186349,30
1418840477664998,1,INS_SOLUTION_GOOD,51.759595,-1.260085,107.202188,5735732.47282,620080.588741,-107.202188,30U,9.176068,-0.933483,0.024776,-0.00281,-0.007197,6.188783,30
1418840478727375,1,INS_SOLUTION_GOOD,51.759686,-1.2601,107.162705,5735742.53877,620079.352763,-107.162705,30U,9.542169,-0.967949,0.068554,-0.003328,-0.015,6.185776,31
1418840478977346,1,INS_SOLUTION_GOOD,51.759707,-1.260103,107.13322,5735744.83036,620079.061003,-107.13322,30U,9.606435,-0.970089,0.105274,0.001224,-0.007573,6.186677,31
1418840479227317,1,INS_SOLUTION_GOOD,51.759729,-1.260106,107.153519,5735747.32312,620078.777772,-107.153519,30U,9.669369,-0.966401,0.028021,0.005206,-0.004538,6.190774,31
1418840479477287,1,INS_SOLUTION_GOOD,51.75975,-1.260109,107.149893,5735749.64398,620078.496783,-107.149893,30U,9.720243,-0.924891,-0.007151,0.003283,-0.003811,6.195554,31
1418840479727258,1,INS_SOLUTION_GOOD,51.759773,-1.260113,107.149508,5735752.16923,620078.20299,-107.149508,30U,9.754902,-0.858023,-2e-06,0.002955,-0.007373,6.203182,31
1418840480789635,1,INS_SOLUTION_GOOD,51.759867,-1.260124,107.058377,5735762.57713,620077.184602,-107.058377,30U,9.894342,-0.700076,-0.098678,0.004232,-0.001563,6.218599,32
1418840481039606,1,INS_SOLUTION_GOOD,51.759888,-1.260126,107.066182,5735764.95494,620076.962512,-107.066182,30U,9.963376,-0.687448,0.029937,0.009024,-0.006617,6.220453,32
1418840481289576,1,INS_SOLUTION_GOOD,51.759911,-1.260128,107.127805,5735767.54011,620076.756873,-107.127805,30U,9.996436,-0.671709,0.040359,-0.000649,-0.009433,6.223817,32
1418840481539547,1,INS_SOLUTION_GOOD,51.759933,-1.260131,107.112141,5735769.93512,620076.542381,-107.112141,30U,10.003224,-0.614829,0.050872,0.006525,0.00027,6.224429,32
1418840481727025,1,INS_SOLUTION_GOOD,51.759951,-1.260133,107.120828,5735771.93057,620076.365571,-107.120828,30U,9.998257,-0.614414,-0.136598,0.010751,-0.003098,6.224406,32
1418840482726908,1,INS_SOLUTION_GOOD,51.760041,-1.260142,107.194043,5735781.91989,620075.502681,-107.194043,30U,9.995872,-0.602046,0.090086,0.003163,-0.002293,6.231308,33
1418840482976878,1,INS_SOLUTION_GOOD,51.760062,-1.260144,107.194165,5735784.31579,620075.307618,-107.194165,30U,10.008236,-0.565403,-0.083498,0.003742,-0.003806,6.23415,33
1418840483226849,1,INS_SOLUTION_GOOD,51.760086,-1.260145,107.222392,5735786.90712,620075.131076,-107.222392,30U,10.051858,-0.536211,0.041715,0.011003,-0.005605,6.236658,33
1418840483476822,1,INS_SOLUTION_GOOD,51.760107,-1.260147,107.215112,5735789.31848,620074.947423,-107.215112,30U,10.088671,-0.502473,0.052467,0.011243,-0.005629,6.239954,33
1418840483726790,1,INS_SOLUTION_GOOD,51.760131,-1.260149,107.2126,5735791.93914,620074.75671,-107.2126,30U,10.099754,-0.4836,-0.047993,0.011076,-0.005835,6.242968,33
1418840484726676,1,INS_SOLUTION_GOOD,51.760221,-1.260155,107.223627,5735801.93074,620074.123596,-107.223627,30U,9.890613,-0.386018,0.013701,0.01215,-0.0074,6.25083,34
1418840484976647,1,INS_SOLUTION_GOOD,51.760242,-1.260156,107.217028,5735804.29659,620073.974596,-107.217028,30U,9.851178,-0.367813,0.041502,0.013496,-0.008562,6.251208,34
1418840485226618,1,INS_SOLUTION_GOOD,51.760265,-1.260157,107.204312,5735806.89089,620073.836499,-107.204312,30U,9.816167,-0.413051,-0.001391,0.01313,-0.012023,6.24804,34
1418840485476587,1,INS_SOLUTION_GOOD,51.760287,-1.260159,107.190184,5735809.2384,620073.678658,-107.190184,30U,9.78501,-0.44006,0.175961,0.011822,-0.015912,6.244212,34
1418840485726559,1,INS_SOLUTION_GOOD,51.760309,-1.26016,107.158539,5735811.77695,620073.49947,-107.158539,30U,9.771894,-0.472134,-0.015595,0.016473,-0.003299,6.240825,34
1418840486788935,1,INS_BAD_GPS_AGREEMENT,51.760402,-1.260168,107.145281,5735822.02086,620072.749198,-107.145281,30U,9.542773,-0.478043,0.067795,0.020755,-0.011648,6.240207,35
1418840487038905,1,INS_BAD_GPS_AGREEMENT,51.760422,-1.260169,107.130494,5735824.29824,620072.580526,-107.130494,30U,9.465576,-0.468768,0.043863,0.017854,-0.011485,6.241189,35
1418840487288875,1,INS_SOLUTION_GOOD,51.760444,-1.260171,107.127255,5735826.73333,620072.440176,-107.127255,30U,9.37597,-0.460864,0.068659,0.016532,-0.009957,6.24125,35
1418840487538848,1,INS_SOLUTION_GOOD,51.760464,-1.260172,107.116014,5735828.96997,620072.274444,-107.116014,30U,9.292141,-0.464656,0.022293,0.016714,-0.009066,6.241332,35
1418840487788817,1,INS_SOLUTION_GOOD,51.760486,-1.260174,107.107988,5735831.369,620072.098143,-107.107988,30U,9.191567,-0.459519,0.03733,0.020127,-0.005458,6.240107,35
1418840488913688,1,INS_SOLUTION_GOOD,51.760576,-1.260181,107.080431,5735841.40114,620071.358367,-107.080431,30U,8.804197,-0.524046,0.03129,0.024739,-0.007467,6.231771,36
1418840489163659,1,INS_SOLUTION_GOOD,51.760595,-1.260182,107.08649,5735843.48658,620071.22621,-107.08649,30U,8.721149,-0.533597,0.013114,0.026704,-0.010646,6.229908,36
1418840489413628,1,INS_SOLUTION_GOOD,51.760615,-1.260184,107.076535,5735845.73917,620071.034164,-107.076535,30U,8.642339,-0.53505,0.070445,0.028471,-0.01337,6.228128,36
1418840489663600,1,INS_SOLUTION_GOOD,51.760634,-1.260186,107.060462,5735847.79912,620070.853674,-107.060462,30U,8.559542,-0.558655,0.105909,0.025875,-0.01376,6.226724,36
1418840489913572,1,INS_SOLUTION_GOOD,51.760654,-1.260188,107.0405,5735850.01008,620070.657598,-107.0405,30U,8.477245,-0.57262,0.012644,0.02483,-0.00869,6.224855,36
1418840491163426,1,INS_SOLUTION_GOOD,51.760746,-1.260197,107.054077,5735860.22799,620069.792439,-107.054077,30U,8.063541,-0.619288,0.058516,0.017155,-0.008986,6.215435,37
1418840491413397,1,INS_SOLUTION_GOOD,51.760764,-1.2602,107.046423,5735862.30872,620069.583031,-107.046423,30U,7.9786,-0.615437,0.019837,0.017878,-0.009146,6.213936,37
1418840491725860,1,INS_SOLUTION_GOOD,51.760786,-1.260202,107.039327,5735864.6815,620069.341025,-107.039327,30U,7.885857,-0.619166,0.02695,0.021593,-0.010901,6.213142,37
1418840491975831,1,INS_SOLUTION_GOOD,51.760804,-1.260205,107.0312,5735866.72022,620069.132152,-107.0312,30U,7.835006,-0.640194,0.079279,0.020054,-0.016824,6.212558,37
1418840492288295,1,INS_SOLUTION_GOOD,51.760826,-1.260206,107.014703,5735869.19451,620068.956896,-107.014703,30U,7.895254,-0.645308,0.047461,0.019718,0.001954,6.211357,37
1418840493538149,1,INS_SOLUTION_GOOD,51.760917,-1.260218,107.045802,5735879.25588,620067.934999,-107.045802,30U,8.356451,-0.678527,0.00367,0.0171,-0.00706,6.20828,38
1418840493788118,1,INS_SOLUTION_GOOD,51.760937,-1.26022,107.038753,5735881.42908,620067.700571,-107.038753,30U,8.396886,-0.699501,0.044085,0.013446,-0.009561,6.208881,38
1418840494038091,1,INS_SOLUTION_GOOD,51.760955,-1.260223,107.025932,5735883.44395,620067.484292,-107.025932,30U,8.435813,-0.695117,0.050106,0.010978,-0.014047,6.209528,38
1418840494288062,1,INS_SOLUTION_GOOD,51.760975,-1.260225,107.026805,5735885.66393,620067.265591,-107.026805,30U,8.519522,-0.690433,0.102935,0.009998,-0.002882,6.210619,38
1418840494538032,1,INS_SOLUTION_GOOD,51.760993,-1.260228,107.022218,5735887.71518,620067.050013,-107.022218,30U,8.624029,-0.687309,-0.074585,0.007861,-0.003483,6.213092,38
1418840495725395,1,INS_SOLUTION_GOOD,51.761086,-1.260237,107.254072,5735898.00813,620066.120024,-107.254072,30U,8.711369,-0.652178,-0.004987,-0.009577,-0.010325,6.218364,39
1418840495975365,1,INS_SOLUTION_GOOD,51.761106,-1.26024,107.245971,5735900.25643,620065.897565,-107.245971,30U,8.621542,-0.642527,0.049902,-0.010222,-0.009691,6.218617,39
1418840496225336,1,INS_SOLUTION_GOOD,51.761125,-1.260242,107.082727,5735902.32696,620065.698773,-107.082727,30U,8.535525,-0.624518,0.0332,-0.008313,-0.010597,6.217847,39
1418840496475307,1,INS_SOLUTION_GOOD,51.761145,-1.260244,107.071642,5735904.52912,620065.480684,-107.071642,30U,8.433368,-0.649629,-0.017813,-0.008372,-0.004481,6.215389,39
1418840496725278,1,INS_SOLUTION_GOOD,51.761163,-1.260247,107.080664,5735906.53903,620065.275526,-107.080664,30U,8.353793,-0.651039,0.005531,-0.004144,-0.012355,6.21411,39
1418840497975132,1,INS_SOLUTION_GOOD,51.761255,-1.260259,107.068113,5735916.76256,620064.185736,-107.068113,30U,7.802009,-0.738998,0.033634,-0.007685,-0.007431,6.200054,40
1418840498287597,1,INS_SOLUTION_GOOD,51.761277,-1.260262,107.07384,5735919.19626,620063.947947,-107.07384,30U,7.49055,-0.737377,-0.026093,-0.011929,-0.006728,6.196572,40
1418840498600059,1,INS_SOLUTION_GOOD,51.761297,-1.260265,107.079203,5735921.39024,620063.678756,-107.079203,30U,7.184045,-0.708051,-0.043201,-0.01159,-0.00571,6.195959,40
1418840498912524,1,INS_SOLUTION_GOOD,51.761317,-1.260268,107.088203,5735923.63976,620063.40498,-107.088203,30U,6.916046,-0.662764,-0.015314,-0.007027,-0.009049,6.19795,40
1418840499224987,1,INS_SOLUTION_GOOD,51.761335,-1.26027,107.14746,5735925.64292,620063.223381,-107.14746,30U,6.628021,-0.646823,0.019641,-0.006005,-0.00235,6.197292,40
1418840500974783,1,INS_SOLUTION_GOOD,51.761426,-1.260284,107.203343,5735935.6866,620062.020704,-107.203343,30U,4.67031,-0.468939,-0.052497,-0.010215,-0.006615,6.196544,41
1418840501474725,1,INS_SOLUTION_GOOD,51.761445,-1.260286,107.241088,5735937.81088,620061.788394,-107.241088,30U,3.913578,-0.39878,-0.022282,-0.004763,-0.00955,6.192677,41
1418840502099652,1,INS_SOLUTION_GOOD,51.761464,-1.26029,107.253803,5735939.92849,620061.503721,-107.253803,30U,2.9691,-0.341943,0.008154,-0.007341,-0.008922,6.18841,41
1418840503037043,1,INS_SOLUTION_GOOD,51.761482,-1.260292,107.306424,5735941.96759,620061.272391,-107.306424,30U,1.413941,-0.20276,0.004122,-0.017372,-0.007294,6.185327,41
1418840505724230,1,INS_SOLUTION_GOOD,51.7615,-1.260294,107.354075,5735943.90008,620061.085299,-107.354075,30U,0.465764,-0.073343,-0.025742,0.000222,-0.004264,6.181492,41
1418840509661272,1,INS_SOLUTION_GOOD,51.761588,-1.260309,107.248572,5735953.69779,620059.822482,-107.248572,30U,4.447201,-0.557027,-0.014608,-0.00452,0.00112,6.169444,42
1418840510098721,1,INS_SOLUTION_GOOD,51.761606,-1.260313,107.244657,5735955.68252,620059.514977,-107.244657,30U,4.606645,-0.603727,-0.058346,-0.009562,0.011015,6.158209,42
1418840510536168,1,INS_SOLUTION_GOOD,51.761625,-1.260317,107.290518,5735957.78735,620059.218146,-107.290518,30U,4.849594,-0.738934,-0.033459,-0.004428,0.002246,6.148526,42
1418840510973617,1,INS_SOLUTION_GOOD,51.761645,-1.260322,107.29593,5735959.99867,620058.832997,-107.29593,30U,5.223587,-0.833346,-0.053997,-0.000653,0.005977,6.138372,42
1418840511348574,1,INS_SOLUTION_GOOD,51.761664,-1.260325,107.201497,5735962.10486,620058.534138,-107.201497,30U,5.479045,-0.913337,-0.004601,-0.009229,-0.009949,6.13109,42
1418840513098369,1,INS_SOLUTION_GOOD,51.761752,-1.260349,106.990087,5735971.89916,620056.651697,-106.990087,30U,5.489792,-0.949243,0.006203,-0.016689,-0.001413,6.125421,43
1418840513473328,1,INS_SOLUTION_GOOD,51.761772,-1.260353,107.016805,5735974.06757,620056.307775,-107.016805,30U,5.378486,-0.877792,-0.015974,-0.01914,-0.002451,6.138836,43
1418840513848284,1,INS_SOLUTION_GOOD,51.76179,-1.260358,107.019298,5735976.08462,620055.956586,-107.019298,30U,5.276176,-0.68931,0.007598,-0.031552,-0.006224,6.167969,43
1418840514285733,1,INS_SOLUTION_GOOD,51.76181,-1.26036,107.100901,5735978.27726,620055.754359,-107.100901,30U,5.15594,-0.354086,-0.018564,-0.040991,-0.000157,6.242505,43
1418840514723181,1,INS_SOLUTION_GOOD,51.76183,-1.26036,107.117849,5735980.51747,620055.676105,-107.117849,30U,5.047671,0.208811,0.035276,-0.030408,0.004954,0.07169,43
1418840516785441,1,INS_SOLUTION_GOOD,51.761905,-1.260293,107.110046,5735989.0403,620060.103795,-107.110046,30U,2.548875,4.153367,-0.012507,-0.003682,-0.008485,1.053972,44
1418840517222891,1,INS_SOLUTION_GOOD,51.761913,-1.260263,107.144856,5735989.94661,620062.150867,-107.144856,30U,1.61644,4.769539,0.012344,-0.014085,0.008807,1.265364,44
1418840517660340,1,INS_SOLUTION_GOOD,51.761918,-1.260231,107.168383,5735990.53043,620064.344301,-107.168383,30U,0.754577,5.236088,-0.095066,-0.03018,0.002534,1.441411,44
1418840518035296,1,INS_SOLUTION_GOOD,51.761919,-1.260201,107.16977,5735990.751,620066.390381,-107.16977,30U,0.148097,5.54437,-0.031645,-0.027379,0.010778,1.564571,44
1418840518410252,1,INS_SOLUTION_GOOD,51.761919,-1.260171,107.075387,5735990.71361,620068.471467,-107.075387,30U,-0.46261,5.723641,-0.00527,-0.02499,0.006764,1.663442,44
1418840520097556,1,INS_SOLUTION_GOOD,51.761894,-1.26003,107.157512,5735988.16911,620078.28395,-107.157512,30U,-2.747999,5.707685,0.008578,0.005315,-0.025676,2.026501,45
1418840520410017,1,INS_SOLUTION_GOOD,51.761885,-1.260004,107.161884,5735987.25952,620080.084956,-107.161884,30U,-3.209362,5.599502,0.23812,0.001536,-0.028995,2.104223,45
1418840520784976,1,INS_SOLUTION_GOOD,51.761874,-1.259976,107.092754,5735986.03788,620082.078569,-107.092754,30U,-3.826993,5.3151,0.162823,-0.004847,-0.027518,2.207187,45
1418840521097440,1,INS_SOLUTION_GOOD,51.761862,-1.259952,107.042184,5735984.75879,620083.755012,-107.042184,30U,-4.408758,4.961599,0.179027,-0.005705,-0.032079,2.304856,45
1418840521409903,1,INS_SOLUTION_GOOD,51.761849,-1.259931,106.795377,5735983.34795,620085.229834,-106.795377,30U,-4.927671,4.572861,0.183753,-0.009293,-0.030545,2.405172,45
