timestamp,burst,ins_status,latitude,longitude,altitude,northing,easting,down,utm_zone,velocity_north,velocity_east,velocity_down,roll,pitch,yaw,serie
1403715801575422,1,INS_SOLUTION_GOOD,51.760632,-1.26024,111.656189,5735847.56142,620067.155294,-111.656189,30U,2.692574,2.721573,-0.051258,0.022861,0.023293,0.769393,1
1403715802137926,1,INS_SOLUTION_GOOD,51.76065,-1.26022,111.696024,5735849.51929,620068.464756,-111.696024,30U,4.146152,2.075422,-0.137255,0.018296,0.014104,0.435363,1
1403715802575433,1,INS_SOLUTION_GOOD,51.760668,-1.26021,111.706978,5735851.57083,620069.152899,-111.706978,30U,5.078136,1.25604,0.000176,0.025213,0.006268,0.223272,1
1403715802950441,1,INS_SOLUTION_GOOD,51.760687,-1.260205,111.70012,5735853.64174,620069.435752,-111.70012,30U,5.754002,0.511256,0.033368,0.019087,0.001217,0.086361,1
1403715803325444,1,INS_SOLUTION_GOOD,51.760706,-1.260203,111.687768,5735855.80618,620069.501703,-111.687768,30U,6.242603,0.197671,0.042555,0.014121,-0.000291,0.029029,1
1403715804700473,1,INS_SOLUTION_GOOD,51.760793,-1.260205,111.636261,5735865.48392,620069.145498,-111.636261,30U,7.69553,-0.313022,0.041191,0.027073,-0.003833,6.246026,2
1403715804950480,1,INS_SOLUTION_GOOD,51.760811,-1.260206,111.628102,5735867.50221,620069.022983,-111.628102,30U,7.854458,-0.366942,0.081593,0.025921,-0.010955,6.238507,2
1403715805262988,1,INS_SOLUTION_GOOD,51.760833,-1.260208,111.595082,5735869.87826,620068.840907,-111.595082,30U,8.002839,-0.453101,0.107188,0.020819,0.002585,6.231965,2
1403715805512990,1,INS_SOLUTION_GOOD,51.760851,-1.26021,111.599579,5735871.96603,620068.668884,-111.599579,30U,8.078275,-0.465778,-0.056328,0.023406,-0.005844,6.227319,2
1403715805825492,1,INS_SOLUTION_GOOD,51.760873,-1.260212,111.588127,5735874.3895,620068.459784,-111.588127,30U,8.098085,-0.524739,0.063638,0.025704,-0.006442,6.221493,2
1403715807013015,1,INS_SOLUTION_GOOD,51.760961,-1.260222,111.529637,5735884.08439,620067.521239,-111.529637,30U,8.110243,-0.645273,0.087006,0.013868,-0.01331,6.209929,3
1403715807325522,1,INS_SOLUTION_GOOD,51.760982,-1.260225,111.49742,5735886.50604,620067.26813,-111.49742,30U,8.064213,-0.65636,0.091968,0.013258,-0.004792,6.208176,3
1403715807575531,1,INS_SOLUTION_GOOD,51.761001,-1.260227,111.489402,5735888.58697,620067.047455,-111.489402,30U,7.987403,-0.660224,-0.031421,0.010414,-0.00794,6.207322,3
1403715807888037,1,INS_SOLUTION_GOOD,51.761023,-1.26023,111.475746,5735890.96565,620066.793715,-111.475746,30U,7.908994,-0.66565,0.096719,0.007747,-0.008075,6.205881,3
1403715808138039,1,INS_SOLUTION_GOOD,51.761041,-1.260232,111.463873,5735893.00996,620066.59594,-111.463873,30U,7.840651,-0.663857,0.031486,0.00141,-0.010658,6.205466,3
1403715809450564,1,INS_SOLUTION_GOOD,51.761131,-1.260245,111.368902,5735903.01011,620065.467764,-111.368902,30U,7.200484,-0.663757,0.078266,-0.007269,-0.01292,6.19818,4
1403715809763067,1,INS_SOLUTION_GOOD,51.76115,-1.260248,111.344469,5735905.12977,620065.219582,-111.344469,30U,6.963735,-0.650083,0.06645,-0.007696,-0.005681,6.196741,4
1403715810075572,1,INS_SOLUTION_GOOD,51.76117,-1.260251,111.34287,5735907.31024,620064.964082,-111.34287,30U,6.688162,-0.628812,0.05311,-0.003218,-0.014713,6.19708,4
1403715810450578,1,INS_SOLUTION_GOOD,51.761192,-1.260254,111.312622,5735909.76982,620064.673475,-111.312622,30U,6.27649,-0.579796,0.057724,-0.003873,-0.013149,6.196984,4
1403715810825586,1,INS_SOLUTION_GOOD,51.761211,-1.260257,111.297038,5735911.92582,620064.418766,-111.297038,30U,5.697646,-0.544619,0.075186,-0.004387,-0.010612,6.19783,4
1403715813263139,1,INS_SOLUTION_GOOD,51.761297,-1.260269,111.21774,5735921.39826,620063.409033,-111.21774,30U,2.274763,-0.205919,0.048362,-0.008278,-0.006077,6.210273,5
1403715814700678,1,INS_SOLUTION_GOOD,51.761315,-1.260271,111.164172,5735923.41048,620063.190621,-111.164172,30U,0.695811,-0.06967,0.053966,-0.006748,-0.003767,6.205925,5
1403715835263569,1,INS_SOLUTION_GOOD,51.761318,-1.260275,111.39995,5735923.70738,620062.916879,-111.39995,30U,-0.064405,-0.026558,-0.033822,-0.005316,-0.001347,6.205457,5
1403715837888607,1,INS_SOLUTION_GOOD,51.761335,-1.260278,111.482768,5735925.63802,620062.627707,-111.482768,30U,2.480132,-0.260097,-0.022601,-0.002859,0.009589,6.20468,5
1403715838576122,1,INS_SOLUTION_GOOD,51.761354,-1.260281,111.511439,5735927.76486,620062.381773,-111.511439,30U,3.588399,-0.330517,-0.059681,-0.014065,0.010785,6.203144,5
1403715840763672,1,INS_SOLUTION_GOOD,51.761448,-1.260296,111.609312,5735938.1154,620061.122899,-111.609312,30U,5.672774,-0.635306,-0.030925,0.000519,0.001994,6.183247,6
1403715841138675,1,INS_SOLUTION_GOOD,51.761467,-1.260299,111.625244,5735940.31414,620060.863858,-111.625244,30U,5.898226,-0.695108,0.00637,-0.001313,0.000383,6.17697,6
1403715841576180,1,INS_SOLUTION_GOOD,51.761491,-1.260304,111.638357,5735942.94489,620060.477062,-111.638357,30U,6.091085,-0.797369,-0.044158,-0.006337,3e-06,6.170346,6
1403715841951180,1,INS_SOLUTION_GOOD,51.761512,-1.260307,111.650045,5735945.28854,620060.196198,-111.650045,30U,6.214148,-0.839089,-0.026686,0.008834,-0.001488,6.165457,6
1403715842326185,1,INS_SOLUTION_GOOD,51.761532,-1.260311,111.654652,5735947.52473,620059.846228,-111.654652,30U,6.223941,-0.808857,-0.047638,0.007792,0.004141,6.159606,6
1403715843951213,1,INS_SOLUTION_GOOD,51.761621,-1.260331,111.75105,5735957.34377,620058.262541,-111.75105,30U,5.742253,-0.896994,-0.094215,-0.00035,-0.003916,6.140671,7
1403715844326220,1,INS_SOLUTION_GOOD,51.761639,-1.260335,111.757929,5735959.38205,620057.886498,-111.757929,30U,5.644879,-0.88006,0.011425,-0.004632,0.002027,6.134944,7
1403715844701224,1,INS_SOLUTION_GOOD,51.761659,-1.260341,111.776297,5735961.50451,620057.485179,-111.776297,30U,5.617698,-0.941199,-0.072467,-0.004671,-0.010402,6.130333,7
1403715845076231,1,INS_SOLUTION_GOOD,51.761678,-1.260345,111.764151,5735963.64016,620057.118897,-111.764151,30U,5.665508,-0.973675,0.08163,-0.01462,0.001642,6.125822,7
1403715845451242,1,INS_SOLUTION_GOOD,51.761697,-1.26035,111.774666,5735965.77527,620056.697322,-111.774666,30U,5.602809,-1.001164,-0.137998,-0.012397,0.000556,6.123892,7
1403715847263774,1,INS_SOLUTION_GOOD,51.761784,-1.260372,111.810781,5735975.3627,620054.975624,-111.810781,30U,5.043042,-0.513892,-0.003476,-0.033683,-0.003019,6.200618,8
1403715847701284,1,INS_SOLUTION_GOOD,51.761803,-1.260374,111.820622,5735977.53842,620054.773063,-111.820622,30U,4.862336,-0.093615,-0.068849,-0.040548,-0.0004,0.007898,8
1403715848138797,1,INS_SOLUTION_GOOD,51.761822,-1.260372,111.844374,5735979.62451,620054.871541,-111.844374,30U,4.620168,0.565988,0.012727,-0.030471,0.003971,0.144503,8
1403715848638806,1,INS_SOLUTION_GOOD,51.761842,-1.260365,111.880069,5735981.83974,620055.289728,-111.880069,30U,4.164109,1.380458,-0.041233,-0.029939,0.00954,0.338794,8
1403715849138811,1,INS_SOLUTION_GOOD,51.761859,-1.260352,111.915373,5735983.79649,620056.174067,-111.915373,30U,3.599233,2.190265,-0.109269,-0.013716,0.015391,0.566351,8
1403715851263850,1,INS_SOLUTION_GOOD,51.761901,-1.260236,112.030986,5735988.61426,620064.076001,-112.030986,30U,0.571717,4.936755,-0.009753,-0.029083,0.010365,1.454008,9
1403715851701356,1,INS_SOLUTION_GOOD,51.761902,-1.260203,112.056433,5735988.77685,620066.301756,-112.056433,30U,-0.02855,5.174844,-0.110853,-0.031598,0.006047,1.567165,9
1403715852138865,1,INS_SOLUTION_GOOD,51.761901,-1.26017,112.160967,5735988.75438,620068.610639,-112.160967,30U,-0.451565,5.345518,-0.089303,-0.02142,0.004506,1.649703,9
1403715852513872,1,INS_SOLUTION_GOOD,51.761899,-1.26014,112.186006,5735988.55067,620070.663611,-112.186006,30U,-0.875305,5.427406,-0.020865,-0.018314,0.001161,1.724591,9
1403715852951383,1,INS_SOLUTION_GOOD,51.761894,-1.260106,112.207769,5735988.09084,620073.034852,-112.207769,30U,-1.485824,5.383584,-0.054942,-0.007842,0.003669,1.83947,9
1403715854638923,1,INS_SOLUTION_GOOD,51.761855,-1.259982,112.242988,5735983.91372,620081.673997,-112.242988,30U,-3.716579,4.721073,0.114561,-0.007029,-0.030516,2.245404,10
1403715855013932,1,INS_SOLUTION_GOOD,51.761841,-1.259958,112.158277,5735982.39566,620083.375887,-112.158277,30U,-4.337424,4.30545,0.162404,-0.006838,-0.028327,2.365523,10
1403715855388941,1,INS_SOLUTION_GOOD,51.761826,-1.259937,112.107457,5735980.7689,620084.886974,-112.107457,30U,-4.874148,3.880199,0.12908,-0.008073,-0.036788,2.474973,10
1403715855701446,1,INS_SOLUTION_GOOD,51.761811,-1.25992,112.048217,5735979.16985,620086.104231,-112.048217,30U,-5.298314,3.476481,0.240107,-0.014882,-0.029892,2.566611,10
1403715856013953,1,INS_SOLUTION_GOOD,51.761795,-1.259905,112.026026,5735977.4465,620087.167167,-112.026026,30U,-5.650857,3.083571,0.092649,-0.021592,-0.02238,2.64675,10
1403715856888962,1,INS_SOLUTION_GOOD,51.761749,-1.259872,111.927597,5735972.29482,620089.591889,-111.927597,30U,-6.411713,2.390314,0.075713,-0.013786,-0.017145,2.781754,11
1403715857201466,1,INS_SOLUTION_GOOD,51.76173,-1.259862,111.965962,5735970.23778,620090.352013,-111.965962,30U,-6.630703,2.311917,0.10301,-0.013153,-0.008979,2.802989,11
1403715857513970,1,INS_SOLUTION_GOOD,51.761711,-1.259851,111.945918,5735968.10459,620091.13819,-111.945918,30U,-6.815487,2.287467,0.018006,-0.020182,-0.000184,2.816358,11
1403715857826478,1,INS_SOLUTION_GOOD,51.761692,-1.259841,111.948977,5735966.05172,620091.868043,-111.948977,30U,-6.984967,2.255284,-0.024709,-0.017438,-0.003053,2.824964,11
1403715858138986,1,INS_SOLUTION_GOOD,51.761672,-1.259831,112.043672,5735963.83161,620092.61176,-112.043672,30U,-7.132255,2.302338,0.014989,-0.01164,-0.006201,2.82522,11
1403715859389003,1,INS_SOLUTION_GOOD,51.76159,-1.259788,112.025175,5735954.76284,620095.807728,-112.025175,30U,-7.571099,2.520507,0.000367,-0.01514,-0.006841,2.816493,12
1403715859639008,1,INS_SOLUTION_GOOD,51.761572,-1.259778,112.017224,5735952.80044,620096.514573,-112.017224,30U,-7.653782,2.551523,0.044616,-0.012243,-0.006867,2.813452,12
1403715859951512,1,INS_SOLUTION_GOOD,51.76155,-1.259767,112.126868,5735950.39786,620097.375125,-112.126868,30U,-7.744732,2.600128,0.034665,-0.00791,-0.006935,2.811946,12
1403715860264020,1,INS_SOLUTION_GOOD,51.761529,-1.259755,112.11966,5735948.08174,620098.217251,-112.11966,30U,-7.828627,2.644195,0.032725,-0.007651,-0.004101,2.808618,12
1403715860514026,1,INS_SOLUTION_GOOD,51.761511,-1.259745,112.117227,5735946.05685,620098.963012,-112.117227,30U,-7.886596,2.706445,-0.001589,-0.008569,-0.002801,2.805897,12
1403715861701554,1,INS_SOLUTION_GOOD,51.761426,-1.259697,112.170018,5735936.70647,620102.528079,-112.170018,30U,-8.094612,3.01899,-0.015335,0.001275,-0.003476,2.776198,13
1403715861951561,1,INS_SOLUTION_GOOD,51.761407,-1.259685,112.174801,5735934.62051,620103.372105,-112.174801,30U,-8.107514,3.087121,-0.006756,0.00066,-0.006145,2.769639,13
1403715862201567,1,INS_SOLUTION_GOOD,51.76139,-1.259674,112.172471,5735932.69445,620104.165846,-112.172471,30U,-8.092912,3.132517,0.003824,-0.002054,-0.003131,2.76623,13
1403715862451572,1,INS_SOLUTION_GOOD,51.761371,-1.259663,112.178541,5735930.61691,620105.027417,-112.178541,30U,-8.033144,3.119732,-0.045896,-0.00082,-0.003061,2.762077,13
1403715862701579,1,INS_SOLUTION_GOOD,51.761354,-1.259652,112.187288,5735928.71863,620105.82388,-112.187288,30U,-7.950928,3.143178,-0.022503,-0.00055,-0.003602,2.756919,13
1403715863889095,1,INS_SOLUTION_GOOD,51.761271,-1.259597,112.424893,5735919.60786,620109.856362,-112.424893,30U,-7.834057,3.282758,0.025931,-0.000424,-0.006346,2.733777,14
1403715864139096,1,INS_SOLUTION_GOOD,51.761253,-1.259584,112.429346,5735917.59648,620110.753229,-112.429346,30U,-7.810915,3.323398,-0.032324,0.001773,-0.002161,2.728092,14
1403715864389102,1,INS_SOLUTION_GOOD,51.761234,-1.259572,112.441535,5735915.59107,620111.67205,-112.441535,30U,-7.783167,3.377607,-0.052404,0.002266,-0.004086,2.72134,14
1403715864639103,1,INS_SOLUTION_GOOD,51.761218,-1.25956,112.451011,5735913.74559,620112.531471,-112.451011,30U,-7.76081,3.426424,-0.013254,0.001687,-0.004812,2.714242,14
1403715864889106,1,INS_SOLUTION_GOOD,51.761201,-1.259548,112.45457,5735911.9071,620113.403914,-112.45457,30U,-7.736401,3.475273,-0.028685,0.001854,-0.002537,2.707347,14
1403715866014127,1,INS_SOLUTION_GOOD,51.761122,-1.259488,112.492834,5735903.25835,620117.731205,-112.492834,30U,-7.612242,3.686638,-0.034053,0.007973,-0.005048,2.677187,15
1403715866264133,1,INS_SOLUTION_GOOD,51.761106,-1.259475,112.496914,5735901.45611,620118.663824,-112.496914,30U,-7.587592,3.728071,-0.019039,0.007976,-0.002118,2.671236,15
1403715866514140,1,INS_SOLUTION_GOOD,51.761088,-1.259461,112.508103,5735899.51148,620119.685875,-112.508103,30U,-7.560952,3.763711,-0.06472,0.007041,-0.002065,2.66494,15
1403715866764145,1,INS_SOLUTION_GOOD,51.761072,-1.259448,112.520888,5735897.72354,620120.639214,-112.520888,30U,-7.532045,3.809116,-0.047539,0.005307,-0.0021,2.659878,15
1403715867014151,1,INS_SOLUTION_GOOD,51.761054,-1.259433,112.528036,5735895.78924,620121.697753,-112.528036,30U,-7.508565,3.843398,-0.049165,0.005527,-0.004385,2.654033,15
1403715868014174,1,INS_SOLUTION_GOOD,51.760987,-1.259376,112.562557,5735888.44827,620125.844161,-112.562557,30U,-7.337833,4.141993,-0.043897,0.00376,-0.00516,2.609864,16
1403715868264180,1,INS_SOLUTION_GOOD,51.760972,-1.259361,112.568255,5735886.71977,620126.891854,-112.568255,30U,-7.281473,4.222474,-0.020089,0.000782,-0.004063,2.600498,16
1403715868514186,1,INS_SOLUTION_GOOD,51.760955,-1.259345,112.574276,5735884.85741,620128.041411,-112.574276,30U,-7.241962,4.279014,-0.056967,-0.001027,-0.000834,2.591516,16
1403715868764196,1,INS_SOLUTION_GOOD,51.760939,-1.25933,112.589998,5735883.14903,620129.11583,-112.589998,30U,-7.206283,4.329201,-0.071382,-0.002512,-0.001319,2.58409,16
1403715869014198,1,INS_SOLUTION_GOOD,51.760922,-1.259313,112.598603,5735881.30027,620130.32265,-112.598603,30U,-7.170356,4.381775,-0.043414,-0.004636,-0.00422,2.577428,16
1403715870201711,1,INS_SOLUTION_GOOD,51.760847,-1.259236,112.619015,5735873.03971,620135.87896,-112.619015,30U,-7.006186,4.634822,-0.023185,0.006141,-0.00513,2.536523,17
1403715870451718,1,INS_SOLUTION_GOOD,51.76083,-1.259218,112.625272,5735871.25606,620137.137466,-112.625272,30U,-6.960783,4.700031,-0.019574,0.007498,-0.004465,2.52781,17
1403715870701720,1,INS_SOLUTION_GOOD,51.760815,-1.259202,112.632067,5735869.61963,620138.312778,-112.632067,30U,-6.915829,4.761297,-0.028753,0.002344,-0.003796,2.520776,17
1403715870951721,1,INS_SOLUTION_GOOD,51.760799,-1.259183,112.635501,5735867.84745,620139.622936,-112.635501,30U,-6.884049,4.805371,-0.035263,-0.003228,-0.004815,2.516636,17
1403715871201727,1,INS_SOLUTION_GOOD,51.760784,-1.259167,112.641857,5735866.22331,620140.814321,-112.641857,30U,-6.883736,4.80549,-0.020273,-0.004357,-0.003629,2.514501,17
1403715872389249,1,INS_SOLUTION_GOOD,51.760712,-1.259084,112.686881,5735858.28494,620146.741078,-112.686881,30U,-6.770178,4.91343,-0.080382,0.001642,-0.000268,2.493915,18
1403715872639252,1,INS_SOLUTION_GOOD,51.760696,-1.259065,112.706102,5735856.55977,620148.063031,-112.706102,30U,-6.737773,4.944545,-0.036999,0.003231,-0.003607,2.488884,18
1403715872889259,1,INS_SOLUTION_GOOD,51.760681,-1.259048,112.713287,5735854.97444,620149.290573,-112.713287,30U,-6.724826,4.962589,-0.03313,0.002798,-0.002515,2.484693,18
1403715873139264,1,INS_SOLUTION_GOOD,51.760666,-1.259029,112.721638,5735853.25169,620150.653002,-112.721638,30U,-6.693034,5.010426,-0.029733,-0.003287,-0.007039,2.481622,18
1403715873389268,1,INS_SOLUTION_GOOD,51.76065,-1.25901,112.722487,5735851.53927,620151.99599,-112.722487,30U,-6.702361,5.032696,0.004836,-0.004926,-0.004332,2.478949,18
1403715874576791,1,INS_SOLUTION_GOOD,51.760579,-1.258923,112.762455,5735843.75623,620158.173653,-112.762455,30U,-6.735984,5.106614,0.037052,-0.013453,-0.011168,2.47311,19
1403715874826799,1,INS_SOLUTION_GOOD,51.760564,-1.258905,112.749713,5735842.16688,620159.438169,-112.749713,30U,-6.737766,5.123022,0.027039,-0.01377,-0.004752,2.472633,19
1403715875076803,1,INS_SOLUTION_GOOD,51.760548,-1.258886,112.756417,5735840.44143,620160.813098,-112.756417,30U,-6.762111,5.130575,-0.012915,-0.013904,-0.004943,2.472649,19
1403715875326809,1,INS_SOLUTION_GOOD,51.760534,-1.258868,112.758823,5735838.845,620162.078889,-112.758823,30U,-6.784678,5.115058,-0.035093,-0.002204,0.002171,2.472228,19
1403715875576818,1,INS_SOLUTION_GOOD,51.760518,-1.258849,112.781435,5735837.11515,620163.451646,-112.781435,30U,-6.800575,5.101146,-0.113687,0.005105,-0.005455,2.472626,19
1403715876701843,1,INS_SOLUTION_GOOD,51.76045,-1.258766,112.822547,5735829.65582,620169.373662,-112.822547,30U,-6.776853,5.117134,-0.022579,-0.004952,-0.011461,2.47203,20
1403715876951849,1,INS_SOLUTION_GOOD,51.760434,-1.258746,112.813854,5735827.92183,620170.759228,-112.813854,30U,-6.760357,5.092787,0.058741,-0.001097,-0.010125,2.470301,20
1403715877201855,1,INS_SOLUTION_GOOD,51.760419,-1.258729,112.805279,5735826.33793,620172.018581,-112.805279,30U,-6.687985,5.082799,-0.025809,0.000879,-0.00456,2.466365,20
1403715877451861,1,INS_SOLUTION_GOOD,51.760404,-1.258709,112.815643,5735824.64262,620173.37892,-112.815643,30U,-6.604413,5.063209,-0.0346,-0.000482,-0.005981,2.462813,20
1403715877764369,1,INS_SOLUTION_GOOD,51.760386,-1.258687,112.822914,5735822.70812,620174.941483,-112.822914,30U,-6.551067,5.033469,-0.071526,-0.001368,-0.007995,2.45826,20
1403715879014397,1,INS_SOLUTION_GOOD,51.760313,-1.258594,112.822651,5735814.70363,620181.61102,-112.822651,30U,-6.361495,5.00463,0.013145,0.000125,-0.007215,2.446708,21
1403715879389401,1,INS_SOLUTION_GOOD,51.760291,-1.258566,112.825563,5735812.34547,620183.567477,-112.825563,30U,-6.298293,4.985646,-0.037643,-0.005264,-0.000507,2.444875,21
1403715879701908,1,INS_SOLUTION_GOOD,51.760274,-1.258544,112.844504,5735810.50003,620185.103754,-112.844504,30U,-6.240961,4.973645,-0.072738,-0.004539,-0.003978,2.441164,21
1403715879951912,1,INS_SOLUTION_GOOD,51.76026,-1.258525,113.154672,5735809.00233,620186.501433,-113.154672,30U,-6.204997,4.974559,-0.022353,-0.003141,-0.004087,2.437074,21
1403715880264418,1,INS_SOLUTION_GOOD,51.760244,-1.258503,113.168099,5735807.18432,620188.039818,-113.168099,30U,-6.162572,4.993202,-0.036168,-0.001373,-0.007116,2.432756,21
1403715881514443,1,INS_SOLUTION_GOOD,51.760174,-1.258412,113.133974,5735799.62112,620194.503449,-113.133974,30U,-6.065703,5.01012,-0.006454,-0.003099,-0.009968,2.420497,22
1403715881826949,1,INS_SOLUTION_GOOD,51.760158,-1.25839,113.132474,5735797.84287,620196.052906,-113.132474,30U,-6.033322,5.040712,-0.00169,-0.003345,-0.008941,2.415504,22
1403715882076953,1,INS_SOLUTION_GOOD,51.760144,-1.258371,113.133233,5735796.31074,620197.401699,-113.133233,30U,-5.998092,5.055347,0.002942,-0.003592,-0.007108,2.410656,22
1403715882389459,1,INS_SOLUTION_GOOD,51.760127,-1.258348,113.138415,5735794.43736,620199.067843,-113.138415,30U,-5.949581,5.077994,-0.041941,-0.003476,-0.006842,2.403465,22
1403715882701965,1,INS_SOLUTION_GOOD,51.760111,-1.258326,113.14817,5735792.69824,620200.634389,-113.14817,30U,-5.880928,5.081775,-0.015589,-0.00109,-0.010534,2.396649,22
1403715884014490,1,INS_SOLUTION_GOOD,51.760043,-1.258228,113.173984,5735785.32959,620207.542091,-113.173984,30U,-5.54576,5.197982,-0.071699,0.008494,-0.001156,2.351717,23
1403715884326988,1,INS_SOLUTION_GOOD,51.760028,-1.258205,113.193884,5735783.71553,620209.150124,-113.193884,30U,-5.460063,5.273075,-0.050116,0.007647,-0.002175,2.336355,23
1403715884639490,1,INS_SOLUTION_GOOD,51.760013,-1.258181,113.20994,5735782.02398,620210.891409,-113.20994,30U,-5.367011,5.360303,-0.068151,0.008003,0.002354,2.320655,23
1403715884951993,1,INS_SOLUTION_GOOD,51.759997,-1.258156,113.239794,5735780.35836,620212.656174,-113.239794,30U,-5.330576,5.398044,-0.06455,0.011984,-0.008412,2.307643,23
1403715885264500,1,INS_SOLUTION_GOOD,51.759983,-1.258132,113.239378,5735778.81248,620214.328316,-113.239378,30U,-5.28445,5.45678,-0.044627,0.017191,-0.002068,2.297628,23
1403715886514514,1,INS_SOLUTION_GOOD,51.759924,-1.25803,113.310547,5735772.44982,620221.538007,-113.310547,30U,-5.151159,5.701947,-0.064639,0.015777,-0.001758,2.266782,24
1403715886827021,1,INS_SOLUTION_GOOD,51.75991,-1.258005,113.325763,5735770.95087,620223.292653,-113.325763,30U,-5.115836,5.760309,-0.049188,0.014737,-0.002331,2.259006,24
1403715887077026,1,INS_SOLUTION_GOOD,51.759898,-1.257983,113.337809,5735769.65916,620224.826087,-113.337809,30U,-5.095192,5.804266,-0.040051,0.014955,-0.002043,2.252402,24
1403715887389539,1,INS_SOLUTION_GOOD,51.759884,-1.257956,113.353734,5735768.07988,620226.730073,-113.353734,30U,-5.05017,5.866327,-0.055914,0.013348,-0.001851,2.242156,24
1403715887702036,1,INS_SOLUTION_GOOD,51.75987,-1.257931,113.370353,5735766.61351,620228.534832,-113.370353,30U,-5.009556,5.931903,-0.041862,0.010993,-0.004952,2.233695,24
1403715888952060,1,INS_SOLUTION_GOOD,51.759814,-1.257821,113.403792,5735760.50651,620236.263917,-113.403792,30U,-4.993428,6.035258,-0.070207,0.005875,-0.002773,2.223451,25
1403715889264568,1,INS_SOLUTION_GOOD,51.7598,-1.257795,113.42046,5735759.05514,620238.095529,-113.42046,30U,-4.980005,5.938321,-0.01706,0.010299,-0.001614,2.226736,25
1403715889514571,1,INS_SOLUTION_GOOD,51.759789,-1.257773,113.436795,5735757.80649,620239.661223,-113.436795,30U,-4.971486,5.836588,-0.128512,0.008902,-0.003188,2.231327,25
1403715889827078,1,INS_SOLUTION_GOOD,51.759775,-1.257747,113.457258,5735756.36801,620241.436599,-113.457258,30U,-4.925631,5.756569,-0.00941,0.008812,-0.004657,2.237193,25
1403715890139586,1,INS_SOLUTION_GOOD,51.759761,-1.257721,113.469986,5735754.84207,620243.30017,-113.469986,30U,-4.903557,5.65951,-0.065953,0.000169,-0.009175,2.244207,25
1403715891452118,1,INS_SOLUTION_GOOD,51.759705,-1.257614,114.434486,5735748.75107,620250.859876,-114.434486,30U,-4.894999,5.179295,-0.076538,0.010415,-0.008331,2.2877,26
1403715891764626,1,INS_SOLUTION_GOOD,51.759692,-1.257591,114.452323,5735747.31267,620252.423758,-114.452323,30U,-4.932955,5.033603,-0.042409,0.012758,-0.008318,2.301528,26
1403715892014632,1,INS_SOLUTION_GOOD,51.759681,-1.25757,114.961573,5735746.17768,620253.898292,-114.961573,30U,-4.951796,4.935614,-0.091074,0.011553,-0.011996,2.314307,26
1403715892327140,1,INS_SOLUTION_GOOD,51.759668,-1.257549,114.979841,5735744.72586,620255.399109,-114.979841,30U,-4.978579,4.817663,-0.019893,0.0031,-0.013694,2.327113,26
1403715892639650,1,INS_SOLUTION_GOOD,51.759654,-1.257527,114.989704,5735743.16828,620256.962734,-114.989704,30U,-4.98704,4.724814,-0.039727,0.001443,-0.011512,2.341063,26
1403715893952180,1,INS_SOLUTION_GOOD,51.759593,-1.257423,115.863804,5735736.59209,620264.305168,-115.863804,30U,-5.08877,4.194212,-0.184922,-0.010785,-0.003984,2.415307,27
1403715894327185,1,INS_SOLUTION_GOOD,51.759576,-1.257402,115.916681,5735734.78135,620265.816639,-115.916681,30U,-5.163545,3.963384,-0.12432,-0.006849,-0.003016,2.448118,27
1403715894639689,1,INS_SOLUTION_GOOD,51.759561,-1.257384,115.963934,5735733.15244,620267.091275,-115.963934,30U,-5.211713,3.753222,-0.15862,-0.007935,-0.006171,2.478533,27
1403715895014689,1,INS_SOLUTION_GOOD,51.759543,-1.257364,116.053272,5735731.20406,620268.52808,-116.053272,30U,-5.264553,3.504058,-0.14214,-0.003707,-0.003619,2.513486,27
1403715895452194,1,INS_SOLUTION_GOOD,51.759523,-1.257342,116.11782,5735728.91513,620270.064652,-116.11782,30U,-5.298336,3.236964,-0.133622,-3e-05,-0.001548,2.553531,27
1403715897077214,1,INS_SOLUTION_GOOD,51.759445,-1.257279,116.369798,5735720.36645,620274.621214,-116.369798,30U,-5.357574,2.149095,-0.166835,-0.012656,-0.0025,2.716906,28
1403715897452222,1,INS_SOLUTION_GOOD,51.759427,-1.257268,116.428099,5735718.35362,620275.442466,-116.428099,30U,-5.324017,1.941917,-0.147602,-0.010737,-0.001173,2.745495,28
1403715897827232,1,INS_SOLUTION_GOOD,51.759409,-1.257258,116.487607,5735716.46346,620276.158663,-116.487607,30U,-5.27239,1.780784,-0.172291,-0.006818,-0.000641,2.767089,28
1403715898202238,1,INS_SOLUTION_GOOD,51.759392,-1.257249,116.550082,5735714.49013,620276.85413,-116.550082,30U,-5.198737,1.629302,-0.190397,0.000758,-0.001051,2.787131,28
1403715898577244,1,INS_SOLUTION_GOOD,51.759374,-1.25724,116.615133,5735712.54145,620277.49653,-116.615133,30U,-5.127842,1.507639,-0.196141,0.003695,-0.009088,2.804438,28
1403715900514790,1,INS_SOLUTION_GOOD,51.759289,-1.257204,116.895411,5735703.21731,620280.194316,-116.895411,30U,-4.554776,1.130867,-0.139729,0.005082,-0.007748,2.832303,29
1403715900952302,1,INS_SOLUTION_GOOD,51.759272,-1.257197,116.958024,5735701.26077,620280.730569,-116.958024,30U,-4.391794,1.07234,-0.138667,0.004023,-0.008683,2.83263,29
1403715901452314,1,INS_SOLUTION_GOOD,51.759253,-1.25719,117.027844,5735699.14249,620281.297342,-117.027844,30U,-4.117523,0.973109,-0.152695,0.006101,-0.011145,2.832482,29
1403715901952326,1,INS_SOLUTION_GOOD,51.759235,-1.257183,117.092711,5735697.15935,620281.815105,-117.092711,30U,-3.887517,0.880929,-0.129641,0.002349,-0.007625,2.834706,29
1403715902514839,1,INS_SOLUTION_GOOD,51.759216,-1.257176,117.170453,5735695.05828,620282.342868,-117.170453,30U,-3.668961,0.812193,-0.142655,0.000431,-0.003386,2.83719,29
1403715905139891,1,INS_SOLUTION_GOOD,51.759131,-1.257147,117.592734,5735685.64046,620284.556311,-117.592734,30U,-3.619702,0.718724,-0.142628,-0.006651,-0.001072,2.849714,30
1403715905702398,1,INS_SOLUTION_GOOD,51.759112,-1.257142,117.681919,5735683.62732,620285.006226,-117.681919,30U,-3.598914,0.711846,-0.207349,-0.004679,0.000283,2.848822,30
1403715906327411,1,INS_SOLUTION_GOOD,51.759093,-1.257135,117.798207,5735681.44229,620285.489527,-117.798207,30U,-3.485077,0.679601,-0.126839,-0.002244,-0.006076,2.847539,30
1403715906952421,1,INS_SOLUTION_GOOD,51.759073,-1.257129,117.896089,5735679.25429,620285.964821,-117.896089,30U,-3.383552,0.632269,-0.168659,-0.004653,-0.003725,2.848464,30
1403715907577433,1,INS_SOLUTION_GOOD,51.759054,-1.257124,117.996336,5735677.19922,620286.396543,-117.996336,30U,-3.282456,0.590705,-0.181589,-0.005316,-0.001983,2.849093,30
1403715911889994,1,INS_SOLUTION_GOOD,51.758926,-1.257089,118.725416,5735663.00657,620289.158651,-118.725416,30U,-3.199695,0.492967,-0.165862,-0.003989,-0.008744,2.859953,31
1403715912577510,1,INS_SOLUTION_GOOD,51.758907,-1.257084,118.833653,5735660.86477,620289.53265,-118.833653,30U,-3.125974,0.465626,-0.157383,-0.005905,-0.009757,2.860235,31
1403715913265026,1,INS_SOLUTION_GOOD,51.758888,-1.257079,118.93948,5735658.77208,620289.889456,-118.93948,30U,-3.053721,0.437802,-0.145233,-0.011992,-0.008749,2.858713,31
1403715913952541,1,INS_SOLUTION_GOOD,51.758869,-1.257075,119.049514,5735656.64766,620290.250129,-119.049514,30U,-3.054736,0.415141,-0.172034,-0.028082,-0.010854,2.857359,31
1403715914640059,1,INS_SOLUTION_GOOD,51.75885,-1.257071,119.156843,5735654.60123,620290.58256,-119.156843,30U,-2.97569,0.424199,-0.122203,-0.026696,-0.001907,2.860316,31
1403715920890186,1,INS_SOLUTION_GOOD,51.758746,-1.257047,116.776194,5735643.0672,620292.480846,-116.776194,30U,-0.532887,-0.343583,-0.095309,-0.01108,-0.000745,2.871332,32
1403715922765222,1,INS_SOLUTION_GOOD,51.758733,-1.257051,116.40143,5735641.54573,620292.263722,-116.40143,30U,-0.560208,-0.349376,-0.08484,-0.011026,-0.000769,2.871472,32
1403715924515254,1,INS_SOLUTION_GOOD,51.758719,-1.257053,115.900846,5735639.98636,620292.159782,-115.900846,30U,-0.590332,-0.347072,-0.068556,-0.011133,-0.000815,2.871618,32
1403715924952767,1,INS_SOLUTION_GOOD,51.758918,-1.256922,110.607726,5735662.34293,620300.661369,-110.607726,30U,-0.009449,-0.023977,0.003293,-0.011858,-0.000295,2.872879,32
1403715938953028,1,INS_SOLUTION_GOOD,51.758911,-1.256923,111.350715,5735661.64517,620300.611068,-111.350715,30U,-0.003594,-0.014755,-0.010915,-0.011804,-0.000318,2.872644,32
1403715947765694,1,INS_SOLUTION_GOOD,51.758829,-1.256897,111.868189,5735652.52577,620302.610202,-111.868189,30U,-1.750973,0.441862,-0.020922,-0.008108,-0.001531,2.887424,33
1403715949265722,1,INS_SOLUTION_GOOD,51.758811,-1.25689,111.889079,5735650.55829,620303.135751,-111.889079,30U,-0.949173,0.205953,-0.016544,-0.005532,-0.002011,2.891553,33
1403715952140762,1,INS_SOLUTION_GOOD,51.758794,-1.256885,111.91487,5735648.60633,620303.589392,-111.91487,30U,-1.18212,0.270491,-0.012121,0.001979,0.00117,2.892048,33
1403715953328291,1,INS_SOLUTION_GOOD,51.758775,-1.256877,111.927948,5735646.56558,620304.126775,-111.927948,30U,-2.243441,0.543954,-0.002173,0.006466,-0.001307,2.888998,33
1403715954140801,1,INS_SOLUTION_GOOD,51.758756,-1.25687,111.929262,5735644.49084,620304.699288,-111.929262,30U,-2.839598,0.730021,-0.007524,0.008556,0.000223,2.881178,33
1403715956703354,1,INS_SOLUTION_GOOD,51.758673,-1.256834,111.929461,5735635.25924,620307.404057,-111.929461,30U,-4.283613,1.211293,0.016927,-0.006155,-0.007221,2.862835,34
1403715957140865,1,INS_SOLUTION_GOOD,51.758656,-1.256826,111.916514,5735633.34757,620307.997671,-111.916514,30U,-4.463241,1.259238,0.032481,-0.011767,-0.001689,2.858799,34
1403715957578373,1,INS_SOLUTION_GOOD,51.758638,-1.256818,111.901225,5735631.36633,620308.622848,-111.901225,30U,-4.599721,1.342562,-0.02822,-0.017739,0.005406,2.85706,34
1403715958015883,1,INS_SOLUTION_GOOD,51.758619,-1.256809,111.924364,5735629.33,620309.261288,-111.924364,30U,-4.714694,1.380138,0.060443,-0.007418,0.000902,2.853672,34
1403715958453393,1,INS_SOLUTION_GOOD,51.7586,-1.2568,111.919522,5735627.24701,620309.926186,-111.919522,30U,-4.823325,1.415992,-0.03883,-0.006135,0.00619,2.848664,34
1403715960328432,1,INS_SOLUTION_GOOD,51.758516,-1.256759,111.964493,5735617.96699,620313.021647,-111.964493,30U,-5.268113,1.644742,-0.041905,0.002149,-0.003993,2.834879,35
1403715960703440,1,INS_SOLUTION_GOOD,51.758498,-1.256749,111.953419,5735615.95898,620313.699739,-111.953419,30U,-5.373772,1.683058,0.027325,0.002378,-0.001649,2.834317,35
1403715961140947,1,INS_SOLUTION_GOOD,51.758477,-1.256739,111.949241,5735613.58581,620314.504708,-111.949241,30U,-5.497289,1.72206,0.008255,-0.000609,-0.004435,2.833833,35
1403715961515952,1,INS_SOLUTION_GOOD,51.758458,-1.256729,111.94154,5735611.49364,620315.213608,-111.94154,30U,-5.604867,1.754118,0.060417,-0.003289,-0.004698,2.83376,35
1403715961890954,1,INS_SOLUTION_GOOD,51.758438,-1.256719,111.929699,5735609.36146,620315.938448,-111.929699,30U,-5.70536,1.801637,0.028817,-0.012159,-0.006731,2.833057,35
1403715965516025,1,INS_SOLUTION_GOOD,51.758251,-1.256621,111.87231,5735588.73386,620323.248113,-111.87231,30U,-5.877303,2.001467,0.046052,0.003894,0.000771,2.807848,36
1403715965891028,1,INS_SOLUTION_GOOD,51.758231,-1.256609,111.869094,5735586.49517,620324.074664,-111.869094,30U,-6.006479,2.072055,-0.00115,0.00372,0.001562,2.801916,36
1403715966266032,1,INS_SOLUTION_GOOD,51.758211,-1.256598,111.86885,5735584.33171,620324.887334,-111.86885,30U,-6.11886,2.139124,0.001759,0.004216,0.001032,2.796305,36
1403715966578535,1,INS_SOLUTION_GOOD,51.758194,-1.256588,111.866563,5735582.38036,620325.631751,-111.866563,30U,-6.193553,2.192315,-0.005517,0.004368,-0.000647,2.794758,36
1403715966891039,1,INS_SOLUTION_GOOD,51.758176,-1.256578,111.865744,5735580.40304,620326.383211,-111.865744,30U,-6.276246,2.211295,0.021237,0.005274,-0.006811,2.796386,36
1403715968391062,1,INS_SOLUTION_GOOD,51.758092,-1.25653,111.802335,5735571.10824,620329.89788,-111.802335,30U,-6.177808,2.173162,0.029518,-0.006795,-0.00499,2.796852,37
1403715968766071,1,INS_SOLUTION_GOOD,51.758072,-1.256519,111.791623,5735568.9057,620330.732826,-111.791623,30U,-6.173686,2.175559,0.04425,-0.012412,-0.005121,2.796745,37
1403715969078578,1,INS_SOLUTION_GOOD,51.758054,-1.256509,111.779658,5735566.94684,620331.474803,-111.779658,30U,-6.175336,2.184595,0.044752,-0.017591,-0.005015,2.796393,37
1403715969391086,1,INS_SOLUTION_GOOD,51.758036,-1.256499,111.765759,5735564.98592,620332.219108,-111.765759,30U,-6.188747,2.190523,0.048556,-0.021665,0.00041,2.7958,37
1403715969766097,1,INS_SOLUTION_GOOD,51.758016,-1.256487,111.761363,5735562.76906,620333.059991,-111.761363,30U,-6.243619,2.198069,-0.02164,-0.015507,-0.002778,2.793838,37
1403715971141119,1,INS_SOLUTION_GOOD,51.757934,-1.25644,111.731156,5735553.74078,620336.543314,-111.731156,30U,-7.035695,2.553809,-0.029591,-0.001768,0.006317,2.784521,38
1403715971453622,1,INS_SOLUTION_GOOD,51.757914,-1.256428,111.741208,5735551.49331,620337.425604,-111.741208,30U,-7.104013,2.60633,-0.036193,-0.000221,-0.000535,2.781971,38
1403715971766126,1,INS_SOLUTION_GOOD,51.757895,-1.256417,111.741421,5735549.39031,620338.258797,-111.741421,30U,-7.039178,2.604128,0.040245,-0.004107,-0.007366,2.778776,38
1403715972078633,1,INS_SOLUTION_GOOD,51.757874,-1.256405,111.721986,5735547.17344,620339.14595,-111.721986,30U,-6.945128,2.604394,0.049541,-0.009187,-0.00553,2.776696,38
1403715972391140,1,INS_SOLUTION_GOOD,51.757855,-1.256393,111.707059,5735544.98464,620340.024907,-111.707059,30U,-6.860345,2.562271,0.014034,-0.011425,-0.002356,2.775751,38
1403715973828668,1,INS_SOLUTION_GOOD,51.757771,-1.256343,111.672276,5735535.82154,620343.700334,-111.672276,30U,-6.026952,2.224903,0.04109,-0.008174,-0.007662,2.774756,39
1403715974141173,1,INS_SOLUTION_GOOD,51.757754,-1.256333,111.657544,5735533.95315,620344.442574,-111.657544,30U,-5.760173,2.127585,0.023261,-0.003521,-0.005444,2.773714,39
1403715974516180,1,INS_SOLUTION_GOOD,51.757735,-1.256321,111.648259,5735531.85419,620345.277057,-111.648259,30U,-5.380194,1.996118,0.017973,0.004404,-0.003003,2.767835,39
1403715974891189,1,INS_SOLUTION_GOOD,51.757718,-1.25631,111.645136,5735529.91334,620346.069299,-111.645136,30U,-4.911815,1.942841,-0.045854,0.013156,-0.006084,2.736953,39
1403715975328700,1,INS_SOLUTION_GOOD,51.757701,-1.256298,111.638123,5735528.00977,620346.959532,-111.638123,30U,-4.230873,2.114965,0.04124,0.017453,-0.007837,2.642294,39
1403715977641239,1,INS_SOLUTION_GOOD,51.757653,-1.256191,111.59232,5735522.90799,620354.505503,-111.59232,30U,-0.05814,4.537843,0.041915,0.002756,0.015773,1.550623,40
1403715978078748,1,INS_SOLUTION_GOOD,51.757655,-1.25616,111.590642,5735523.12269,620356.606682,-111.590642,30U,0.79773,5.019078,0.022048,0.002212,0.0045,1.398576,40
1403715978453754,1,INS_SOLUTION_GOOD,51.757658,-1.256132,111.578459,5735523.58224,620358.575364,-111.578459,30U,1.39777,5.391677,0.139955,-0.005153,-0.010598,1.307338,40
1403715978828762,1,INS_SOLUTION_GOOD,51.757664,-1.256103,111.528582,5735524.22015,620360.562084,-111.528582,30U,1.864914,5.727336,0.196611,-0.016947,-0.011694,1.255745,40
1403715979203768,1,INS_SOLUTION_GOOD,51.75767,-1.25607,111.47009,5735525.04008,620362.776054,-111.47009,30U,2.174196,5.995232,0.105798,-0.024314,-0.015018,1.225258,40
1403715980766302,1,INS_SOLUTION_GOOD,51.757705,-1.255926,111.210413,5735529.08863,620372.617081,-111.210413,30U,2.5624,6.523896,0.161254,-0.012981,-0.018725,1.200633,41
1403715981078809,1,INS_SOLUTION_GOOD,51.757712,-1.255896,111.156722,5735529.95539,620374.681533,-111.156722,30U,2.56815,6.526226,0.188751,-0.012667,-0.020126,1.200088,41
1403715981391312,1,INS_SOLUTION_GOOD,51.757719,-1.255866,111.096347,5735530.82837,620376.759577,-111.096347,30U,2.586486,6.586895,0.201565,-0.011243,-0.021933,1.199807,41
1403715981703816,1,INS_SOLUTION_GOOD,51.757726,-1.255837,111.03028,5735531.65509,620378.722304,-111.03028,30U,2.597401,6.631778,0.17836,-0.01332,-0.008065,1.199921,41
1403715982016322,1,INS_SOLUTION_GOOD,51.757734,-1.255806,110.99713,5735532.54007,620380.827474,-110.99713,30U,2.606271,6.662309,0.0752,-0.012814,-0.009391,1.200698,41
1403715983391348,1,INS_SOLUTION_GOOD,51.757766,-1.255672,110.835736,5735536.35138,620390.024019,-110.835736,30U,2.576445,6.811155,0.109363,-0.012499,-0.013765,1.212772,42
1403715983703852,1,INS_SOLUTION_GOOD,51.757773,-1.255642,110.792362,5735537.17283,620392.054678,-110.792362,30U,2.565021,6.858062,0.171748,-0.009461,-0.016024,1.217011,42
1403715983953860,1,INS_SOLUTION_GOOD,51.757779,-1.255612,110.978676,5735537.89804,620394.104486,-110.978676,30U,2.560419,6.915042,0.147575,-0.005939,-0.013978,1.219816,42
1403715984266365,1,INS_SOLUTION_GOOD,51.757786,-1.255582,110.937885,5735538.71412,620396.166001,-110.937885,30U,2.550738,6.957438,0.128629,-0.003837,-0.012389,1.222951,42
1403715984578870,1,INS_SOLUTION_GOOD,51.757793,-1.25555,110.89749,5735539.58402,620398.379938,-110.89749,30U,2.566598,7.004592,0.111514,-0.003186,-0.01008,1.22203,42
1403715985891401,1,INS_SOLUTION_GOOD,51.757825,-1.255414,110.769967,5735543.29616,620407.639321,-110.769967,30U,2.714175,7.097615,0.132134,0.001488,-0.011595,1.209909,43
1403715986203908,1,INS_SOLUTION_GOOD,51.757832,-1.255383,110.733182,5735544.16357,620409.749114,-110.733182,30U,2.72803,7.107977,0.110535,0.002844,-0.009975,1.208157,43
1403715986516416,1,INS_SOLUTION_GOOD,51.75784,-1.25535,110.700578,5735545.09174,620412.003222,-110.700578,30U,2.735203,7.119686,0.110457,0.007447,-0.012198,1.208268,43
1403715986766422,1,INS_SOLUTION_GOOD,51.757845,-1.255318,110.800728,5735545.74519,620414.248157,-110.800728,30U,2.756114,7.166994,0.133865,0.004303,-0.018411,1.208293,43
1403715986953926,1,INS_SOLUTION_GOOD,51.757849,-1.255282,110.799345,5735546.19013,620416.674855,-110.799345,30U,2.733279,7.258743,0.215039,0.014606,-0.010078,1.208155,43
1403715988141448,1,INS_SOLUTION_GOOD,51.757877,-1.255149,110.879292,5735549.58542,620425.832278,-110.879292,30U,2.698478,7.316,0.052608,0.00811,-0.008802,1.214199,44
1403715988391453,1,INS_SOLUTION_GOOD,51.757884,-1.255121,110.860548,5735550.33306,620427.716644,-110.860548,30U,2.7081,7.314534,0.076154,0.006666,-0.009055,1.214953,44
1403715988703964,1,INS_SOLUTION_GOOD,51.757891,-1.255089,110.836773,5735551.19483,620429.892304,-110.836773,30U,2.696145,7.323793,0.07935,0.006765,-0.010294,1.216455,44
1403715988953965,1,INS_SOLUTION_GOOD,51.757897,-1.255059,110.638707,5735551.92228,620431.96525,-110.638707,30U,2.680194,7.340973,0.098806,0.010156,-0.01143,1.217712,44
1403715989266467,1,INS_SOLUTION_GOOD,51.757904,-1.255027,110.60865,5735552.77644,620434.148203,-110.60865,30U,2.65452,7.356323,0.108296,0.016285,-0.00916,1.219595,44
1403715990391478,1,INS_SOLUTION_GOOD,51.757933,-1.254894,109.66076,5735556.22686,620443.22743,-109.66076,30U,2.695009,7.443838,0.160999,0.007235,-0.012576,1.220587,45
1403715990703987,1,INS_SOLUTION_GOOD,51.757941,-1.254862,109.617913,5735557.08698,620445.441241,-109.617913,30U,2.692894,7.448605,0.084071,0.003415,-0.007422,1.220179,45
1403715990953990,1,INS_SOLUTION_GOOD,51.757947,-1.254834,109.596243,5735557.83379,620447.35994,-109.596243,30U,2.694419,7.450328,0.098814,0.002867,-0.007988,1.220076,45
1403715991141495,1,INS_SOLUTION_GOOD,51.757954,-1.254808,109.110346,5735558.65239,620449.117065,-109.110346,30U,2.694875,7.462717,0.090788,0.002694,-0.005317,1.219877,45
1403715991391503,1,INS_SOLUTION_GOOD,51.75796,-1.25478,109.091481,5735559.39894,620451.039016,-109.091481,30U,2.689307,7.456634,0.044781,0.004043,-0.001201,1.219779,45
1403715992829027,1,INS_SOLUTION_GOOD,51.757996,-1.254626,108.854642,5735563.59896,620461.589805,-108.854642,30U,2.607497,7.38144,0.046012,0.017035,-0.00442,1.226277,46
1403715993079030,1,INS_SOLUTION_GOOD,51.758002,-1.254597,108.586109,5735564.33151,620463.549858,-108.586109,30U,2.590573,7.360687,0.056598,0.015727,-0.005463,1.228377,46
1403715993391538,1,INS_SOLUTION_GOOD,51.758009,-1.254563,108.566238,5735565.21035,620465.875425,-108.566238,30U,2.550338,7.296792,0.048917,0.008501,-0.00101,1.229834,46
1403715993704047,1,INS_SOLUTION_GOOD,51.758016,-1.254532,108.559054,5735566.02461,620468.03688,-108.559054,30U,2.499464,7.265198,-0.029942,0.008377,-0.002688,1.229577,46
1403715994016555,1,INS_SOLUTION_GOOD,51.758028,-1.254497,108.426025,5735567.4161,620470.368473,-108.426025,30U,2.533272,7.259832,0.108413,0.010112,-0.014992,1.224961,46
1403715995266582,1,INS_SOLUTION_GOOD,51.758059,-1.254368,108.164984,5735571.04113,620479.199512,-108.164984,30U,2.935308,7.078441,0.091711,-0.006275,-0.004591,1.172581,47
1403715995579092,1,INS_SOLUTION_GOOD,51.758067,-1.254336,108.150918,5735572.05389,620481.430373,-108.150918,30U,3.075637,7.002359,0.035667,-0.003967,-0.016742,1.153777,47
1403715995891593,1,INS_SOLUTION_GOOD,51.758076,-1.254303,108.103574,5735573.10698,620483.639483,-108.103574,30U,3.194739,6.94977,0.155473,-0.006366,-0.009608,1.134392,47
1403715996204099,1,INS_SOLUTION_GOOD,51.758085,-1.254273,108.074434,5735574.13454,620485.688658,-108.074434,30U,3.317367,6.88238,0.088038,-0.013821,-0.009005,1.117983,47
1403715996516608,1,INS_SOLUTION_GOOD,51.758095,-1.254241,108.044884,5735575.26401,620487.853678,-108.044884,30U,3.420886,6.813411,0.064989,-0.014794,-0.008226,1.101649,47
1403715997829139,1,INS_SOLUTION_GOOD,51.758136,-1.254116,108.003371,5735580.09658,620496.434264,-108.003371,30U,3.787695,6.593913,-0.012618,-0.005819,-0.002416,1.042504,48
1403715998079145,1,INS_SOLUTION_GOOD,51.758145,-1.25409,108.02744,5735581.04296,620498.187349,-108.02744,30U,3.871738,6.570817,0.076339,-0.001298,-0.013458,1.03399,48
1403715998391652,1,INS_SOLUTION_GOOD,51.758156,-1.254059,107.986663,5735582.34207,620500.257361,-107.986663,30U,3.918845,6.565546,0.053838,-0.002677,-0.002189,1.026414,48
1403715998704158,1,INS_SOLUTION_GOOD,51.758166,-1.254031,107.979578,5735583.57295,620502.195873,-107.979578,30U,3.989766,6.560431,0.034827,-0.003683,-0.005838,1.022966,48
1403715998954162,1,INS_SOLUTION_GOOD,51.758176,-1.254006,107.964514,5735584.65192,620503.891644,-107.964514,30U,4.050467,6.653236,0.068186,-0.005916,-0.008813,1.021183,48
1403716000141684,1,INS_SOLUTION_GOOD,51.758221,-1.253886,108.018004,5735589.89346,620512.031525,-108.018004,30U,4.214143,7.033271,0.110019,-0.003427,-0.01097,1.029472,49
1403716000391689,1,INS_SOLUTION_GOOD,51.758231,-1.25386,107.994567,5735591.02656,620513.831783,-107.994567,30U,4.152692,7.020263,0.068287,-0.003856,-0.008896,1.033559,49
1403716000704195,1,INS_SOLUTION_GOOD,51.758242,-1.253829,107.975732,5735592.3157,620515.898091,-107.975732,30U,4.120224,6.963225,0.051136,-0.006672,-0.010452,1.035988,49
1403716001016701,1,INS_SOLUTION_GOOD,51.758254,-1.253797,107.950377,5735593.68245,620518.092701,-107.950377,30U,4.10443,6.960936,0.094127,-0.012552,-0.009686,1.036733,49
1403716001329207,1,INS_SOLUTION_GOOD,51.758265,-1.253767,107.926308,5735594.96284,620520.151274,-107.926308,30U,4.107707,6.961351,0.056437,-0.017462,-0.009137,1.036797,49
1403716002516727,1,INS_SOLUTION_GOOD,51.758309,-1.253646,107.833519,5735600.01295,620528.409365,-107.833519,30U,4.053841,6.869068,0.077051,-0.018632,-0.011505,1.034657,50
1403716002829232,1,INS_SOLUTION_GOOD,51.758319,-1.253616,107.809327,5735601.27338,620530.428914,-107.809327,30U,4.02846,6.798859,0.100971,-0.01734,-0.013474,1.033264,50
1403716003079238,1,INS_SOLUTION_GOOD,51.758329,-1.25359,107.788548,5735602.33404,620532.186982,-107.788548,30U,3.999376,6.74779,0.085231,-0.015961,-0.011993,1.033126,50
1403716003391746,1,INS_SOLUTION_GOOD,51.75834,-1.253559,107.762528,5735603.65905,620534.306005,-107.762528,30U,3.965358,6.697107,0.108179,-0.013807,-0.016569,1.032667,50
1403716003704252,1,INS_SOLUTION_GOOD,51.758351,-1.25353,107.724601,5735604.89368,620536.279836,-107.724601,30U,3.944174,6.660794,0.123055,-0.012244,-0.016797,1.033442,50
1403716005266765,1,INS_SOLUTION_GOOD,51.758405,-1.253383,107.590558,5735611.15451,620546.273306,-107.590558,30U,3.795152,6.300589,0.039442,-0.00442,-0.00841,1.026583,51
1403716005579272,1,INS_SOLUTION_GOOD,51.758416,-1.253354,107.574065,5735612.40776,620548.248618,-107.574065,30U,3.752606,6.223954,0.05547,-0.007003,-0.007898,1.026511,51
1403716005891777,1,INS_SOLUTION_GOOD,51.758426,-1.253325,107.55797,5735613.645,620550.200973,-107.55797,30U,3.689411,6.161779,0.052967,-0.009626,-0.00754,1.028353,51
1403716006204279,1,INS_SOLUTION_GOOD,51.758436,-1.253299,107.543752,5735614.78697,620552.013362,-107.543752,30U,3.638388,6.101667,0.049536,-0.008676,-0.010434,1.030769,51
1403716006516783,1,INS_SOLUTION_GOOD,51.758447,-1.25327,107.525784,5735615.98728,620553.929105,-107.525784,30U,3.569885,6.055684,0.10472,-0.007431,-0.014717,1.032566,51
1403716007954312,1,INS_SOLUTION_GOOD,51.758489,-1.253147,107.442306,5735620.90026,620562.344814,-107.442306,30U,3.062715,5.344808,0.062348,-0.003301,-0.017044,1.040308,52
1403716008329320,1,INS_SOLUTION_GOOD,51.758499,-1.25312,107.415207,5735622.0208,620564.19134,-107.415207,30U,2.91041,5.059741,0.069545,-0.001031,-0.017879,1.040418,52
1403716008704329,1,INS_SOLUTION_GOOD,51.758508,-1.253093,107.390104,5735623.1307,620566.025345,-107.390104,30U,2.699777,4.714388,0.080803,0.0043,-0.022582,1.040213,52
1403716009141841,1,INS_SOLUTION_GOOD,51.758518,-1.253064,107.349259,5735624.30522,620567.969665,-107.349259,30U,2.41753,4.234244,0.076721,0.010459,-0.020985,1.041157,52
1403716009579352,1,INS_SOLUTION_GOOD,51.758527,-1.253039,107.31546,5735625.33824,620569.697445,-107.31546,30U,2.10263,3.726343,0.041073,0.012842,-0.017332,1.042256,52
1403716012141907,1,INS_SOLUTION_GOOD,51.758562,-1.252916,107.601124,5735629.44387,620578.099321,-107.601124,30U,0.101818,3.356303,-0.006808,0.004931,-0.005674,1.548472,53
1403716012766913,1,INS_SOLUTION_GOOD,51.75856,-1.252885,107.601747,5735629.22153,620580.202566,-107.601747,30U,-0.984871,3.385455,0.038897,0.019923,-0.025011,1.860967,53
1403716013329422,1,INS_SOLUTION_GOOD,51.758552,-1.252857,107.559943,5735628.39881,620582.162966,-107.559943,30U,-2.048434,3.193182,0.119153,0.01277,-0.038738,2.145562,53
1403716013891927,1,INS_SOLUTION_GOOD,51.758539,-1.252832,107.479429,5735627.03154,620583.91455,-107.479429,30U,-2.938234,2.941179,0.102274,0.002435,-0.043478,2.373716,53
1403716014391935,1,INS_SOLUTION_GOOD,51.758524,-1.252813,107.386434,5735625.39208,620585.303093,-107.386434,30U,-3.616544,2.62997,0.200367,0.005552,-0.033631,2.520026,53
1403716016329469,1,INS_SOLUTION_GOOD,51.758448,-1.252746,107.161534,5735617.00809,620590.141458,-107.161534,30U,-5.071702,2.469882,0.114556,-0.009646,-0.012926,2.680596,54
1403716016704479,1,INS_BAD_GPS_AGREEMENT,51.75843,-1.252732,107.136427,5735615.0701,620591.15406,-107.136427,30U,-5.253458,2.627764,0.084824,-0.005613,-0.019001,2.678704,54
1403716016954482,1,INS_SOLUTION_GOOD,51.758427,-1.252719,107.963042,5735614.76333,620592.02269,-107.963042,30U,-5.391852,2.679438,0.113419,-0.001916,-0.019129,2.676236,54
1403716017329492,1,INS_SOLUTION_GOOD,51.75841,-1.252705,107.925258,5735612.81668,620593.063742,-107.925258,30U,-5.570156,2.821868,0.092033,-0.008147,-0.020842,2.673191,54
1403716017641994,1,INS_SOLUTION_GOOD,51.758393,-1.252692,107.889804,5735611.0294,620594.022534,-107.889804,30U,-5.736006,2.923388,0.131986,-0.0014,-0.020362,2.671853,54
1403716019079526,1,INS_SOLUTION_GOOD,51.758317,-1.252627,107.759336,5735602.63473,620598.675364,-107.759336,30U,-6.117505,3.253596,0.132051,-0.000348,-0.020523,2.651197,55
1403716019392034,1,INS_SOLUTION_GOOD,51.758299,-1.252612,107.722197,5735600.70533,620599.767452,-107.722197,30U,-6.10002,3.287547,0.082522,-0.000831,-0.0195,2.649378,55
1403716019704542,1,INS_SOLUTION_GOOD,51.758283,-1.252598,107.693632,5735598.89666,620600.794915,-107.693632,30U,-6.1179,3.276244,0.111475,0.002894,-0.023611,2.648278,55
1403716020017050,1,INS_SOLUTION_GOOD,51.758265,-1.252583,107.655903,5735596.94583,620601.870531,-107.655903,30U,-6.117735,3.290921,0.116727,-0.000746,-0.021518,2.648709,55
1403716020329557,1,INS_SOLUTION_GOOD,51.758249,-1.252569,107.620648,5735595.13136,620602.896961,-107.620648,30U,-6.125882,3.292927,0.109748,0.004774,-0.019046,2.649582,55
1403716022017081,1,INS_SOLUTION_GOOD,51.758153,-1.252489,107.458813,5735584.6561,620608.610389,-107.458813,30U,-6.241587,3.327572,0.084591,0.00143,-0.021088,2.652409,56
1403716022329588,1,INS_SOLUTION_GOOD,51.758136,-1.252475,107.428306,5735582.80431,620609.649111,-107.428306,30U,-6.255437,3.334431,0.149347,0.006008,-0.023613,2.650516,56
1403716022642095,1,INS_SOLUTION_GOOD,51.758118,-1.25246,107.382331,5735580.82524,620610.767463,-107.382331,30U,-6.282304,3.355206,0.097842,0.001246,-0.016145,2.650275,56
1403716022954605,1,INS_SOLUTION_GOOD,51.7581,-1.252444,107.367398,5735578.82341,620611.864402,-107.367398,30U,-6.295282,3.382847,0.123413,-0.000606,-0.023756,2.654134,56
1403716023267110,1,INS_SOLUTION_GOOD,51.758083,-1.25243,107.326737,5735576.94645,620612.906769,-107.326737,30U,-6.36008,3.319993,0.11847,0.005593,-0.022813,2.658272,56
1403716024579630,1,INS_SOLUTION_GOOD,51.758007,-1.252367,107.190863,5735568.53622,620617.434288,-107.190863,30U,-6.520589,3.302147,0.161873,0.012533,-0.032849,2.672181,57
1403716024892136,1,INS_BAD_GPS_AGREEMENT,51.757988,-1.252352,107.12267,5735566.46742,620618.541193,-107.12267,30U,-6.581808,3.297818,0.192708,-0.005361,-0.011632,2.679901,57
1403716025204640,1,INS_BAD_GPS_AGREEMENT,51.75797,-1.252338,107.106802,5735564.50947,620619.56106,-107.106802,30U,-6.614187,3.21457,-0.001599,0.000239,-0.011254,2.695234,57
1403716025517143,1,INS_BAD_GPS_AGREEMENT,51.757951,-1.252323,107.090793,5735562.3963,620620.613166,-107.090793,30U,-6.715917,3.077512,0.003399,0.003992,-0.005298,2.707485,57
1403716025829651,1,INS_BAD_GPS_AGREEMENT,51.757933,-1.25231,107.093667,5735560.40148,620621.575708,-107.093667,30U,-6.738539,2.998696,0.101741,0.022502,-0.003505,2.71862,57
1403716027142177,1,INS_BAD_GPS_AGREEMENT,51.757853,-1.252255,107.18036,5735551.65206,620625.553578,-107.18036,30U,-6.677643,2.755074,0.053152,0.010093,-0.007617,2.748816,58
1403716027454685,1,INS_BAD_GPS_AGREEMENT,51.757834,-1.252243,107.173521,5735549.53815,620626.477062,-107.173521,30U,-6.649169,2.750174,0.042974,0.0072,-0.01106,2.751749,58
1403716027767187,1,INS_BAD_GPS_AGREEMENT,51.757816,-1.252231,107.156271,5735547.56471,620627.333376,-107.156271,30U,-6.589501,2.699741,-0.083076,0.008995,0.007265,2.753623,58
1403716028079693,1,INS_BAD_GPS_AGREEMENT,51.757797,-1.252219,107.193933,5735545.48793,620628.232701,-107.193933,30U,-6.512463,2.630186,-0.017924,0.006035,-0.004085,2.756191,58
1403716028392198,1,INS_BAD_GPS_AGREEMENT,51.757779,-1.252207,107.198528,5735543.4431,620629.104607,-107.198528,30U,-6.362173,2.576826,-0.036709,0.016551,-0.002089,2.757232,58
1403716029954729,1,INS_BAD_GPS_AGREEMENT,51.757698,-1.252155,107.386011,5735534.58763,620632.928639,-107.386011,30U,-5.166332,1.97975,-0.037794,0.011581,-0.008677,2.767,59
1403716030392236,1,INS_BAD_GPS_AGREEMENT,51.757678,-1.252142,107.393871,5735532.41786,620633.819701,-107.393871,30U,-4.783485,1.826788,-0.039679,0.010181,-0.007491,2.7701,59
1403716030829748,1,INS_BAD_GPS_AGREEMENT,51.75766,-1.252131,107.408751,5735530.42537,620634.628762,-107.408751,30U,-4.358893,1.634409,0.005563,0.011978,-0.004983,2.773473,59
1403716031329758,1,INS_BAD_GPS_AGREEMENT,51.757642,-1.25212,107.506707,5735528.44011,620635.469828,-107.506707,30U,-3.88067,1.426268,-0.064774,0.009729,-0.006027,2.777178,59
1403716031892271,1,INS_BAD_GPS_AGREEMENT,51.757624,-1.252109,107.525139,5735526.43669,620636.258988,-107.525139,30U,-3.34721,1.213798,-0.055476,0.008718,-0.005573,2.782349,59
1403716035829841,1,INS_BAD_GPS_AGREEMENT,51.757543,-1.252065,107.775393,5735517.49709,620639.506328,-107.775393,30U,-2.850008,0.662324,-0.044834,0.02795,0.014387,2.895446,60
1403716036454854,1,INS_BAD_GPS_AGREEMENT,51.757525,-1.252059,107.823078,5735515.5092,620639.996672,-107.823078,30U,-3.587142,0.777051,-0.079854,0.038051,0.00622,2.918334,60
1403716036954862,1,INS_BAD_GPS_AGREEMENT,51.757508,-1.252052,107.819206,5735513.56623,620640.499129,-107.819206,30U,-4.176843,0.931601,0.085553,0.024261,0.004395,2.913169,60
1403716037454874,1,INS_BAD_GPS_AGREEMENT,51.757488,-1.252045,107.852633,5735511.36362,620641.069405,-107.852633,30U,-4.671402,1.211895,0.116093,0.025989,0.010378,2.890004,60
1403716037892387,1,INS_BAD_GPS_AGREEMENT,51.757469,-1.252037,107.898255,5735509.24999,620641.66586,-107.898255,30U,-4.992311,1.32629,-0.120949,0.040171,0.003124,2.869114,60
1403716039392410,1,INS_BAD_GPS_AGREEMENT,51.757397,-1.252004,108.125923,5735501.37103,620644.106114,-108.125923,30U,-5.590921,1.504605,-0.132295,0.035018,0.016909,2.876107,61
1403716039767414,1,INS_BAD_GPS_AGREEMENT,51.757379,-1.251997,108.182696,5735499.35146,620644.690235,-108.182696,30U,-5.706887,1.474932,-0.13502,0.028354,0.008894,2.886295,61
1403716040142422,1,INS_BAD_GPS_AGREEMENT,51.757359,-1.251989,108.224603,5735497.16942,620645.292338,-108.224603,30U,-5.854272,1.441433,-0.085727,0.016895,0.003213,2.900948,61
1403716040517428,1,INS_BAD_GPS_AGREEMENT,51.757339,-1.251981,108.255871,5735494.92688,620645.877177,-108.255871,30U,-6.007422,1.38059,-0.033281,0.013415,-0.004223,2.914419,61
1403716040892436,1,INS_BAD_GPS_AGREEMENT,51.757318,-1.251973,108.263881,5735492.62845,620646.446853,-108.263881,30U,-6.175573,1.323687,0.051688,0.01031,0.022516,2.926052,61
1403716042392470,1,INS_SOLUTION_GOOD,51.757232,-1.251944,108.452007,5735483.05105,620648.714457,-108.452007,30U,-6.531401,1.322369,-0.124017,0.00766,0.001912,2.938216,62
1403716042704976,1,INS_SOLUTION_GOOD,51.757214,-1.251938,108.47107,5735481.09216,620649.16123,-108.47107,30U,-6.604865,1.329488,-0.044527,-0.001435,0.017745,2.938799,62
1403716043017484,1,INS_SOLUTION_GOOD,51.757195,-1.251932,108.525902,5735478.98036,620649.638945,-108.525902,30U,-6.668755,1.336616,-0.222935,-0.000376,0.009801,2.941661,62
1403716043329991,1,INS_SOLUTION_GOOD,51.757175,-1.251926,108.565371,5735476.84334,620650.114018,-108.565371,30U,-6.747579,1.331478,-0.114032,0.003412,0.013873,2.942859,62
1403716043642498,1,INS_SOLUTION_GOOD,51.757157,-1.25192,108.611713,5735474.82149,620650.561059,-108.611713,30U,-6.804079,1.336407,-0.164855,0.004152,0.010842,2.943739,62
1403716045017531,1,INS_SOLUTION_GOOD,51.757072,-1.251893,108.771627,5735465.42049,620652.644908,-108.771627,30U,-6.826831,1.29649,-0.121709,-0.001188,0.006133,2.949809,63
1403716045330038,1,INS_SOLUTION_GOOD,51.757053,-1.251887,108.806713,5735463.25068,620653.111724,-108.806713,30U,-6.807644,1.27885,-0.115192,-0.001714,0.010906,2.954854,63
1403716045642550,1,INS_SOLUTION_GOOD,51.757034,-1.251882,108.845992,5735461.22068,620653.52989,-108.845992,30U,-6.789228,1.192932,-0.170711,0.003317,0.013099,2.964619,63
1403716045955052,1,INS_SOLUTION_GOOD,51.757015,-1.251877,108.970688,5735459.06722,620653.885621,-108.970688,30U,-6.763951,1.164544,-0.161814,-0.009835,0.005842,2.972099,63
1403716046267556,1,INS_SOLUTION_GOOD,51.756997,-1.251872,109.011541,5735457.04704,620654.272271,-109.011541,30U,-6.762349,1.116312,-0.039203,-0.011055,0.004018,2.974481,63
1403716047705075,1,INS_SOLUTION_GOOD,51.75691,-1.25185,109.162839,5735447.41784,620656.059699,-109.162839,30U,-6.650255,1.094052,-0.171511,0.000261,0.007993,2.973848,64
1403716048017581,1,INS_SOLUTION_GOOD,51.756891,-1.251844,109.2121,5735445.3047,620656.490633,-109.2121,30U,-6.636,1.129935,-0.086358,-0.002751,0.002384,2.968771,64
1403716048330081,1,INS_SOLUTION_GOOD,51.756872,-1.251839,109.235817,5735443.19098,620656.906941,-109.235817,30U,-6.631148,1.155182,-0.093395,-0.003482,0.006047,2.964199,64
1403716048642585,1,INS_SOLUTION_GOOD,51.756854,-1.251834,109.271301,5735441.21283,620657.302183,-109.271301,30U,-6.620041,1.172671,-0.110731,-0.005001,0.004613,2.961695,64
1403716048955089,1,INS_SOLUTION_GOOD,51.756835,-1.251829,109.295899,5735439.10445,620657.727824,-109.295899,30U,-6.619843,1.159169,-0.110887,-0.003576,0.005104,2.961299,64
1403716050392615,1,INS_SOLUTION_GOOD,51.756749,-1.251804,109.341932,5735429.60916,620659.679441,-109.341932,30U,-6.612527,1.087331,-0.060573,-0.010864,-0.001733,2.973792,65
1403716050705119,1,INS_SOLUTION_GOOD,51.756731,-1.251799,109.353006,5735427.63486,620660.053877,-109.353006,30U,-6.614611,1.080768,-0.044887,-0.015599,0.007981,2.973889,65
1403716051017626,1,INS_SOLUTION_GOOD,51.756712,-1.251793,109.325875,5735425.52078,620660.483247,-109.325875,30U,-6.604918,1.102854,-0.150873,-0.024392,0.003371,2.975322,65
1403716051330134,1,INS_SOLUTION_GOOD,51.756693,-1.251788,109.356908,5735423.41401,620660.878399,-109.356908,30U,-6.612912,1.079231,-0.031436,-0.026209,-0.001948,2.977032,65
1403716051642641,1,INS_SOLUTION_GOOD,51.756675,-1.251784,109.369323,5735421.43726,620661.248337,-109.369323,30U,-6.625669,1.054639,-0.031981,-0.031642,0.003463,2.977767,65
1403716053142677,1,INS_SOLUTION_GOOD,51.756585,-1.251761,109.33012,5735411.50341,620663.086456,-109.33012,30U,-6.685041,0.950205,-0.07534,-0.019581,0.00769,2.998215,66
1403716053455180,1,INS_SOLUTION_GOOD,51.756566,-1.251756,109.361785,5735409.3664,620663.431787,-109.361785,30U,-6.716098,0.912704,-0.114241,-0.019474,0.011075,3.00452,66
1403716053767684,1,INS_SOLUTION_GOOD,51.756548,-1.251753,109.398183,5735407.35408,620663.742985,-109.398183,30U,-6.735993,0.877292,-0.15961,-0.014266,0.015044,3.008419,66
1403716054080185,1,INS_SOLUTION_GOOD,51.756529,-1.251748,109.394486,5735405.20014,620664.129326,-109.394486,30U,-6.743669,0.844064,-0.14706,-0.015332,0.010425,3.014005,66
1403716054392689,1,INS_SOLUTION_GOOD,51.756509,-1.251744,109.434326,5735403.04969,620664.442869,-109.434326,30U,-6.741615,0.800508,-0.124315,-0.021183,0.013862,3.019667,66
1403716055830221,1,INS_SOLUTION_GOOD,51.756422,-1.251728,109.566439,5735393.36977,620665.771227,-109.566439,30U,-6.693376,0.711756,-0.534713,0.00238,0.023908,3.03848,67
1403716056142725,1,INS_SOLUTION_GOOD,51.756404,-1.251725,109.635251,5735391.36765,620666.048207,-109.635251,30U,-6.682021,0.615373,6.8e-05,-0.006244,-0.009803,3.041531,67
1403716056455228,1,INS_SOLUTION_GOOD,51.756385,-1.251722,109.622548,5735389.24422,620666.296399,-109.622548,30U,-6.624544,0.637769,-0.049837,-0.004128,0.015692,3.045312,67
1403716056830236,1,INS_SOLUTION_GOOD,51.756362,-1.251719,109.685303,5735386.75057,620666.58026,-109.685303,30U,-6.515187,0.576941,-0.26595,-0.003277,0.011135,3.047652,67
1403716057205246,1,INS_SOLUTION_GOOD,51.756341,-1.251715,109.658555,5735384.42922,620666.917928,-109.658555,30U,-6.406635,0.535221,-0.072251,-0.010757,0.017123,3.048168,67
1403716058767775,1,INS_SOLUTION_GOOD,51.756255,-1.251701,110.116555,5735374.90067,620668.094542,-110.116555,30U,-5.762625,0.452712,-0.139371,-0.005179,0.020523,3.056207,68
1403716059142783,1,INS_SOLUTION_GOOD,51.756236,-1.251698,110.42154,5735372.75578,620668.357337,-110.42154,30U,-5.507738,0.416698,-0.217533,-0.003906,0.020907,3.061309,68
1403716059517795,1,INS_SOLUTION_GOOD,51.756218,-1.251696,110.491766,5735370.70371,620668.550993,-110.491766,30U,-5.321388,0.342563,-0.176803,-0.004953,0.017887,3.071841,68
1403716059955302,1,INS_SOLUTION_GOOD,51.756197,-1.251693,109.772266,5735368.44799,620668.818172,-109.772266,30U,-5.128871,0.255504,-0.138808,-0.00658,0.018887,3.087023,68
1403716060392814,1,INS_SOLUTION_GOOD,51.756177,-1.251691,109.828319,5735366.22852,620668.963152,-109.828319,30U,-4.986173,0.182479,-0.126059,-0.005289,0.016322,3.097834,68
1403716062330340,1,INS_SOLUTION_GOOD,51.756089,-1.251687,109.991593,5735356.46188,620669.458933,-109.991593,30U,-4.94543,0.117685,-0.083382,0.019519,0.004617,3.112881,69
1403716062767851,1,INS_SOLUTION_GOOD,51.756071,-1.251687,110.021505,5735354.41648,620669.559688,-110.021505,30U,-4.808405,0.085164,-0.022367,0.010237,-0.002546,3.108176,69
1403716063205356,1,INS_SOLUTION_GOOD,51.756052,-1.251685,109.919259,5735352.34502,620669.729088,-109.919259,30U,-4.661233,0.14046,-0.030138,0.014966,-0.002387,3.104322,69
1403716063642863,1,INS_SOLUTION_GOOD,51.756034,-1.251684,109.924204,5735350.32061,620669.832655,-109.924204,30U,-4.55247,0.136387,-0.0132,0.028538,-0.015682,3.102534,69
1403716063955371,1,INS_SOLUTION_GOOD,51.756008,-1.251685,110.641526,5735347.44656,620669.825731,-110.641526,30U,-4.489877,0.11392,0.020659,0.027886,-0.010606,3.103231,69
1403716066142911,1,INS_SOLUTION_GOOD,51.755921,-1.251681,110.646308,5735337.77902,620670.342892,-110.646308,30U,-4.430967,0.088965,-0.111112,0.002219,-0.000378,3.117646,70
1403716066642924,1,INS_SOLUTION_GOOD,51.755902,-1.251681,110.656466,5735335.58438,620670.424023,-110.656466,30U,-4.339393,0.045146,-0.014783,0.005467,0.011137,3.121783,70
1403716067142935,1,INS_SOLUTION_GOOD,51.755882,-1.251679,110.609296,5735333.44879,620670.55919,-110.609296,30U,-4.316379,0.01512,-0.100246,0.013941,0.013611,3.125805,70
1403716067642940,1,INS_SOLUTION_GOOD,51.755863,-1.251679,110.648793,5735331.26772,620670.621695,-110.648793,30U,-4.420519,-0.020014,-0.070889,0.016433,0.008207,3.128441,70
1403716068142952,1,INS_SOLUTION_GOOD,51.755843,-1.251679,110.677564,5735329.03047,620670.688725,-110.677564,30U,-4.539619,-0.013763,-0.010848,0.013763,0.006282,3.125764,70
