timestamp,burst,ins_status,latitude,longitude,altitude,northing,easting,down,utm_zone,velocity_north,velocity_east,velocity_down,roll,pitch,yaw,serie
1447410532945462,1,INS_SOLUTION_GOOD,51.760864,-1.261596,107.130848,5735871.101529,619972.956742,-107.130848,30U,-0.118892,-0.551068,0.012852,0.040372,0.00073,4.494165,3
1447410539195517,1,INS_SOLUTION_GOOD,51.760864,-1.261611,107.402566,5735871.059245,619971.953927,-107.402566,30U,-0.010121,-0.054581,-0.00945,0.039285,0.000801,4.450176,3
1447410551820619,1,INS_SOLUTION_GOOD,51.760862,-1.261625,107.411757,5735870.829804,619970.947722,-107.411757,30U,-0.319788,-0.924885,-0.017013,0.037573,0.004574,4.381236,3
1447410553133131,1,INS_SOLUTION_GOOD,51.760856,-1.261652,107.564676,5735870.091864,619969.132932,-107.564676,30U,-0.421909,-1.493021,-0.019936,0.039035,0.001238,4.450819,3
1447410554508146,1,INS_SOLUTION_GOOD,51.760853,-1.26168,107.658786,5735869.691914,619967.196167,-107.658786,30U,-0.198284,-1.304565,-0.013016,0.051774,0.005387,4.589607,3
1447410574570828,1,INS_SOLUTION_GOOD,51.760846,-1.261805,108.618065,5735868.776762,619958.613511,-108.618065,30U,-0.42159,-0.93481,0.00586,0.026742,-0.049334,4.276636,4
1447410575695839,1,INS_SOLUTION_GOOD,51.760836,-1.261829,108.58326,5735867.619689,619956.978608,-108.58326,30U,-1.718313,-1.846553,0.114034,0.02334,-0.013523,3.926876,4
1447410576445843,1,INS_SOLUTION_GOOD,51.760821,-1.261847,108.568443,5735865.850945,619955.773348,-108.568443,30U,-2.898552,-1.379508,-0.152458,0.033175,0.035509,3.587982,4
1447410577070846,1,INS_SOLUTION_GOOD,51.760802,-1.261856,108.665014,5735863.778331,619955.157841,-108.665014,30U,-3.746424,-0.712466,-0.17085,-0.003522,0.029974,3.303401,4
1447410577570851,1,INS_SOLUTION_GOOD,51.760784,-1.261857,108.75544,5735861.754699,619955.12455,-108.75544,30U,-4.355358,0.100282,-0.154921,-0.001753,0.017029,3.102086,4
1447410579445870,1,INS_SOLUTION_GOOD,51.760698,-1.261821,108.953196,5735852.208773,619957.890831,-108.953196,30U,-5.767843,2.095931,-0.036151,-0.008219,-0.000102,2.790618,5
1447410579820874,1,INS_SOLUTION_GOOD,51.760679,-1.261809,108.97352,5735850.122571,619958.735343,-108.97352,30U,-5.942992,2.290892,-0.075802,-0.010787,-0.00097,2.768435,5
1447410580133379,1,INS_SOLUTION_GOOD,51.760661,-1.261798,108.990189,5735848.218479,619959.545557,-108.990189,30U,-6.072103,2.462244,-0.049345,-0.010828,-0.004617,2.755272,5
1447410580445881,1,INS_SOLUTION_GOOD,51.760643,-1.261788,109.027751,5735846.228444,619960.312663,-109.027751,30U,-6.181235,2.575194,-0.110578,-0.011314,0.000362,2.745409,5
1447410580758384,1,INS_SOLUTION_GOOD,51.760626,-1.261776,109.055867,5735844.378664,619961.141452,-109.055867,30U,-6.278874,2.653443,-0.04456,-0.01263,-0.005665,2.741848,5
1447410582195897,1,INS_SOLUTION_GOOD,51.760542,-1.261722,109.192124,5735835.046774,619965.104466,-109.192124,30U,-6.654839,2.76084,-0.062943,-0.014234,-0.003072,2.744875,6
1447410582508394,1,INS_SOLUTION_GOOD,51.760523,-1.261709,109.211399,5735832.933652,619966.043179,-109.211399,30U,-6.693861,2.770676,-0.075432,-0.018209,-0.005336,2.746864,6
1447410582820898,1,INS_SOLUTION_GOOD,51.760505,-1.261697,109.227931,5735830.943619,619966.920661,-109.227931,30U,-6.715167,2.766957,-0.020584,-0.014724,-0.002221,2.745988,6
1447410583133402,1,INS_SOLUTION_GOOD,51.760486,-1.261683,109.248355,5735828.886,619967.945926,-109.248355,30U,-6.687914,2.76847,-0.112015,-0.006614,0.001227,2.743749,6
1447410583445902,1,INS_SOLUTION_GOOD,51.760467,-1.26167,109.282507,5735826.770737,619968.884881,-109.282507,30U,-6.661419,2.788553,-0.147483,-0.008413,-0.01208,2.742941,6
1447410584883416,1,INS_SOLUTION_GOOD,51.760383,-1.261613,109.327343,5735817.568247,619973.034206,-109.327343,30U,-6.501064,2.574018,0.00448,-0.005386,-0.008372,2.760318,7
1447410585195920,1,INS_SOLUTION_GOOD,51.760364,-1.261603,109.356181,5735815.477725,619973.824682,-109.356181,30U,-6.438268,2.496751,-0.073976,-0.000391,-0.002765,2.765425,7
1447410585508425,1,INS_SOLUTION_GOOD,51.760346,-1.261591,109.383243,5735813.447998,619974.662934,-109.383243,30U,-6.383475,2.409678,-0.07486,0.003921,-0.010611,2.770244,7
1447410585820928,1,INS_SOLUTION_GOOD,51.760329,-1.261581,109.387757,5735811.562298,619975.433544,-109.387757,30U,-6.327884,2.3716,-0.030236,0.002587,-0.009322,2.774283,7
1447410586133432,1,INS_SOLUTION_GOOD,51.760311,-1.26157,109.447982,5735809.592446,619976.229136,-109.447982,30U,-6.2582,2.336414,-0.012033,0.00292,-0.008907,2.77711,7
1447410587695948,1,INS_SOLUTION_GOOD,51.760225,-1.261519,109.5657,5735800.18446,619979.938877,-109.5657,30U,-5.916521,2.115074,-0.018413,0.00583,-0.007326,2.787783,8
1447410588070954,1,INS_SOLUTION_GOOD,51.760205,-1.261508,109.578432,5735797.971748,619980.793483,-109.578432,30U,-5.843021,2.079532,-0.057347,-6.4e-05,-0.008696,2.788578,8
1447410588445957,1,INS_SOLUTION_GOOD,51.760186,-1.261496,109.629526,5735795.816351,619981.683803,-109.629526,30U,-5.772478,2.05138,-0.06912,0.002559,-0.006361,2.791028,8
1447410588820960,1,INS_SOLUTION_GOOD,51.760167,-1.261485,109.646285,5735793.764637,619982.458459,-109.646285,30U,-5.72333,1.991684,-0.040017,0.009783,-0.010464,2.79706,8
1447410589195965,1,INS_SOLUTION_GOOD,51.760148,-1.261474,109.69239,5735791.629074,619983.287823,-109.69239,30U,-5.672359,1.91475,-0.038739,0.018255,-0.009688,2.801506,8
1447410591008479,1,INS_SOLUTION_GOOD,51.760057,-1.261425,109.736048,5735781.628297,619986.923815,-109.736048,30U,-5.498832,1.823862,0.013157,0.025065,-0.014103,2.806839,9
1447410591383483,1,INS_SOLUTION_GOOD,51.760039,-1.261414,109.724581,5735779.686087,619987.669013,-109.724581,30U,-5.56577,1.853241,-0.059672,0.023421,-0.006847,2.807526,9
1447410591820983,1,INS_SOLUTION_GOOD,51.760017,-1.261403,109.737007,5735777.227927,619988.544009,-109.737007,30U,-5.702965,1.882978,-0.036385,0.025032,-0.012186,2.81027,9
1447410592195983,1,INS_SOLUTION_GOOD,51.759997,-1.261392,109.805967,5735775.043103,619989.342522,-109.805967,30U,-5.849101,1.915242,0.024747,0.033407,-0.023259,2.810566,9
1447410592570987,1,INS_SOLUTION_GOOD,51.759977,-1.261381,109.772652,5735772.81676,619990.128226,-109.772652,30U,-5.961529,1.908509,0.070865,0.034411,-0.015584,2.814242,9
1447410594196009,1,INS_SOLUTION_GOOD,51.759889,-1.261336,109.744785,5735763.066632,619993.495653,-109.744785,30U,-6.150555,1.801075,-0.02178,0.03252,-0.018529,2.841171,10
1447410594508514,1,INS_SOLUTION_GOOD,51.759871,-1.261328,109.728128,5735761.112409,619994.118033,-109.728128,30U,-6.164227,1.756819,-0.000171,0.032258,-0.017443,2.844881,10
1447410594883513,1,INS_SOLUTION_GOOD,51.759851,-1.261318,109.717921,5735758.912642,619994.807209,-109.717921,30U,-6.169359,1.733719,0.048098,0.038488,-0.019609,2.848216,10
1447410595196017,1,INS_SOLUTION_GOOD,51.759834,-1.261309,109.776773,5735756.990848,619995.47067,-109.776773,30U,-6.155543,1.765204,0.051696,0.036075,-0.02243,2.846334,10
1447410595508530,1,INS_SOLUTION_GOOD,51.759816,-1.261301,109.758297,5735755.037394,619996.083012,-109.758297,30U,-6.135283,1.79703,0.048825,0.040051,-0.023702,2.843336,10
1447410597133528,1,INS_SOLUTION_GOOD,51.759728,-1.261257,109.723762,5735745.265344,619999.349663,-109.723762,30U,-6.238072,1.893516,0.045833,0.038477,-0.01764,2.832444,11
1447410597446032,1,INS_SOLUTION_GOOD,51.75971,-1.261248,109.690555,5735743.273609,620000.019269,-109.690555,30U,-6.354858,1.929261,0.015431,0.036155,-0.017393,2.83492,11
1447410597758538,1,INS_SOLUTION_GOOD,51.759692,-1.26124,109.679403,5735741.367799,620000.639414,-109.679403,30U,-6.425177,1.953682,0.071201,0.034125,-0.01295,2.834051,11
1447410598071036,1,INS_SOLUTION_GOOD,51.759674,-1.261231,109.676553,5735739.317924,620001.31579,-109.676553,30U,-6.489049,1.971235,0.026271,0.028037,-0.015927,2.829818,11
1447410598383545,1,INS_SOLUTION_GOOD,51.759655,-1.261221,109.705798,5735737.27033,620002.058731,-109.705798,30U,-6.559277,2.043072,0.065093,0.021614,-0.011696,2.827006,11
1447410599821060,1,INS_SOLUTION_GOOD,51.759569,-1.261177,109.710304,5735727.719424,620005.30159,-109.710304,30U,-7.024252,2.114907,-0.012354,-0.001089,-0.014906,2.835445,12
1447410600133562,1,INS_SOLUTION_GOOD,51.759548,-1.261167,109.698377,5735725.472708,620006.037704,-109.698377,30U,-7.129996,2.120305,0.014377,-0.00666,-0.010566,2.839458,12
1447410600446065,1,INS_SOLUTION_GOOD,51.75953,-1.261153,109.670647,5735723.46645,620007.063944,-109.670647,30U,-7.206387,2.111157,0.029578,-0.005295,-0.01463,2.844329,12
1447410600758570,1,INS_SOLUTION_GOOD,51.75951,-1.261144,109.661469,5735721.312565,620007.753181,-109.661469,30U,-7.281647,2.094708,0.052737,-0.004785,-0.018184,2.847472,12
1447410601071072,1,INS_SOLUTION_GOOD,51.759489,-1.261134,109.642145,5735718.994637,620008.485917,-109.642145,30U,-7.316765,2.141281,0.092281,-0.003497,-0.015454,2.84844,12
1447410602383587,1,INS_SOLUTION_GOOD,51.759403,-1.261092,109.638537,5735709.480916,620011.603334,-109.638537,30U,-7.389615,2.263983,0.025709,-0.008758,-0.010444,2.83522,13
1447410602633589,1,INS_SOLUTION_GOOD,51.759386,-1.261084,109.636809,5735707.573969,620012.236701,-109.636809,30U,-7.390606,2.272581,0.002398,-0.010013,-0.010298,2.831974,13
1447410602883589,1,INS_SOLUTION_GOOD,51.759369,-1.261075,109.640182,5735705.669567,620012.874757,-109.640182,30U,-7.379252,2.287033,0.042379,-0.007718,-0.011341,2.829781,13
1447410603196092,1,INS_SOLUTION_GOOD,51.759349,-1.261064,109.664849,5735703.437774,620013.684525,-109.664849,30U,-7.374691,2.308981,-0.018899,-0.011789,-0.014764,2.827609,13
1447410603446105,1,INS_SOLUTION_GOOD,51.759331,-1.261055,109.660402,5735701.528996,620014.333806,-109.660402,30U,-7.432956,2.328962,0.104004,-0.014499,-0.019615,2.826195,13
1447410604758601,1,INS_SOLUTION_GOOD,51.759243,-1.261009,109.653604,5735691.785393,620017.786958,-109.653604,30U,-7.71722,2.46358,0.018113,-0.029054,-0.015767,2.825608,14
1447410605008602,1,INS_SOLUTION_GOOD,51.759225,-1.260999,109.642978,5735689.789505,620018.468801,-109.642978,30U,-7.732029,2.458212,0.055577,-0.022337,-0.006323,2.828556,14
1447410605321103,1,INS_SOLUTION_GOOD,51.759204,-1.260989,109.69877,5735687.486804,620019.275199,-109.69877,30U,-7.714754,2.40446,-0.024576,-0.01117,-0.010786,2.828975,14
1447410605571107,1,INS_SOLUTION_GOOD,51.759186,-1.26098,109.701449,5735685.497026,620019.948549,-109.701449,30U,-7.718427,2.417318,0.026318,-0.010569,-0.013594,2.826114,14
1447410605883609,1,INS_SOLUTION_GOOD,51.759165,-1.260969,109.691257,5735683.194783,620020.739242,-109.691257,30U,-7.756659,2.49569,0.02915,-0.012412,-0.010166,2.819394,14
1447410607133622,1,INS_SOLUTION_GOOD,51.759076,-1.260919,109.667548,5735673.362195,620024.404589,-109.667548,30U,-8.174098,2.800001,0.003589,-0.004691,-0.012658,2.802841,15
1447410607383625,1,INS_SOLUTION_GOOD,51.759057,-1.260908,109.686253,5735671.23544,620025.218808,-109.686253,30U,-8.276139,2.871248,0.07682,-0.00741,-0.011249,2.798124,15
1447410607633625,1,INS_SOLUTION_GOOD,51.759039,-1.260898,109.675481,5735669.261942,620025.962065,-109.675481,30U,-8.313915,2.946435,-0.083479,-0.007083,-0.001036,2.79354,15
1447410607883626,1,INS_SOLUTION_GOOD,51.759021,-1.260888,109.695182,5735667.276865,620026.717845,-109.695182,30U,-8.370836,2.966819,-0.083148,-0.009464,-0.002801,2.79046,15
1447410608133632,1,INS_SOLUTION_GOOD,51.759001,-1.260876,109.71169,5735665.114411,620027.550412,-109.71169,30U,-8.413075,3.028093,-0.062362,-0.018749,-0.002536,2.78813,15
1447410609258637,1,INS_SOLUTION_GOOD,51.758914,-1.260825,109.814817,5735655.558398,620031.304683,-109.814817,30U,-8.605063,3.381422,-0.002232,0.004635,-0.003189,2.755803,16
1447410609508640,1,INS_SOLUTION_GOOD,51.758894,-1.260813,109.833203,5735653.343669,620032.245681,-109.833203,30U,-8.604763,3.438346,-0.072394,0.016696,-0.007599,2.750498,16
1447410609758644,1,INS_SOLUTION_GOOD,51.758876,-1.2608,109.842597,5735651.2999,620033.127583,-109.842597,30U,-8.601115,3.479004,-0.018538,0.008038,-0.007966,2.744098,16
1447410610008648,1,INS_SOLUTION_GOOD,51.758856,-1.260787,109.84693,5735649.089653,620034.096669,-109.84693,30U,-8.564442,3.585761,-0.083267,0.007065,-0.004165,2.737699,16
1447410610258648,1,INS_SOLUTION_GOOD,51.758837,-1.260775,109.881298,5735647.02616,620034.998234,-109.881298,30U,-8.587028,3.606269,-0.010326,0.004431,-0.004284,2.732074,16
1447410611383661,1,INS_SOLUTION_GOOD,51.758751,-1.260714,109.882433,5735637.549196,620039.432251,-109.882433,30U,-8.570123,3.831603,-0.00165,0.009834,-0.010266,2.707737,17
1447410611633663,1,INS_SOLUTION_GOOD,51.758731,-1.260699,109.881321,5735635.353886,620040.493684,-109.881321,30U,-8.504422,3.929781,-0.006319,0.014717,-0.00942,2.694962,17
1447410611883669,1,INS_SOLUTION_GOOD,51.758713,-1.260685,109.882672,5735633.346518,620041.496852,-109.882672,30U,-8.424241,4.027932,-0.014837,0.012195,-0.007693,2.682723,17
1447410612133668,1,INS_SOLUTION_GOOD,51.758693,-1.26067,109.889707,5735631.193523,620042.60757,-109.889707,30U,-8.337301,4.118978,-0.027437,0.012958,-0.01093,2.670215,17
1447410612383669,1,INS_SOLUTION_GOOD,51.758674,-1.260653,109.886035,5735629.104331,620043.870316,-109.886035,30U,-8.265444,4.195647,-0.006526,0.006335,-0.004656,2.658812,17
1447410613508681,1,INS_SOLUTION_GOOD,51.758593,-1.260581,109.936687,5735620.198661,620049.006646,-109.936687,30U,-7.919261,4.414094,0.021632,0.007147,-0.014017,2.620434,18
1447410613758681,1,INS_SOLUTION_GOOD,51.758576,-1.260566,109.930166,5735618.335591,620050.112219,-109.930166,30U,-7.8379,4.402624,0.044819,0.005618,-0.015926,2.618481,18
1447410614008683,1,INS_SOLUTION_GOOD,51.758558,-1.260549,109.918443,5735616.337062,620051.301042,-109.918443,30U,-7.759161,4.360647,0.034445,0.000845,-0.016628,2.620139,18
1447410614258686,1,INS_SOLUTION_GOOD,51.758541,-1.260534,109.931096,5735614.507223,620052.385835,-109.931096,30U,-7.708291,4.292057,0.062381,-0.005044,-0.020727,2.625258,18
1447410614508688,1,INS_SOLUTION_GOOD,51.758523,-1.260518,109.907593,5735612.535306,620053.536041,-109.907593,30U,-7.659258,4.208353,0.057457,-0.008478,-0.018944,2.631797,18
1447410615696202,1,INS_SOLUTION_GOOD,51.758442,-1.260451,109.832994,5735603.667253,620058.424828,-109.832994,30U,-7.506846,3.748469,0.225199,-0.024935,-0.010733,2.670051,19
1447410615946204,1,INS_SOLUTION_GOOD,51.758425,-1.260437,109.832147,5735601.746998,620059.43025,-109.832147,30U,-7.460529,3.62131,-0.078329,-0.029468,-0.015385,2.677429,19
1447410616258704,1,INS_SOLUTION_GOOD,51.758405,-1.260421,109.880912,5735599.526146,620060.554634,-109.880912,30U,-7.385772,3.538166,0.089882,-0.028634,-0.016737,2.687398,19
1447410616508721,1,INS_SOLUTION_GOOD,51.758387,-1.260408,109.866966,5735597.632475,620061.499255,-109.866966,30U,-7.350407,3.393654,0.023133,-0.030076,-0.014321,2.696604,19
1447410616821211,1,INS_SOLUTION_GOOD,51.758368,-1.260394,109.860571,5735595.463409,620062.554428,-109.860571,30U,-7.270568,3.308693,0.034392,-0.029295,-0.012965,2.702709,19
1447410618133728,1,INS_SOLUTION_GOOD,51.758284,-1.260332,109.826409,5735586.294563,620067.026866,-109.826409,30U,-6.884448,2.855036,0.045673,-0.034576,-0.017564,2.734146,20
1447410618446232,1,INS_SOLUTION_GOOD,51.758266,-1.260315,109.764183,5735584.334187,620068.230717,-109.764183,30U,-6.622909,2.719949,0.024561,-0.035489,-0.017801,2.739244,20
1447410618758733,1,INS_SOLUTION_GOOD,51.758249,-1.260304,109.753872,5735582.408782,620069.075258,-109.753872,30U,-6.353675,2.597563,0.043695,-0.034856,-0.016864,2.740099,20
1447410619071235,1,INS_SOLUTION_GOOD,51.758231,-1.260292,109.746097,5735580.441561,620069.9383,-109.746097,30U,-6.07316,2.487385,0.024866,-0.038689,-0.018455,2.73861,20
1447410619383742,1,INS_SOLUTION_GOOD,51.758215,-1.260279,109.729967,5735578.704886,620070.901841,-109.729967,30U,-5.755437,2.415108,0.030897,-0.036314,-0.017944,2.733056,20
1447410621383760,1,INS_SOLUTION_GOOD,51.758137,-1.260209,109.67612,5735570.154839,620075.892231,-109.67612,30U,-3.018702,2.250499,0.060567,-0.030222,-0.023878,2.469608,21
1447410622008766,1,INS_SOLUTION_GOOD,51.758123,-1.260189,109.642672,5735568.596947,620077.308327,-109.642672,30U,-2.009499,2.040581,0.076979,-0.022431,-0.022512,2.308143,21
1447410622883770,1,INS_SOLUTION_GOOD,51.758113,-1.260166,109.62729,5735567.503267,620078.968781,-109.62729,30U,-0.915501,1.343486,0.024374,-0.023543,-0.024096,2.113713,21
1447410625321289,1,INS_SOLUTION_GOOD,51.758108,-1.26014,109.624668,5735566.995673,620080.746392,-109.624668,30U,-0.113052,0.22448,0.003736,-0.014907,-0.021933,1.937041,21
1447410630883842,1,INS_SOLUTION_GOOD,51.758104,-1.260113,109.644086,5735566.553284,620082.651969,-109.644086,30U,-0.3001,1.576168,-0.015096,0.001238,-0.009085,1.747076,21
1447410634321377,1,INS_SOLUTION_GOOD,51.758138,-1.259992,109.721803,5735570.562372,620090.882527,-109.721803,30U,3.578534,1.732673,0.112389,0.024665,-0.021746,0.426529,22
1447410634883879,1,INS_SOLUTION_GOOD,51.758158,-1.25998,109.679207,5735572.820084,620091.63762,-109.679207,30U,4.399896,1.145467,0.070923,0.032724,-0.017036,0.23361,22
1447410635321383,1,INS_SOLUTION_GOOD,51.758177,-1.259976,109.652432,5735574.896833,620091.90309,-109.652432,30U,4.913271,0.7934,0.061711,0.021619,-0.018255,0.145547,22
1447410635758886,1,INS_SOLUTION_GOOD,51.758197,-1.259971,109.622593,5735577.158078,620092.141372,-109.622593,30U,5.318359,0.547213,0.04782,0.02067,-0.014435,0.100003,22
1447410636133889,1,INS_SOLUTION_GOOD,51.758215,-1.259969,109.603913,5735579.22739,620092.290139,-109.603913,30U,5.526178,0.512003,-0.004684,0.020052,-0.011324,0.078551,22
1447410637883929,1,INS_SOLUTION_GOOD,51.758308,-1.259961,109.626818,5735589.480557,620092.566831,-109.626818,30U,6.221312,0.282377,0.043183,0.004847,-0.014561,0.044326,23
1447410638196414,1,INS_SOLUTION_GOOD,51.758326,-1.25996,109.642203,5735591.512962,620092.592128,-109.642203,30U,6.332396,0.280632,0.046035,0.004886,-0.013411,0.039415,23
1447410638508913,1,INS_SOLUTION_GOOD,51.758344,-1.259959,109.627773,5735593.559111,620092.62723,-109.627773,30U,6.443886,0.249474,0.004341,0.000827,-0.012771,0.035914,23
1447410638883913,1,INS_SOLUTION_GOOD,51.758365,-1.259957,109.623051,5735595.900756,620092.65875,-109.623051,30U,6.556541,0.211747,0.059974,0.005095,-0.019498,0.031273,23
1447410639196419,1,INS_SOLUTION_GOOD,51.758384,-1.259957,109.582442,5735597.981274,620092.663584,-109.582442,30U,6.639673,0.206786,0.058982,0.008893,-0.017972,0.026207,23
1447410640633932,1,INS_SOLUTION_GOOD,51.758474,-1.259954,109.483955,5735608.014491,620092.614583,-109.483955,30U,7.429816,0.06047,0.00981,0.009873,-0.00551,0.00679,24
1447410640946435,1,INS_SOLUTION_GOOD,51.758496,-1.259954,109.490497,5735610.430143,620092.578954,-109.490497,30U,7.670357,0.053318,0.013614,0.012339,-0.009758,0.005264,24
1447410641258946,1,INS_SOLUTION_GOOD,51.758517,-1.259954,109.506149,5735612.810379,620092.48511,-109.506149,30U,7.884269,0.079482,0.026815,0.014922,-0.009095,0.004579,24
1447410641508942,1,INS_SOLUTION_GOOD,51.758536,-1.259954,109.500348,5735614.88321,620092.453075,-109.500348,30U,8.058891,0.052346,0.01674,0.021635,-0.007523,0.003344,24
1447410641821446,1,INS_SOLUTION_GOOD,51.758558,-1.259954,109.498945,5735617.328465,620092.409197,-109.498945,30U,8.243203,0.027452,-0.018114,0.025669,-0.004229,0.000738,24
1447410643008959,1,INS_SOLUTION_GOOD,51.75865,-1.259954,109.555852,5735627.631786,620092.149817,-109.555852,30U,8.864228,-0.014087,-0.01417,0.035881,-0.007026,6.278387,25
1447410643258962,1,INS_SOLUTION_GOOD,51.75867,-1.259954,109.598459,5735629.851694,620092.110032,-109.598459,30U,8.977498,-0.012916,-0.026401,0.032056,-0.004548,6.279252,25
1447410643508967,1,INS_SOLUTION_GOOD,51.758692,-1.259954,109.607122,5735632.20024,620092.051439,-109.607122,30U,9.106735,-0.006914,-0.036344,0.032495,-0.001764,6.279946,25
1447410643758968,1,INS_SOLUTION_GOOD,51.758711,-1.259954,109.621205,5735634.40034,620091.99881,-109.621205,30U,9.239038,-0.011581,-0.058736,0.035054,-0.003249,6.279514,25
1447410644008984,1,INS_SOLUTION_GOOD,51.758733,-1.259954,109.632837,5735636.820568,620091.937522,-109.632837,30U,9.387875,-0.015128,-0.066732,0.033392,-0.001393,6.278829,25
1447410645071480,1,INS_SOLUTION_GOOD,51.758826,-1.259955,109.699233,5735647.139123,620091.616993,-109.699233,30U,9.926164,-0.139445,-0.034534,0.027168,-0.002913,6.26662,26
1447410645321487,1,INS_SOLUTION_GOOD,51.758848,-1.259956,109.600844,5735649.554313,620091.467391,-109.600844,30U,10.00649,-0.193009,-0.067096,0.025337,-0.000683,6.262345,26
1447410645508984,1,INS_SOLUTION_GOOD,51.758866,-1.259957,109.61708,5735651.559289,620091.379172,-109.61708,30U,10.062049,-0.213962,-0.085343,0.025939,-0.00208,6.259335,26
1447410645758985,1,INS_SOLUTION_GOOD,51.758887,-1.259958,109.633759,5735653.977922,620091.263938,-109.633759,30U,10.113938,-0.261203,-0.049374,0.021849,0.001787,6.25654,26
1447410645946485,1,INS_SOLUTION_GOOD,51.758906,-1.259958,109.654036,5735656.001888,620091.162344,-109.654036,30U,10.148887,-0.272013,-0.134004,0.021282,0.000476,6.25442,26
1447410646946489,1,INS_SOLUTION_GOOD,51.758998,-1.259963,109.778991,5735666.286449,620090.573334,-109.778991,30U,10.271153,-0.410626,-0.096005,0.017164,0.001914,6.241047,27
1447410647196490,1,INS_SOLUTION_GOOD,51.759021,-1.259965,109.815176,5735668.811376,620090.420633,-109.815176,30U,10.273882,-0.476716,-0.11884,0.014408,-0.001888,6.234785,27
1447410647383993,1,INS_SOLUTION_GOOD,51.759039,-1.259966,109.831946,5735670.861591,620090.269887,-109.831946,30U,10.264536,-0.54931,-0.093106,0.010022,0.002511,6.229193,27
1447410647633998,1,INS_SOLUTION_GOOD,51.759062,-1.259968,109.865996,5735673.318216,620090.072511,-109.865996,30U,10.253063,-0.621052,-0.101578,0.006134,-0.004002,6.220522,27
1447410647883998,1,INS_SOLUTION_GOOD,51.759085,-1.259971,109.883084,5735675.976208,620089.833134,-109.883084,30U,10.23453,-0.735974,-0.075245,0.000354,0.00114,6.210197,27
1447410648884008,1,INS_SOLUTION_GOOD,51.759177,-1.259984,109.990825,5735686.176379,620088.666234,-109.990825,30U,10.176509,-1.184366,-0.005629,-0.019178,-0.000764,6.167298,28
1447410649134010,1,INS_SOLUTION_GOOD,51.7592,-1.259989,109.964557,5735688.649491,620088.26547,-109.964557,30U,10.167464,-1.289179,-0.150961,-0.02323,-0.002326,6.157766,28
1447410649384012,1,INS_SOLUTION_GOOD,51.759222,-1.259994,109.988172,5735691.080698,620087.887117,-109.988172,30U,10.172863,-1.357892,0.004272,-0.024807,-0.010206,6.151198,28
1447410649571513,1,INS_SOLUTION_GOOD,51.75924,-1.259998,109.984074,5735693.107918,620087.561461,-109.984074,30U,10.174191,-1.409805,0.013741,-0.024317,-0.004275,6.147269,28
1447410649821518,1,INS_SOLUTION_GOOD,51.759262,-1.260003,109.996306,5735695.541342,620087.162012,-109.996306,30U,10.184198,-1.441863,-0.079081,-0.019137,-0.006461,6.144273,28
1447410650821525,1,INS_SOLUTION_GOOD,51.759354,-1.260025,110.056559,5735705.720737,620085.369804,-110.056559,30U,10.210158,-1.533617,-0.069503,-0.007584,-0.003266,6.135712,29
1447410651009027,1,INS_SOLUTION_GOOD,51.759372,-1.26003,110.073615,5735707.753116,620085.014412,-110.073615,30U,10.204383,-1.538614,-0.054739,-0.007269,-0.005803,6.135854,29
1447410651259029,1,INS_SOLUTION_GOOD,51.759394,-1.260035,110.050118,5735710.233633,620084.60565,-110.050118,30U,10.20706,-1.527742,-0.041256,-0.007007,-0.006039,6.136684,29
1447410651446531,1,INS_SOLUTION_GOOD,51.759413,-1.260039,110.063037,5735712.265059,620084.252753,-110.063037,30U,10.198236,-1.504765,-0.023056,-0.004969,-0.01287,6.138157,29
1447410651696534,1,INS_SOLUTION_GOOD,51.759435,-1.260044,110.057216,5735714.701273,620083.834543,-110.057216,30U,10.195513,-1.485614,0.068271,-0.006138,-0.010296,6.141315,29
1447410652696545,1,INS_SOLUTION_GOOD,51.759528,-1.260063,110.062426,5735725.026543,620082.279756,-110.062426,30U,10.459446,-1.250456,0.096501,-0.005025,-0.016862,6.166973,30
1447410652884049,1,INS_SOLUTION_GOOD,51.759547,-1.260067,110.046535,5735727.117424,620081.98376,-110.046535,30U,10.517958,-1.201746,0.077923,-0.005005,-0.015923,6.170246,30
1447410653134050,1,INS_SOLUTION_GOOD,51.759571,-1.260071,110.048143,5735729.803468,620081.616499,-110.048143,30U,10.590437,-1.179436,0.077532,-0.003098,-0.015335,6.173109,30
1447410653384053,1,INS_SOLUTION_GOOD,51.759596,-1.260076,110.034184,5735732.5552,620081.242335,-110.034184,30U,10.647328,-1.189241,0.015929,-0.004628,-0.013466,6.175346,30
1447410653634056,1,INS_SOLUTION_GOOD,51.759619,-1.26008,110.027197,5735735.10951,620080.900457,-110.027197,30U,10.707662,-1.153537,0.062583,-0.002457,-0.016562,6.177108,30
1447410654571567,1,INS_SOLUTION_GOOD,51.75971,-1.260096,109.969886,5735745.251584,620079.532565,-109.969886,30U,10.95026,-1.18908,0.110633,0.001949,-0.014151,6.176846,31
1447410654821570,1,INS_SOLUTION_GOOD,51.759734,-1.2601,109.959913,5735747.87839,620079.186658,-109.959913,30U,11.008996,-1.166694,-0.014543,0.005146,-0.012745,6.180686,31
1447410655009072,1,INS_SOLUTION_GOOD,51.759754,-1.260103,109.958043,5735750.07897,620078.905897,-109.958043,30U,11.063461,-1.115553,0.024374,0.008362,-0.014889,6.183509,31
1447410655196574,1,INS_SOLUTION_GOOD,51.759772,-1.260106,109.940818,5735752.104316,620078.651785,-109.940818,30U,11.099782,-1.10186,0.07615,0.006174,-0.014541,6.185964,31
1447410655384076,1,INS_SOLUTION_GOOD,51.759792,-1.26011,109.929428,5735754.32138,620078.377404,-109.929428,30U,11.135938,-1.105408,0.034981,-0.001619,-0.006871,6.189778,31
1447410656321588,1,INS_SOLUTION_GOOD,51.759885,-1.260123,109.950541,5735764.592805,620077.229179,-109.950541,30U,11.133875,-0.869585,0.056435,0.004998,-0.017663,6.208282,32
1447410656509088,1,INS_SOLUTION_GOOD,51.759905,-1.260125,109.937423,5735766.811087,620077.001666,-109.937423,30U,11.120156,-0.871329,0.059625,-0.00234,-0.0167,6.212021,32
1447410656696589,1,INS_SOLUTION_GOOD,51.759923,-1.260127,109.925256,5735768.807538,620076.801551,-109.925256,30U,11.119513,-0.78791,0.047401,-0.003782,-0.01203,6.214888,32
1447410656884089,1,INS_SOLUTION_GOOD,51.759943,-1.26013,109.923653,5735771.027562,620076.593007,-109.923653,30U,11.128556,-0.756654,-0.11623,0.004814,-0.008995,6.217998,32
1447410657071591,1,INS_SOLUTION_GOOD,51.759961,-1.260132,109.938785,5735773.026259,620076.413711,-109.938785,30U,11.127185,-0.743175,-0.012248,0.004229,-0.019999,6.219314,32
1447410658009104,1,INS_SOLUTION_GOOD,51.760055,-1.260141,110.007538,5735783.473863,620075.526855,-110.007538,30U,11.077782,-0.660749,-0.082306,0.001439,-0.01181,6.227857,33
1447410658196603,1,INS_SOLUTION_GOOD,51.760073,-1.260142,109.998308,5735785.507636,620075.383031,-109.998308,30U,11.079402,-0.638635,0.022515,0.001928,-0.014983,6.227905,33
1447410658384107,1,INS_SOLUTION_GOOD,51.760093,-1.260144,109.993555,5735787.718455,620075.201262,-109.993555,30U,11.064187,-0.621128,0.012462,0.007873,-0.01587,6.228787,33
1447410658634108,1,INS_SOLUTION_GOOD,51.760117,-1.260146,109.983297,5735790.36676,620074.988378,-109.983297,30U,11.048482,-0.619421,0.029334,0.007662,-0.013139,6.229052,33
1447410658884110,1,INS_SOLUTION_GOOD,51.760142,-1.260149,109.983291,5735793.229666,620074.756293,-109.983291,30U,11.015242,-0.629276,0.019854,0.007586,-0.016147,6.229735,33
1447410659821614,1,INS_SOLUTION_GOOD,51.760233,-1.260157,109.973961,5735803.290236,620073.953995,-109.973961,30U,10.891433,-0.618395,0.03885,0.004342,-0.016998,6.231236,34
1447410660009115,1,INS_SOLUTION_GOOD,51.760253,-1.260158,109.965128,5735805.462143,620073.781028,-109.965128,30U,10.871683,-0.607515,0.043219,0.005292,-0.016883,6.231149,34
1447410660196616,1,INS_SOLUTION_GOOD,51.760271,-1.260159,109.997963,5735807.473945,620073.705339,-109.997963,30U,10.856914,-0.608692,0.046671,0.002747,-0.02698,6.229739,34
1447410660384116,1,INS_SOLUTION_GOOD,51.76029,-1.260161,109.966601,5735809.639208,620073.52875,-109.966601,30U,10.836141,-0.631148,0.192714,0.005065,-0.016322,6.228274,34
1447410660634118,1,INS_SOLUTION_GOOD,51.760314,-1.260163,109.958032,5735812.230259,620073.315158,-109.958032,30U,10.799734,-0.617426,-0.073887,0.00689,-0.014053,6.22875,34
1447410661571626,1,INS_SOLUTION_GOOD,51.760403,-1.260171,109.961372,5735822.220367,620072.549004,-109.961372,30U,10.523821,-0.523492,0.073508,0.0093,-0.019025,6.237308,35
1447410661821629,1,INS_SOLUTION_GOOD,51.760426,-1.260172,109.949185,5735824.732688,620072.36552,-109.949185,30U,10.444325,-0.501301,0.042034,0.008475,-0.018819,6.239713,35
1447410662009134,1,INS_SOLUTION_GOOD,51.760445,-1.260174,109.94097,5735826.810728,620072.219184,-109.94097,30U,10.372284,-0.483496,0.043592,0.007243,-0.018765,6.240768,35
1447410662259134,1,INS_SOLUTION_GOOD,51.760467,-1.260175,109.884954,5735829.302996,620072.065084,-109.884954,30U,10.284171,-0.461049,0.048711,0.008275,-0.017726,6.241384,35
1447410662446638,1,INS_SOLUTION_GOOD,51.760486,-1.260176,109.877221,5735831.347595,620071.923248,-109.877221,30U,10.202693,-0.458059,0.00927,0.008854,-0.013837,6.241396,35
1447410663446644,1,INS_SOLUTION_GOOD,51.760575,-1.260183,109.98009,5735841.32116,620071.239449,-109.98009,30U,9.830105,-0.5162,-0.001807,0.019353,-0.016597,6.23343,36
1447410663696647,1,INS_SOLUTION_GOOD,51.760597,-1.260185,109.980301,5735843.665914,620071.056413,-109.980301,30U,9.746253,-0.53338,0.020316,0.019491,-0.019996,6.232123,36
1447410663946650,1,INS_SOLUTION_GOOD,51.760619,-1.260187,109.971051,5735846.184019,620070.857735,-109.971051,30U,9.659356,-0.547443,0.050175,0.018821,-0.024564,6.231288,36
1447410664196652,1,INS_SOLUTION_GOOD,51.760641,-1.260188,109.958643,5735848.555189,620070.746217,-109.958643,30U,9.58001,-0.531771,0.114545,0.01946,-0.017662,6.23027,36
1447410664446655,1,INS_SOLUTION_GOOD,51.760663,-1.26019,109.957416,5735851.029115,620070.546974,-109.957416,30U,9.489869,-0.537104,-0.004832,0.016964,-0.021907,6.229648,36
1447410665571670,1,INS_SOLUTION_GOOD,51.760756,-1.260199,109.858695,5735861.411061,620069.673552,-109.858695,30U,8.863565,-0.547764,0.005738,0.016249,-0.020537,6.226189,37
1447410665821671,1,INS_SOLUTION_GOOD,51.760775,-1.260201,109.854761,5735863.512908,620069.493287,-109.854761,30U,8.691219,-0.547687,0.034354,0.018061,-0.020448,6.225176,37
1447410666071673,1,INS_SOLUTION_GOOD,51.760795,-1.260203,109.851206,5735865.747224,620069.298084,-109.851206,30U,8.536106,-0.554156,0.013601,0.0164,-0.025493,6.223192,37
1447410666321677,1,INS_SOLUTION_GOOD,51.760814,-1.260204,109.828621,5735867.829441,620069.164912,-109.828621,30U,8.378411,-0.533508,0.115634,0.014654,-0.017226,6.219172,37
1447410666571681,1,INS_SOLUTION_GOOD,51.760833,-1.260206,109.826006,5735869.978409,620068.962011,-109.826006,30U,8.192501,-0.594397,-0.073412,0.012008,-0.016007,6.216934,37
1447410667884194,1,INS_SOLUTION_GOOD,51.760926,-1.260217,109.806506,5735880.259536,620067.968112,-109.806506,30U,7.339109,-0.597162,0.00821,0.010781,-0.021964,6.206457,38
1447410668196698,1,INS_SOLUTION_GOOD,51.760946,-1.26022,109.798475,5735882.419442,620067.726482,-109.798475,30U,7.145404,-0.583056,0.05565,0.012924,-0.023926,6.205455,38
1447410668509204,1,INS_SOLUTION_GOOD,51.760966,-1.260222,109.784244,5735884.668479,620067.487531,-109.784244,30U,6.933845,-0.61055,0.009704,0.009582,-0.015622,6.205686,38
1447410668884207,1,INS_SOLUTION_GOOD,51.760989,-1.260225,109.791892,5735887.252248,620067.209711,-109.791892,30U,6.691138,-0.613961,0.09941,0.009201,-0.021983,6.203727,38
1447410669259209,1,INS_SOLUTION_GOOD,51.76101,-1.260228,109.806191,5735889.624362,620066.970023,-109.806191,30U,6.451931,-0.566633,-0.011381,0.001205,-0.018041,6.202413,38
1447410670946725,1,INS_SOLUTION_GOOD,51.7611,-1.26024,109.729317,5735899.585166,620065.923223,-109.729317,30U,5.300261,-0.478124,0.003132,-0.011252,-0.020586,6.201111,39
1447410671446730,1,INS_SOLUTION_GOOD,51.761123,-1.260242,109.683586,5735902.135347,620065.699373,-109.683586,30U,4.852301,-0.425756,-0.004616,-0.011294,-0.020607,6.203185,39
1447410671884236,1,INS_SOLUTION_GOOD,51.761141,-1.260245,109.680689,5735904.161978,620065.476495,-109.680689,30U,4.38162,-0.376261,-0.080075,-0.011322,-0.019573,6.203805,39
1447410672384234,1,INS_SOLUTION_GOOD,51.76116,-1.260247,109.692646,5735906.208911,620065.250892,-109.692646,30U,3.830759,-0.325771,0.014052,-0.004165,-0.024796,6.204001,39
1447410673009242,1,INS_SOLUTION_GOOD,51.761179,-1.26025,109.67861,5735908.355746,620065.029179,-109.67861,30U,3.127311,-0.258595,0.011876,-0.004686,-0.021365,6.200905,39
1447410688384390,1,INS_SOLUTION_GOOD,51.761261,-1.26026,109.520194,5735917.382217,620064.1058,-109.520194,30U,1.066088,-0.198206,-0.017649,-0.008865,-0.010719,6.191959,40
1447410689696901,1,INS_SOLUTION_GOOD,51.761278,-1.260263,109.479823,5735919.301898,620063.849148,-109.479823,30U,2.03632,-0.287318,-0.013118,-0.014171,-0.006062,6.193029,40
1447410690571908,1,INS_SOLUTION_GOOD,51.761297,-1.260266,109.434977,5735921.440546,620063.611472,-109.434977,30U,2.901353,-0.409259,0.025199,-0.006842,-0.008931,6.190204,40
1447410691196909,1,INS_SOLUTION_GOOD,51.761315,-1.260268,109.342642,5735923.388769,620063.391863,-109.342642,30U,3.515555,-0.450323,-0.005364,-0.006677,-0.008011,6.186662,40
1447410691759414,1,INS_SOLUTION_GOOD,51.761334,-1.260272,109.342767,5735925.49679,620063.069477,-109.342767,30U,4.028144,-0.530073,-0.017548,-0.00708,-0.001984,6.182946,40
1447410694071936,1,INS_SOLUTION_GOOD,51.761423,-1.260287,109.365034,5735935.366159,620061.814135,-109.365034,30U,4.103359,-0.605001,-0.033134,-0.005905,-0.011273,6.170101,41
1447410694571942,1,INS_SOLUTION_GOOD,51.761441,-1.26029,109.329824,5735937.35734,620061.586335,-109.329824,30U,4.049532,-0.582128,-0.007781,-0.004976,-0.010904,6.165893,41
1447410695071946,1,INS_SOLUTION_GOOD,51.761459,-1.260294,109.337792,5735939.370552,620061.238458,-109.337792,30U,4.033846,-0.594364,0.029672,-0.011148,-0.013005,6.162463,41
1447410695634452,1,INS_SOLUTION_GOOD,51.761478,-1.260297,109.295589,5735941.552767,620060.962044,-109.295589,30U,3.901445,-0.618658,0.018928,-0.012373,-0.012035,6.1622,41
1447410696196958,1,INS_SOLUTION_GOOD,51.761497,-1.2603,109.285775,5735943.645616,620060.726562,-109.285775,30U,3.760789,-0.564743,0.004389,-0.000656,-0.014939,6.161117,41
1447410699571998,1,INS_SOLUTION_GOOD,51.761586,-1.260319,109.103763,5735953.453661,620059.168066,-109.103763,30U,1.623493,-0.324987,0.03994,-0.016217,-0.013931,6.142249,42
1447410702884530,1,INS_SOLUTION_GOOD,51.7616,-1.260324,108.974921,5735955.01201,620058.798203,-108.974921,30U,0.035218,-0.111135,0.019902,-0.019413,-0.003654,6.139315,42
1447410719072185,1,INS_SOLUTION_GOOD,51.7616,-1.260318,109.144351,5735955.003812,620059.200167,-109.144351,30U,0.003049,-0.026316,-0.006385,-0.018772,-0.003243,6.144364,42
1447410790010377,1,INS_SOLUTION_GOOD,51.761601,-1.26032,109.188857,5735955.096051,620059.054096,-109.188857,30U,-0.001683,-0.013797,0.002765,-0.018516,-0.002796,6.148027,42
1447410796947945,1,INS_SOLUTION_GOOD,51.76161,-1.26033,109.343949,5735956.166767,620058.372772,-109.343949,30U,1.904047,-0.290486,-0.034062,-0.009238,-0.000184,6.147243,42
1447410799572970,1,INS_SOLUTION_GOOD,51.761691,-1.260364,109.723439,5735965.062569,620055.812921,-109.723439,30U,4.7019,-0.730654,0.009211,-0.019266,-0.007842,6.138201,43
1447410800010473,1,INS_SOLUTION_GOOD,51.761709,-1.260368,109.723235,5735967.120184,620055.442883,-109.723235,30U,4.659674,-0.746864,0.01273,-0.01925,-0.012353,6.134909,43
1447410800510479,1,INS_SOLUTION_GOOD,51.761729,-1.260375,109.833598,5735969.23858,620054.914461,-109.833598,30U,4.519682,-0.739067,0.017977,-0.020569,-0.009572,6.132806,43
1447410801010485,1,INS_SOLUTION_GOOD,51.761749,-1.26038,109.827137,5735971.453778,620054.506895,-109.827137,30U,4.378325,-0.680336,-0.006157,-0.020624,-0.008682,6.138494,43
1447410801510493,1,INS_SOLUTION_GOOD,51.761767,-1.260386,109.947465,5735973.444998,620054.043198,-109.947465,30U,4.250285,-0.562323,0.022431,-0.035434,-0.013352,6.165582,43
1447410803823008,1,INS_SOLUTION_GOOD,51.761854,-1.260361,109.886832,5735983.227104,620055.557008,-109.886832,30U,3.66447,2.349397,-0.075656,-0.018217,0.007586,0.605862,44
1447410804260510,1,INS_SOLUTION_GOOD,51.761868,-1.26034,109.922032,5735984.848174,620056.942686,-109.922032,30U,3.222211,3.168864,-0.035841,-0.015894,-0.003726,0.817087,44
1447410804698013,1,INS_SOLUTION_GOOD,51.76188,-1.260317,109.917876,5735986.166244,620058.491266,-109.917876,30U,2.656351,3.940837,-0.036709,-0.027482,-0.010798,1.026923,44
1447410805135515,1,INS_SOLUTION_GOOD,51.761889,-1.26029,109.907092,5735987.186967,620060.354733,-109.907092,30U,1.808985,4.607142,0.117436,-0.026348,0.000782,1.219395,44
1447410805510520,1,INS_SOLUTION_GOOD,51.761894,-1.260261,109.970858,5735987.878019,620062.336323,-109.970858,30U,1.208516,4.977797,-0.120957,-0.040685,-0.00106,1.358678,44
1447410807323039,1,INS_SOLUTION_GOOD,51.761892,-1.260116,110.073342,5735987.795632,620072.336221,-110.073342,30U,-1.471509,5.44722,0.021959,-0.008201,-0.008242,1.846162,45
1447410807698043,1,INS_SOLUTION_GOOD,51.761886,-1.260087,110.058283,5735987.219488,620074.37629,-110.058283,30U,-1.792266,5.207634,0.002616,0.012535,-0.010825,1.914469,45
1447410808073048,1,INS_SOLUTION_GOOD,51.761879,-1.260059,110.048433,5735986.525687,620076.338364,-110.048433,30U,-2.12603,5.023287,0.109438,0.010486,-0.028684,1.980517,45
1447410808448053,1,INS_SOLUTION_GOOD,51.761872,-1.26003,110.041457,5735985.777307,620078.347232,-110.041457,30U,-2.441581,4.87145,0.196441,0.008573,-0.041497,2.05592,45
1447410808885558,1,INS_SOLUTION_GOOD,51.761861,-1.26,109.942945,5735984.629946,620080.459688,-109.942945,30U,-3.009506,4.586784,0.159592,-0.004445,-0.035609,2.170236,45
1447410810635579,1,INS_SOLUTION_GOOD,51.761794,-1.259902,109.631358,5735977.26696,620087.377093,-109.631358,30U,-5.812029,2.987933,0.150082,-0.027065,-0.028675,2.681321,46
1447410810948082,1,INS_SOLUTION_GOOD,51.761776,-1.259889,109.574522,5735975.364891,620088.333075,-109.574522,30U,-6.215989,2.706393,0.199507,-0.027863,-0.028037,2.74252,46
1447410811260585,1,INS_SOLUTION_GOOD,51.76176,-1.259877,109.569724,5735973.521844,620089.234099,-109.569724,30U,-6.565387,2.495401,0.152092,-0.022285,-0.024413,2.786253,46
1447410811635589,1,INS_SOLUTION_GOOD,51.761737,-1.259863,109.503954,5735970.979825,620090.210508,-109.503954,30U,-6.928342,2.326307,0.187948,-0.018189,-0.017283,2.821138,46
1447410811948089,1,INS_SOLUTION_GOOD,51.761716,-1.259853,109.459513,5735968.744412,620091.004363,-109.459513,30U,-7.157791,2.294523,0.087087,-0.021759,-0.007862,2.834933,46
1447410813260602,1,INS_SOLUTION_GOOD,51.761629,-1.259806,109.500795,5735959.098164,620094.438866,-109.500795,30U,-7.986794,2.490419,0.113896,-0.010941,-0.013289,2.841511,47
1447410813510605,1,INS_SOLUTION_GOOD,51.76161,-1.259797,109.471996,5735957.01992,620095.147483,-109.471996,30U,-8.132153,2.578112,0.090625,-0.016289,-0.011353,2.837208,47
1447410813760608,1,INS_SOLUTION_GOOD,51.761592,-1.259788,109.45232,5735955.068454,620095.821039,-109.45232,30U,-8.258292,2.67084,0.087747,-0.016041,-0.014082,2.833566,47
1447410814010615,1,INS_SOLUTION_GOOD,51.761573,-1.259777,109.421983,5735952.918985,620096.571447,-109.421983,30U,-8.404279,2.73179,0.118743,-0.011659,-0.013349,2.829017,47
1447410814260613,1,INS_SOLUTION_GOOD,51.761555,-1.259767,109.449269,5735950.980233,620097.366929,-109.449269,30U,-8.52626,2.808187,0.109344,-0.007487,-0.014128,2.824728,47
1447410815385629,1,INS_SOLUTION_GOOD,51.761466,-1.259716,109.413926,5735941.07981,620101.118798,-109.413926,30U,-9.03161,3.270977,0.102927,-0.007223,-0.014544,2.795448,48
1447410815698131,1,INS_SOLUTION_GOOD,51.761441,-1.259701,109.377731,5735938.381646,620102.180637,-109.377731,30U,-9.12403,3.369045,0.109047,-0.001842,-0.011382,2.788421,48
1447410816010633,1,INS_SOLUTION_GOOD,51.761415,-1.259685,109.350593,5735935.477328,620103.346247,-109.350593,30U,-9.197829,3.482823,0.094055,-0.002256,-0.012767,2.780331,48
1447410816260640,1,INS_SOLUTION_GOOD,51.761395,-1.259673,109.398426,5735933.30979,620104.268093,-109.398426,30U,-9.237336,3.578633,0.088482,-0.004335,-0.009348,2.774042,48
1447410816510637,1,INS_SOLUTION_GOOD,51.761373,-1.259659,109.383111,5735930.925882,620105.264972,-109.383111,30U,-9.280014,3.655037,0.049413,-0.002957,-0.009402,2.766729,48
1447410817510648,1,INS_SOLUTION_GOOD,51.76129,-1.259603,109.373182,5735921.770283,620109.387206,-109.373182,30U,-9.34482,4.048181,0.134586,-0.003103,-0.016856,2.732738,49
1447410817760650,1,INS_SOLUTION_GOOD,51.76127,-1.259588,109.339489,5735919.550801,620110.423216,-109.339489,30U,-9.352044,4.149859,0.12007,-0.002638,-0.011039,2.725197,49
1447410817948153,1,INS_SOLUTION_GOOD,51.761253,-1.259576,109.324117,5735917.699459,620111.302489,-109.324117,30U,-9.36752,4.207528,0.043328,-0.002058,-0.010151,2.720578,49
1447410818198155,1,INS_SOLUTION_GOOD,51.761234,-1.259561,109.395924,5735915.547102,620112.430266,-109.395924,30U,-9.381034,4.269997,0.082582,-0.002975,-0.013126,2.715739,49
1447410818385657,1,INS_SOLUTION_GOOD,51.761217,-1.259548,109.378074,5735913.691227,620113.333754,-109.378074,30U,-9.395015,4.312956,0.084844,-0.003175,-0.010733,2.712402,49
1447410819448166,1,INS_SOLUTION_GOOD,51.761128,-1.25948,109.383475,5735903.898034,620118.30908,-109.383475,30U,-9.336894,4.619774,0.094726,0.004484,-0.012407,2.681617,50
1447410819760669,1,INS_SOLUTION_GOOD,51.761103,-1.259459,109.361865,5735901.137575,620119.774007,-109.361865,30U,-9.301419,4.694362,0.030805,0.003564,-0.010188,2.672498,50
1447410819948174,1,INS_SOLUTION_GOOD,51.761086,-1.259446,109.352711,5735899.304231,620120.764962,-109.352711,30U,-9.271213,4.762296,0.040869,0.001962,-0.010302,2.665933,50
1447410820198177,1,INS_SOLUTION_GOOD,51.761067,-1.259428,109.394754,5735897.221556,620122.050623,-109.394754,30U,-9.221858,4.851746,0.054059,0.003143,-0.01344,2.656329,50
1447410820448180,1,INS_SOLUTION_GOOD,51.761045,-1.259409,109.373603,5735894.861919,620123.381805,-109.373603,30U,-9.171391,4.953559,0.094833,0.003469,-0.013665,2.645424,50
1447410821510687,1,INS_SOLUTION_GOOD,51.76096,-1.259329,109.353575,5735885.497894,620129.130136,-109.353575,30U,-8.891814,5.377457,0.032606,-0.0065,-0.009243,2.597129,51
1447410821760689,1,INS_SOLUTION_GOOD,51.760941,-1.25931,109.346785,5735883.403284,620130.480967,-109.346785,30U,-8.831372,5.461822,0.050424,-0.007757,-0.012836,2.587587,51
1447410821948193,1,INS_SOLUTION_GOOD,51.760925,-1.259294,109.332193,5735881.66712,620131.619661,-109.332193,30U,-8.793733,5.519196,0.082933,-0.004653,-0.013642,2.580044,51
1447410822260694,1,INS_SOLUTION_GOOD,51.760902,-1.25927,109.475286,5735879.118574,620133.386324,-109.475286,30U,-8.731866,5.609857,0.076859,-0.000758,-0.012765,2.569631,51
1447410822448196,1,INS_SOLUTION_GOOD,51.760886,-1.259253,109.461724,5735877.403386,620134.554907,-109.461724,30U,-8.697166,5.661316,0.070748,0.000863,-0.013284,2.563025,51
1447410823448206,1,INS_SOLUTION_GOOD,51.760809,-1.25917,109.476862,5735868.931816,620140.549048,-109.476862,30U,-8.512508,5.919945,0.085314,-0.008697,-0.012447,2.532834,52
1447410823698209,1,INS_SOLUTION_GOOD,51.76079,-1.259149,109.460777,5735866.928434,620142.022793,-109.460777,30U,-8.472206,5.966342,0.058866,-0.0061,-0.012729,2.526407,52
1447410823885711,1,INS_SOLUTION_GOOD,51.760775,-1.259132,109.446339,5735865.265541,620143.258321,-109.446339,30U,-8.443513,5.995919,0.071019,-0.001988,-0.010627,2.521745,52
1447410824135714,1,INS_BAD_GPS_AGREEMENT,51.760757,-1.259111,109.458504,5735863.275671,620144.744587,-109.458504,30U,-8.406212,6.035072,0.044284,0.002505,-0.010672,2.516759,52
1447410824385718,1,INS_BAD_GPS_AGREEMENT,51.760737,-1.259088,109.446767,5735861.133669,620146.369043,-109.446767,30U,-8.363548,6.072963,0.027605,0.001977,-0.007545,2.511632,52
1447410825385728,1,INS_SOLUTION_GOOD,51.760663,-1.258998,109.427991,5735853.061536,620152.754005,-109.427991,30U,-8.280797,6.140505,0.041302,-0.009954,-0.012977,2.500916,53
1447410825635728,1,INS_SOLUTION_GOOD,51.760646,-1.258977,109.412553,5735851.111122,620154.277151,-109.412553,30U,-8.260735,6.171484,0.072216,-0.008486,-0.011978,2.499069,53
1447410825885731,1,INS_SOLUTION_GOOD,51.760626,-1.258954,109.397169,5735849.003646,620155.931167,-109.397169,30U,-8.252954,6.16044,0.031012,-0.008809,-0.008234,2.497385,53
1447410826135733,1,INS_SOLUTION_GOOD,51.760609,-1.258932,109.395557,5735847.060796,620157.458003,-109.395557,30U,-8.248422,6.164565,0.050632,-0.00651,-0.018779,2.495498,53
1447410826385735,1,INS_SOLUTION_GOOD,51.760591,-1.258906,109.38718,5735845.18413,620159.319215,-109.38718,30U,-8.218449,6.196274,0.102377,-0.005332,-0.015016,2.493482,53
1447410827448246,1,INS_SOLUTION_GOOD,51.760515,-1.258807,109.347366,5735836.885006,620166.34796,-109.347366,30U,-8.101278,6.20735,0.017968,0.010724,-0.007766,2.486611,54
1447410827698249,1,INS_SOLUTION_GOOD,51.760498,-1.258785,109.348818,5735834.98344,620167.880508,-109.348818,30U,-8.052716,6.19085,0.021838,0.008452,-0.013719,2.484157,54
1447410827885749,1,INS_SOLUTION_GOOD,51.760483,-1.258768,109.338101,5735833.408065,620169.157019,-109.338101,30U,-8.01004,6.196229,0.060452,0.008191,-0.01774,2.482446,54
1447410828198251,1,INS_SOLUTION_GOOD,51.760462,-1.258741,109.302424,5735831.056496,620171.069836,-109.302424,30U,-7.974516,6.180153,0.193156,0.007709,-0.019297,2.479513,54
1447410828385751,1,INS_SOLUTION_GOOD,51.760449,-1.258721,109.342903,5735829.647063,620172.491179,-109.342903,30U,-7.915477,6.195641,0.076472,0.007239,-0.011753,2.476935,54
1447410829448258,1,INS_SOLUTION_GOOD,51.760376,-1.258624,109.343997,5735821.658608,620179.349634,-109.343997,30U,-7.64212,6.282258,0.013135,0.004933,-0.012661,2.452231,55
1447410829698258,1,INS_SOLUTION_GOOD,51.760359,-1.258602,109.335129,5735819.86797,620180.905973,-109.335129,30U,-7.594692,6.330528,0.09164,0.004856,-0.017628,2.445579,55
1447410829948262,1,INS_SOLUTION_GOOD,51.760341,-1.258578,109.30684,5735817.939693,620182.602832,-109.30684,30U,-7.551047,6.369089,0.10292,0.003238,-0.014057,2.440345,55
1447410830198266,1,INS_SOLUTION_GOOD,51.760326,-1.258554,109.280659,5735816.27116,620184.280593,-109.280659,30U,-7.529232,6.402184,0.058059,-0.00026,-0.00825,2.437092,55
1447410830448266,1,INS_SOLUTION_GOOD,51.760308,-1.25853,109.276305,5735814.355379,620185.995814,-109.276305,30U,-7.529772,6.437154,0.00608,-0.000582,-0.011555,2.435405,55
1447410831510778,1,INS_SOLUTION_GOOD,51.760237,-1.25843,109.266469,5735806.598286,620193.122557,-109.266469,30U,-7.541418,6.607809,0.015109,-4.9e-05,-0.015393,2.421712,56
1447410831760782,1,INS_SOLUTION_GOOD,51.760221,-1.258407,109.250205,5735804.830246,620194.757507,-109.250205,30U,-7.505886,6.677718,0.146919,-0.00108,-0.020699,2.414021,56
1447410831948284,1,INS_SOLUTION_GOOD,51.760208,-1.258387,109.2222,5735803.365206,620196.133199,-109.2222,30U,-7.481233,6.728447,0.143813,-0.001212,-0.019132,2.407109,56
1447410832198287,1,INS_SOLUTION_GOOD,51.760191,-1.258364,109.211787,5735801.607426,620197.783613,-109.211787,30U,-7.434192,6.795736,0.1086,-0.00379,-0.017278,2.399272,56
1447410832385789,1,INS_SOLUTION_GOOD,51.760178,-1.258344,109.190272,5735800.158616,620199.183599,-109.190272,30U,-7.392316,6.850079,0.104764,-0.004975,-0.015141,2.392819,56
1447410833385801,1,INS_SOLUTION_GOOD,51.760113,-1.258243,109.140985,5735793.106416,620206.350862,-109.140985,30U,-7.113674,7.169712,0.087968,0.001465,-0.016337,2.349192,57
1447410833635807,1,INS_SOLUTION_GOOD,51.760098,-1.258218,109.11843,5735791.451912,620208.118836,-109.11843,30U,-7.030457,7.225596,0.065701,0.000126,-0.010084,2.34161,57
1447410833885807,1,INS_SOLUTION_GOOD,51.760082,-1.258191,109.112322,5735789.677011,620210.041408,-109.112322,30U,-6.97223,7.241902,0.010231,0.000215,-0.011963,2.334499,57
1447410834135812,1,INS_SOLUTION_GOOD,51.760068,-1.258164,109.201403,5735788.177681,620211.882935,-109.201403,30U,-6.896725,7.267505,0.050093,0.000195,-0.008988,2.327928,57
1447410834385812,1,INS_SOLUTION_GOOD,51.760052,-1.258137,109.200623,5735786.44185,620213.818689,-109.200623,30U,-6.803487,7.306852,-0.048277,-0.006427,-0.01379,2.319775,57
1447410835448321,1,INS_SOLUTION_GOOD,51.759989,-1.258024,109.180142,5735779.656292,620221.799234,-109.180142,30U,-6.464456,7.403669,0.007031,0.011465,-0.009142,2.287027,58
1447410835698324,1,INS_SOLUTION_GOOD,51.759975,-1.257998,109.180296,5735778.154937,620223.610506,-109.180296,30U,-6.396111,7.395637,0.013626,0.009126,-0.012161,2.282021,58
1447410835948323,1,INS_SOLUTION_GOOD,51.75996,-1.25797,109.172353,5735776.548528,620225.570029,-109.172353,30U,-6.319084,7.384833,0.036381,0.007695,-0.012476,2.276988,58
1447410836198325,1,INS_SOLUTION_GOOD,51.759947,-1.257944,109.256627,5735775.118765,620227.37786,-109.256627,30U,-6.253797,7.367438,0.028912,0.008247,-0.01175,2.272544,58
1447410836448327,1,INS_SOLUTION_GOOD,51.759932,-1.257917,109.250727,5735773.548695,620229.328056,-109.250727,30U,-6.179525,7.349967,0.005787,0.006347,-0.012067,2.267843,58
1447410837510837,1,INS_SOLUTION_GOOD,51.759875,-1.257805,109.229927,5735767.311325,620237.21139,-109.229927,30U,-5.915722,7.260085,0.02816,0.006384,-0.011846,2.251089,59
1447410837760838,1,INS_SOLUTION_GOOD,51.759862,-1.25778,109.226335,5735765.941713,620238.982724,-109.226335,30U,-5.851731,7.237945,0.014665,0.000503,-0.011916,2.249274,59
1447410838010841,1,INS_SOLUTION_GOOD,51.759848,-1.257752,109.221975,5735764.470915,620240.890516,-109.221975,30U,-5.812033,7.1789,0.033129,0.004298,-0.009461,2.249887,59
1447410838260846,1,INS_SOLUTION_GOOD,51.759836,-1.257727,109.2691,5735763.164603,620242.651137,-109.2691,30U,-5.794208,7.112339,-0.001358,0.0069,-0.014025,2.250794,59
1447410838510850,1,INS_SOLUTION_GOOD,51.759823,-1.257701,109.259797,5735761.708901,620244.529681,-109.259797,30U,-5.746248,7.069748,0.044602,0.003753,-0.010346,2.252757,59
1447410839635860,1,INS_SOLUTION_GOOD,51.759765,-1.257589,109.242615,5735755.47953,620252.4268,-109.242615,30U,-5.93279,6.588193,-0.021178,0.004165,-0.014862,2.303977,60
1447410839885867,1,INS_SOLUTION_GOOD,51.759751,-1.257564,109.231578,5735753.96757,620254.158398,-109.231578,30U,-6.023385,6.441824,0.073442,0.004443,-0.016948,2.324021,60
1447410840135869,1,INS_SOLUTION_GOOD,51.759738,-1.257542,109.21563,5735752.547699,620255.720416,-109.21563,30U,-6.101779,6.304579,0.075997,0.004949,-0.015773,2.342442,60
1447410840385869,1,INS_SOLUTION_GOOD,51.759724,-1.257519,109.207854,5735750.991882,620257.362892,-109.207854,30U,-6.202291,6.158171,0.062536,-0.00188,-0.019942,2.360377,60
1447410840635871,1,INS_SOLUTION_GOOD,51.75971,-1.257497,109.185275,5735749.532443,620258.861619,-109.185275,30U,-6.270689,6.028427,0.106085,-0.002945,-0.01972,2.379999,60
1447410841823379,1,INS_SOLUTION_GOOD,51.759642,-1.257401,109.152674,5735742.054939,620265.711715,-109.152674,30U,-6.694712,5.319376,0.040265,-0.007537,-0.010833,2.467086,61
1447410842073382,1,INS_SOLUTION_GOOD,51.759626,-1.257381,109.148537,5735740.344225,620267.12506,-109.148537,30U,-6.747782,5.199295,-0.002682,-0.004946,-0.011892,2.48707,61
1447410842323387,1,INS_SOLUTION_GOOD,51.759611,-1.257363,109.136071,5735738.767847,620268.377733,-109.136071,30U,-6.821086,5.049391,0.035999,-0.004894,-0.014757,2.505724,61
1447410842573386,1,INS_SOLUTION_GOOD,51.759595,-1.257345,109.123267,5735737.015355,620269.711243,-109.123267,30U,-6.897558,4.893304,0.072408,-0.000567,-0.014596,2.525576,61
1447410842823391,1,INS_SOLUTION_GOOD,51.75958,-1.257328,109.109708,5735735.381591,620270.907489,-109.109708,30U,-6.957386,4.739905,0.047222,0.00215,-0.010691,2.543258,61
1447410844073402,1,INS_BAD_GPS_AGREEMENT,51.7595,-1.25725,109.100598,5735726.533114,620276.482365,-109.100598,30U,-7.391502,3.701129,0.029951,-0.007817,-0.009117,2.680227,62
1447410844385906,1,INS_SOLUTION_GOOD,51.759478,-1.257234,109.061743,5735724.136082,620277.624148,-109.061743,30U,-7.543959,3.432994,0.022201,-0.006632,-0.011608,2.718896,62
1447410844698408,1,INS_SOLUTION_GOOD,51.759457,-1.25722,109.050542,5735721.875912,620278.670769,-109.050542,30U,-7.690824,3.192862,0.017132,0.001149,-0.00808,2.751106,62
1447410844948415,1,INS_SOLUTION_GOOD,51.759439,-1.257208,109.051012,5735719.880082,620279.526519,-109.051012,30U,-7.816195,3.016759,-0.002066,7.3e-05,-0.016345,2.776515,62
1447410845198415,1,INS_SOLUTION_GOOD,51.759422,-1.257198,109.031216,5735718.007303,620280.277536,-109.031216,30U,-7.929855,2.875672,0.125971,0.000409,-0.01026,2.796663,62
1447410846385944,1,INS_SOLUTION_GOOD,51.759336,-1.257151,108.976098,5735708.450783,620283.784227,-108.976098,30U,-8.273997,2.496081,0.058473,0.00182,-0.013631,2.849876,63
1447410846635931,1,INS_SOLUTION_GOOD,51.759318,-1.257142,108.962743,5735706.475945,620284.425788,-108.962743,30U,-8.305108,2.470538,0.062093,0.002976,-0.016265,2.852676,63
1447410846885935,1,INS_SOLUTION_GOOD,51.759298,-1.257133,108.93968,5735704.330835,620285.118354,-108.93968,30U,-8.315822,2.466246,0.055187,-0.000148,-0.009136,2.853565,63
1447410847135937,1,INS_SOLUTION_GOOD,51.759281,-1.257123,108.943254,5735702.448027,620285.814454,-108.943254,30U,-8.304396,2.460131,-0.000781,-0.003167,-0.008597,2.854022,63
1447410847385940,1,INS_SOLUTION_GOOD,51.759262,-1.257114,108.941031,5735700.307122,620286.505,-108.941031,30U,-8.286026,2.462274,0.013727,-0.006043,-0.007512,2.853582,63
1447410848573454,1,INS_SOLUTION_GOOD,51.759176,-1.257071,109.027811,5735690.859189,620289.722857,-109.027811,30U,-8.18258,2.405097,0.063127,-0.006643,-0.016648,2.85343,64
1447410848823460,1,INS_SOLUTION_GOOD,51.759159,-1.257062,109.006559,5735688.915168,620290.348934,-109.006559,30U,-8.152746,2.397318,0.059693,-0.007708,-0.009682,2.856149,64
1447410849073461,1,INS_SOLUTION_GOOD,51.759141,-1.257053,109.163007,5735686.907713,620291.037325,-109.163007,30U,-8.124793,2.359059,-0.023257,-0.008368,-0.008779,2.859004,64
1447410849385963,1,INS_SOLUTION_GOOD,51.759117,-1.257042,109.165449,5735684.330851,620291.84776,-109.165449,30U,-8.102677,2.309749,0.011667,-0.006324,-0.010963,2.864337,64
1447410849635967,1,INS_SOLUTION_GOOD,51.7591,-1.257034,109.162462,5735682.402901,620292.443457,-109.162462,30U,-8.084086,2.264798,0.003506,-0.004818,-0.008833,2.867181,64
1447410850885979,1,INS_SOLUTION_GOOD,51.759009,-1.256994,109.123644,5735672.425283,620295.463493,-109.123644,30U,-7.877494,2.172961,0.032142,-0.010029,-0.015414,2.872043,65
1447410851198484,1,INS_SOLUTION_GOOD,51.758988,-1.256985,109.109803,5735670.084091,620296.168269,-109.109803,30U,-7.846286,2.134432,0.04886,-0.013864,-0.015323,2.874358,65
1447410851448486,1,INS_SOLUTION_GOOD,51.75897,-1.256977,109.097692,5735668.064076,620296.77115,-109.097692,30U,-7.805418,2.115911,0.04999,-0.022584,-0.016448,2.875954,65
1447410851760988,1,INS_SOLUTION_GOOD,51.758949,-1.256967,109.078869,5735665.745991,620297.45615,-109.078869,30U,-7.749348,2.079567,0.022327,-0.022347,-0.003175,2.880357,65
1447410852010987,1,INS_SOLUTION_GOOD,51.758931,-1.25696,109.093254,5735663.748493,620298.035025,-109.093254,30U,-7.728875,2.025174,-0.067838,-0.020389,-0.007058,2.883636,65
1447410853323502,1,INS_SOLUTION_GOOD,51.758842,-1.25692,109.032947,5735653.970285,620301.022373,-109.032947,30U,-7.583253,1.989077,-0.034423,-0.014207,-0.006894,2.883225,66
1447410853573505,1,INS_SOLUTION_GOOD,51.758825,-1.256912,109.04164,5735652.019602,620301.586283,-109.04164,30U,-7.523069,1.98326,-0.006887,-0.011768,-0.012946,2.881778,66
1447410853886008,1,INS_SOLUTION_GOOD,51.758803,-1.256903,109.034619,5735649.640463,620302.273747,-109.034619,30U,-7.44681,1.949184,0.030816,-0.004659,-0.015924,2.880852,66
1447410854261012,1,INS_SOLUTION_GOOD,51.75878,-1.256893,108.994762,5735647.034759,620303.075811,-108.994762,30U,-7.339504,1.933273,0.04805,4.6e-05,-0.016628,2.879676,66
1447410854636016,1,INS_SOLUTION_GOOD,51.758755,-1.256882,108.974929,5735644.288394,620303.871789,-108.974929,30U,-7.217672,1.904228,0.050777,0.005319,-0.013857,2.877054,66
1447410856073523,1,INS_SOLUTION_GOOD,51.758664,-1.256842,109.063445,5735634.311177,620306.858055,-109.063445,30U,-6.731865,1.911352,0.06754,-0.015946,-0.014035,2.860552,67
1447410856386025,1,INS_SOLUTION_GOOD,51.758645,-1.256833,109.048478,5735632.190114,620307.518968,-109.048478,30U,-6.616148,1.896506,-0.0247,-0.017493,-0.008413,2.857904,67
1447410856698529,1,INS_SOLUTION_GOOD,51.758628,-1.256825,109.058777,5735630.234301,620308.129647,-109.058777,30U,-6.510871,1.875932,0.048709,-0.011954,-0.011323,2.854171,67
1447410857011032,1,INS_SOLUTION_GOOD,51.758609,-1.256817,109.050672,5735628.193365,620308.775884,-109.050672,30U,-6.331358,1.840193,-0.008079,-0.011156,-0.007636,2.85172,67
1447410857386036,1,INS_SOLUTION_GOOD,51.758588,-1.256807,109.060096,5735625.851334,620309.519605,-109.060096,30U,-6.08546,1.783768,0.00192,-0.006571,-0.007552,2.847872,67
1447410859136068,1,INS_SOLUTION_GOOD,51.7585,-1.256765,109.050586,5735616.166819,620312.62469,-109.050586,30U,-5.136256,1.550316,0.031567,-0.001364,-0.014187,2.836067,68
1447410859573561,1,INS_SOLUTION_GOOD,51.75848,-1.256755,109.04149,5735613.976473,620313.343616,-109.04149,30U,-4.898873,1.474219,0.037352,-0.006013,-0.015862,2.833695,68
1447410860011064,1,INS_SOLUTION_GOOD,51.758461,-1.256746,109.029528,5735611.901743,620314.026675,-109.029528,30U,-4.600577,1.396159,0.031096,-0.010101,-0.016048,2.831893,68
1447410860448570,1,INS_SOLUTION_GOOD,51.758444,-1.256737,109.030614,5735609.965509,620314.674977,-109.030614,30U,-4.337393,1.312317,0.030869,-0.015259,-0.017907,2.829723,68
1447410860948578,1,INS_SOLUTION_GOOD,51.758425,-1.256728,109.01382,5735607.884679,620315.359462,-109.01382,30U,-4.050127,1.235124,0.03772,-0.01879,-0.016954,2.827806,68
1447410863636096,1,INS_SOLUTION_GOOD,51.75835,-1.256677,108.891955,5735599.66388,620319.11143,-108.891955,30U,-2.882249,0.908495,0.002383,-0.018492,-0.011128,2.815532,69
1447410864386104,1,INS_SOLUTION_GOOD,51.758333,-1.256667,108.877749,5735597.763684,620319.82923,-108.877749,30U,-2.631709,0.842935,-0.01237,-0.014893,-0.008772,2.807693,69
1447410865136114,1,INS_SOLUTION_GOOD,51.75832,-1.256656,108.752735,5735596.276255,620320.596554,-108.752735,30U,-2.463101,0.813085,0.029522,-0.010228,-0.009851,2.803703,69
1447410865886123,1,INS_SOLUTION_GOOD,51.758302,-1.256647,108.742552,5735594.366663,620321.274038,-108.742552,30U,-2.653743,0.861132,0.014479,-0.001943,-0.005616,2.804162,69
1447410866636135,1,INS_SOLUTION_GOOD,51.758286,-1.256636,108.782584,5735592.547517,620322.100688,-108.782584,30U,-2.564234,0.834344,-0.008502,-0.002822,-0.011848,2.806137,69
1447410870823676,1,INS_SOLUTION_GOOD,51.758206,-1.256589,108.655027,5735583.766673,620325.578421,-108.655027,30U,-1.856649,0.594663,0.019883,0.001429,-0.012419,2.799244,70
1447410871886188,1,INS_SOLUTION_GOOD,51.75819,-1.256578,108.758874,5735582.037622,620326.354712,-108.758874,30U,-1.750885,0.559624,0.005308,-0.001815,-0.017338,2.799785,70
1447410872948698,1,INS_SOLUTION_GOOD,51.758176,-1.256568,108.845845,5735580.47844,620327.08829,-108.845845,30U,-1.681191,0.538407,0.002671,-0.000422,-0.017864,2.800188,70
1447410874136211,1,INS_SOLUTION_GOOD,51.758158,-1.256559,108.830199,5735578.509327,620327.778004,-108.830199,30U,-1.691785,0.540981,-0.000654,-0.002925,-0.015188,2.797984,70
1447410875198721,1,INS_SOLUTION_GOOD,51.758142,-1.256547,108.867411,5735576.742625,620328.641482,-108.867411,30U,-1.842379,0.602778,-0.011759,-0.006553,-0.012674,2.801673,70
1447410885698828,1,INS_SOLUTION_GOOD,51.75807,-1.256512,109.073036,5735568.777645,620331.198581,-109.073036,30U,-0.058887,-0.087147,0.010931,-0.022038,-0.012925,2.806402,71
1447410895136421,1,INS_SOLUTION_GOOD,51.758064,-1.256516,109.580534,5735568.089673,620330.959871,-109.580534,30U,-0.461752,0.027925,-0.046473,-0.022845,-0.011545,2.805008,71
1447410897073954,1,INS_SOLUTION_GOOD,51.758049,-1.256507,109.794094,5735566.40258,620331.600103,-109.794094,30U,-0.948499,0.221756,-0.069113,-0.026061,-0.009355,2.791865,71
1447410898823964,1,INS_SOLUTION_GOOD,51.758038,-1.256495,110.31977,5735565.172406,620332.456668,-110.31977,30U,-1.04183,0.268945,-0.080386,-0.023526,-0.009322,2.786467,71
1447410899948970,1,INS_SOLUTION_GOOD,51.758023,-1.256484,110.398493,5735563.560205,620333.250773,-110.398493,30U,-2.349991,0.776595,-0.047483,-0.020612,-0.007674,2.787656,71
1447410902323996,1,INS_SOLUTION_GOOD,51.757941,-1.256432,110.24099,5735554.594533,620337.088459,-110.24099,30U,-4.995356,1.774696,-0.099991,-0.007525,-0.006264,2.789788,72
1447410902761497,1,INS_SOLUTION_GOOD,51.757922,-1.256421,110.283051,5735552.440651,620337.913778,-110.283051,30U,-4.880681,1.741744,-0.076591,-0.008336,-0.013303,2.786537,72
1447410903199002,1,INS_SOLUTION_GOOD,51.757904,-1.256409,110.328999,5735550.422607,620338.763318,-110.328999,30U,-4.76762,1.707718,-0.04106,-0.010004,-0.015209,2.78514,72
