timestamp,burst,ins_status,latitude,longitude,altitude,northing,easting,down,utm_zone,velocity_north,velocity_east,velocity_down,roll,pitch,yaw,serie
1422953159294626,1,INS_SOLUTION_GOOD,51.760889,-1.261576,111.290224,5735873.86219,619974.28025,-111.290224,30U,-0.150063,-0.947013,0.029298,0.043799,-0.000611,4.580479,3
1422953162231741,1,INS_SOLUTION_GOOD,51.760884,-1.261602,111.392792,5735873.26103,619972.474333,-111.392792,30U,-0.11239,-0.225696,0.009371,0.036374,0.001591,4.412035,3
1422953169668264,1,INS_SOLUTION_GOOD,51.760881,-1.261607,111.599433,5735872.92272,619972.178425,-111.599433,30U,-0.04777,-0.130742,-0.012033,0.03668,0.00025,4.409447,3
1422953175917444,1,INS_SOLUTION_GOOD,51.760877,-1.261614,111.806628,5735872.46273,619971.650687,-111.806628,30U,-0.226778,-0.682665,-0.047103,0.037493,0.000941,4.412383,3
1422953177542230,1,INS_SOLUTION_GOOD,51.760871,-1.261634,111.865281,5735871.76319,619970.329109,-111.865281,30U,-0.492208,-1.523566,-0.066689,0.039933,0.001414,4.410271,3
1422953183166492,1,INS_SOLUTION_GOOD,51.760839,-1.261763,111.975248,5735868.00517,619961.481993,-111.975248,30U,-0.390411,-0.740165,-0.006169,0.038161,-0.041644,4.235133,4
1422953191102950,1,INS_SOLUTION_GOOD,51.760835,-1.261778,111.748846,5735867.54364,619960.466529,-111.748846,30U,0.02635,0.013025,-0.041693,0.045382,-0.047289,4.15996,4
1422953197164655,1,INS_SOLUTION_GOOD,51.760828,-1.261796,111.478011,5735866.73315,619959.257158,-111.478011,30U,-1.015691,-1.184455,0.065015,0.026012,-0.032086,3.98398,4
1422953198164522,1,INS_SOLUTION_GOOD,51.760814,-1.261816,111.379927,5735865.15098,619957.900893,-111.379927,30U,-2.302866,-1.409629,0.059611,0.046402,0.037367,3.665834,4
1422953198851932,1,INS_SOLUTION_GOOD,51.760796,-1.261828,111.467572,5735863.15215,619957.146883,-111.467572,30U,-3.295551,-0.812226,-0.154043,0.002117,0.02698,3.359058,4
1422953201101637,1,INS_SOLUTION_GOOD,51.760707,-1.2618,111.598279,5735853.29883,619959.274272,-111.598279,30U,-5.195554,1.9065,-0.041077,-0.014897,0.000128,2.793788,5
1422953201476588,1,INS_SOLUTION_GOOD,51.760689,-1.261789,111.607216,5735851.31478,619960.111055,-111.607216,30U,-5.369159,2.079934,-0.049487,-0.021285,-0.003001,2.779294,5
1422953201851538,1,INS_SOLUTION_GOOD,51.760671,-1.261777,111.61705,5735849.2744,619960.968249,-111.61705,30U,-5.469618,2.187613,-0.001199,-0.017036,-0.001059,2.772993,5
1422953202226490,1,INS_SOLUTION_GOOD,51.760652,-1.261765,111.576837,5735847.27058,619961.834301,-111.576837,30U,-5.556188,2.233133,-0.134167,-0.015853,-0.002095,2.765262,5
1422953202601441,1,INS_SOLUTION_GOOD,51.760633,-1.261753,111.589154,5735845.16872,619962.757224,-111.589154,30U,-5.62904,2.315685,-0.022664,-0.019677,-0.003756,2.758356,5
1422953204226227,1,INS_SOLUTION_GOOD,51.760549,-1.261695,111.579034,5735835.89165,619966.98097,-111.579034,30U,-5.872406,2.558165,-0.045002,-0.023471,-0.001148,2.741806,6
1422953204538686,1,INS_SOLUTION_GOOD,51.760532,-1.261683,111.590152,5735834.02266,619967.846977,-111.590152,30U,-5.930673,2.557661,-0.050853,-0.02238,-0.005736,2.741121,6
1422953204851145,1,INS_SOLUTION_GOOD,51.760515,-1.261671,111.589653,5735832.13814,619968.721313,-111.589653,30U,-5.982569,2.592881,0.019775,-0.01997,0.000959,2.742042,6
1422953205226096,1,INS_SOLUTION_GOOD,51.760495,-1.261657,111.645031,5735829.96351,619969.696137,-111.645031,30U,-6.014165,2.594247,-0.082068,-0.011965,0.003186,2.742998,6
1422953205538555,1,INS_SOLUTION_GOOD,51.760478,-1.261645,111.672372,5735828.05519,619970.577669,-111.672372,30U,-6.040638,2.626293,-0.033945,-0.014269,-0.013083,2.742084,6
1422953207038358,1,INS_SOLUTION_GOOD,51.760395,-1.261588,111.698396,5735818.94662,619974.769271,-111.698396,30U,-6.200281,2.671611,0.050879,-0.014543,-0.00427,2.745165,7
1422953207350817,1,INS_SOLUTION_GOOD,51.760377,-1.261576,111.741654,5735816.92531,619975.650667,-111.741654,30U,-6.211015,2.671298,-0.058381,-0.003136,0.000633,2.7486,7
1422953207663276,1,INS_SOLUTION_GOOD,51.76036,-1.261564,111.766172,5735815.08116,619976.485389,-111.766172,30U,-6.215974,2.605543,-0.004899,0.004474,-0.011197,2.749776,7
1422953207975736,1,INS_SOLUTION_GOOD,51.760342,-1.261552,111.75257,5735813.1186,619977.37375,-111.75257,30U,-6.181925,2.626815,-0.003915,-0.001136,-0.005438,2.751746,7
1422953208288194,1,INS_SOLUTION_GOOD,51.760325,-1.26154,111.771885,5735811.25248,619978.224764,-111.771885,30U,-6.157279,2.586764,0.00229,0.006794,-0.00561,2.750852,7
1422953209850489,1,INS_SOLUTION_GOOD,51.76024,-1.261484,111.812318,5735801.83156,619982.369568,-111.812318,30U,-5.895921,2.333022,0.044716,-0.003244,-0.008909,2.774697,8
1422953210225440,1,INS_SOLUTION_GOOD,51.76022,-1.261471,111.821913,5735799.68888,619983.261948,-111.821913,30U,-5.873996,2.325951,0.016629,0.001866,-0.003438,2.777387,8
1422953210537911,1,INS_SOLUTION_GOOD,51.760203,-1.261461,111.830165,5735797.83018,619984.043116,-111.830165,30U,-5.857394,2.286892,-0.040952,0.000331,-0.007811,2.781014,8
1422953210850359,1,INS_SOLUTION_GOOD,51.760186,-1.26145,111.830395,5735795.97752,619984.810782,-111.830395,30U,-5.827798,2.277063,0.01976,0.001694,-0.008073,2.786749,8
1422953211225309,1,INS_SOLUTION_GOOD,51.760167,-1.261438,111.817813,5735793.85288,619985.679635,-111.817813,30U,-5.809471,2.238772,-0.005114,-0.006139,-0.010203,2.791751,8
1422953212850095,1,INS_SOLUTION_GOOD,51.760082,-1.261389,111.766699,5735784.50061,619989.311883,-111.766699,30U,-5.583671,1.956275,0.015278,-0.001969,-0.015165,2.813685,9
1422953213225046,1,INS_SOLUTION_GOOD,51.760064,-1.261379,111.739634,5735782.43373,619990.038459,-111.739634,30U,-5.522096,1.9236,-0.040495,-0.005375,-0.003218,2.817466,9
1422953213599995,1,INS_SOLUTION_GOOD,51.760045,-1.261369,111.752013,5735780.36497,619990.809148,-111.752013,30U,-5.460221,1.884549,0.119723,0.005744,-0.015041,2.822176,9
1422953213974948,1,INS_SOLUTION_GOOD,51.760026,-1.261359,111.722124,5735778.30914,619991.56558,-111.722124,30U,-5.437412,1.87309,0.031329,0.014984,-0.013622,2.827484,9
1422953214349899,1,INS_SOLUTION_GOOD,51.760007,-1.261348,111.707857,5735776.20591,619992.321555,-111.707857,30U,-5.457072,1.816464,0.143735,0.023205,-0.018193,2.830225,9
1422953216099669,1,INS_SOLUTION_GOOD,51.759919,-1.261303,111.583555,5735766.45231,619995.664601,-111.583555,30U,-5.639292,1.762673,0.0579,0.026135,-0.016286,2.849328,10
1422953216474620,1,INS_SOLUTION_GOOD,51.7599,-1.261294,111.553113,5735764.32779,619996.378801,-111.553113,30U,-5.631601,1.731357,0.104125,0.025195,-0.01606,2.853344,10
1422953216849571,1,INS_SOLUTION_GOOD,51.75988,-1.261284,111.522292,5735762.20825,619997.087078,-111.522292,30U,-5.622729,1.708883,0.086815,0.013132,-0.017177,2.856954,10
1422953217224522,1,INS_SOLUTION_GOOD,51.759861,-1.261276,111.501525,5735760.12339,619997.723383,-111.501525,30U,-5.632135,1.718408,0.091068,0.010441,-0.02034,2.859374,10
1422953217599472,1,INS_SOLUTION_GOOD,51.759842,-1.261266,111.460374,5735757.99067,619998.41278,-111.460374,30U,-5.678885,1.658782,0.132162,0.020427,-0.020897,2.860057,10
1422953219224259,1,INS_SOLUTION_GOOD,51.759757,-1.261228,111.398761,5735748.62426,620001.307081,-111.398761,30U,-5.800463,1.641316,0.118046,0.019872,-0.023679,2.873949,11
1422953219599210,1,INS_SOLUTION_GOOD,51.759738,-1.261219,111.344922,5735746.42849,620001.986256,-111.344922,30U,-5.839543,1.659295,0.139739,0.016013,-0.01919,2.87435,11
1422953219974160,1,INS_SOLUTION_GOOD,51.759718,-1.261209,111.305533,5735744.21936,620002.669208,-111.305533,30U,-5.878854,1.663535,0.149314,0.013239,-0.017306,2.875274,11
1422953220349111,1,INS_SOLUTION_GOOD,51.759697,-1.2612,111.298981,5735741.92743,620003.367401,-111.298981,30U,-5.909616,1.674316,0.119897,0.009268,-0.018256,2.874069,11
1422953220724062,1,INS_SOLUTION_GOOD,51.759678,-1.261191,111.259195,5735739.81647,620004.026004,-111.259195,30U,-5.910475,1.681613,0.102085,0.004399,-0.012203,2.87312,11
1422953222348850,1,INS_SOLUTION_GOOD,51.75959,-1.261152,111.282439,5735730.11213,620007.002194,-111.282439,30U,-5.639279,1.697313,0.050009,-0.009784,-0.016901,2.859497,12
1422953222723800,1,INS_SOLUTION_GOOD,51.759572,-1.261143,111.24681,5735728.11786,620007.657303,-111.24681,30U,-5.524896,1.667888,0.056278,-0.011907,-0.014087,2.856489,12
1422953223098751,1,INS_SOLUTION_GOOD,51.759552,-1.261134,111.361582,5735725.94023,620008.312407,-111.361582,30U,-5.407728,1.62132,0.075968,-0.011467,-0.01659,2.852997,12
1422953223473701,1,INS_SOLUTION_GOOD,51.759534,-1.261125,111.334359,5735723.93147,620008.989175,-111.334359,30U,-5.271822,1.623553,0.093898,-0.018517,-0.0173,2.851665,12
1422953223911145,1,INS_SOLUTION_GOOD,51.759513,-1.261115,111.298096,5735721.66832,620009.749819,-111.298096,30U,-5.066368,1.635025,0.055476,-0.015886,-0.020079,2.848312,12
1422953225973374,1,INS_SOLUTION_GOOD,51.759427,-1.261073,111.37325,5735712.17885,620012.871752,-111.37325,30U,-4.101685,1.3662,0.052382,-0.018365,-0.013982,2.831558,13
1422953226473308,1,INS_SOLUTION_GOOD,51.759408,-1.261064,111.473479,5735710.0798,620013.555964,-111.473479,30U,-3.895973,1.292262,0.044213,-0.014634,-0.012301,2.827586,13
1422953227035734,1,INS_SOLUTION_GOOD,51.75939,-1.261053,111.452113,5735708.00046,620014.311136,-111.452113,30U,-3.61856,1.182279,0.005352,-0.021338,-0.012593,2.823485,13
1422953227598160,1,INS_SOLUTION_GOOD,51.759371,-1.261044,111.506235,5735705.94273,620015.007234,-111.506235,30U,-3.477165,1.170233,0.021889,-0.035229,-0.019811,2.821783,13
1422953228160587,1,INS_SOLUTION_GOOD,51.759352,-1.261035,111.596999,5735703.86847,620015.692518,-111.596999,30U,-3.638053,1.252377,0.102638,-0.035549,-0.017911,2.824196,13
1422953230472783,1,INS_SOLUTION_GOOD,51.759265,-1.260989,111.696444,5735694.27617,620019.078399,-111.696444,30U,-4.449027,1.453046,0.038346,-0.034419,-0.016199,2.822466,14
1422953230910226,1,INS_SOLUTION_GOOD,51.759247,-1.260979,111.666431,5735692.31403,620019.796665,-111.666431,30U,-4.562867,1.541465,0.088594,-0.04054,-0.002842,2.822251,14
1422953231347668,1,INS_SOLUTION_GOOD,51.759229,-1.26097,111.774056,5735690.28067,620020.480248,-111.774056,30U,-4.662244,1.574756,0.044675,-0.028519,-0.009695,2.819258,14
1422953231785111,1,INS_SOLUTION_GOOD,51.75921,-1.26096,111.761066,5735688.22568,620021.23771,-111.761066,30U,-4.758062,1.650766,-0.025117,-0.030467,-0.010452,2.815189,14
1422953232160062,1,INS_SOLUTION_GOOD,51.759193,-1.26095,111.841568,5735686.35618,620021.972325,-111.841568,30U,-4.840067,1.690437,0.002948,-0.022462,-0.009234,2.810666,14
1422953234034816,1,INS_SOLUTION_GOOD,51.759108,-1.260899,111.885805,5735676.94112,620025.69331,-111.885805,30U,-5.208169,1.990551,-0.010387,-0.01966,-0.012589,2.782588,15
1422953234409767,1,INS_SOLUTION_GOOD,51.759089,-1.260887,111.955064,5735674.90576,620026.566457,-111.955064,30U,-5.261811,2.079131,0.014451,-0.01789,-0.016865,2.772427,15
1422953234784717,1,INS_SOLUTION_GOOD,51.759072,-1.260876,111.933987,5735673.02104,620027.371297,-111.933987,30U,-5.317964,2.155063,0.052132,-0.019268,-0.010023,2.758299,15
1422953235159669,1,INS_SOLUTION_GOOD,51.759054,-1.260863,111.966376,5735670.95996,620028.317582,-111.966376,30U,-5.391644,2.301333,0.020945,-0.026106,-0.007955,2.745612,15
1422953235534619,1,INS_SOLUTION_GOOD,51.759035,-1.26085,111.969436,5735668.92709,620029.255445,-111.969436,30U,-5.418559,2.385542,0.034977,-0.028979,-0.010746,2.73255,15
1422953236846947,1,INS_SOLUTION_GOOD,51.758972,-1.260801,111.965614,5735661.95751,620032.823164,-111.965614,30U,-5.369143,2.710937,-0.06045,-0.031549,-0.005085,2.681484,16
1422953237221898,1,INS_SOLUTION_GOOD,51.758953,-1.260786,111.956977,5735659.94363,620033.954021,-111.956977,30U,-5.260605,2.758886,-0.016721,-0.025575,-0.008879,2.665092,16
1422953237596849,1,INS_SOLUTION_GOOD,51.758936,-1.26077,111.958621,5735658.00239,620035.052603,-111.958621,30U,-5.09387,2.773862,0.028374,-0.036043,-0.01217,2.658757,16
1422953237971800,1,INS_SOLUTION_GOOD,51.758918,-1.260755,111.947839,5735656.10752,620036.123226,-111.947839,30U,-4.970961,2.702374,0.030227,-0.034136,-0.004728,2.660338,16
1422953238346750,1,INS_SOLUTION_GOOD,51.758902,-1.260742,112.057268,5735654.26094,620037.084222,-112.057268,30U,-4.867798,2.59213,0.00172,-0.038087,-0.008274,2.664101,16
1422953240283997,1,INS_SOLUTION_GOOD,51.758821,-1.260673,112.05834,5735645.35043,620042.069392,-112.05834,30U,-4.550742,2.300631,-0.041863,-0.030031,-0.006637,2.670368,17
1422953240721439,1,INS_SOLUTION_GOOD,51.758803,-1.260658,112.059393,5735643.39074,620043.15617,-112.059393,30U,-4.509589,2.363588,-0.004986,-0.02919,-0.011977,2.668036,17
1422953241158881,1,INS_SOLUTION_GOOD,51.758784,-1.260643,112.071983,5735641.36767,620044.260928,-112.071983,30U,-4.537457,2.407382,-0.053574,-0.028639,-0.007453,2.663097,17
1422953241596324,1,INS_SOLUTION_GOOD,51.758766,-1.260627,112.07017,5735639.38574,620045.37932,-112.07017,30U,-4.575273,2.494603,-0.000788,-0.031526,-0.010967,2.664164,17
1422953242033766,1,INS_SOLUTION_GOOD,51.758748,-1.260612,112.055335,5735637.36496,620046.500766,-112.055335,30U,-4.678596,2.439396,-0.026092,-0.02437,-0.003163,2.67268,17
1422953243908520,1,INS_SOLUTION_GOOD,51.758666,-1.260547,112.23018,5735628.36237,620051.146726,-112.23018,30U,-4.930064,2.312239,-0.032786,-0.03763,-0.009879,2.706626,18
1422953244283471,1,INS_SOLUTION_GOOD,51.758649,-1.260535,112.215116,5735626.47861,620052.040956,-112.215116,30U,-4.901874,2.295432,0.009372,-0.040964,-0.008729,2.713964,18
1422953244658423,1,INS_SOLUTION_GOOD,51.758632,-1.260523,112.214776,5735624.64035,620052.944739,-112.214776,30U,-4.8847,2.245466,0.007992,-0.03805,-0.009696,2.720401,18
1422953245033374,1,INS_SOLUTION_GOOD,51.758615,-1.26051,112.213401,5735622.80002,620053.836329,-112.213401,30U,-4.921904,2.211517,0.012097,-0.037995,-0.011279,2.7266,18
1422953245470816,1,INS_SOLUTION_GOOD,51.758596,-1.260496,112.144393,5735620.66546,620054.854268,-112.144393,30U,-4.934021,2.176514,0.040343,-0.034334,-0.01455,2.733535,18
1422953247408062,1,INS_SOLUTION_GOOD,51.758511,-1.260441,112.164905,5735611.35717,620058.920663,-112.164905,30U,-4.685573,1.911221,0.07254,-0.03718,-0.018095,2.757877,19
1422953247845504,1,INS_SOLUTION_GOOD,51.758493,-1.260429,112.140055,5735609.32131,620059.812374,-112.140055,30U,-4.677268,1.882973,-0.007815,-0.039993,-0.020014,2.762253,19
1422953248282947,1,INS_SOLUTION_GOOD,51.758474,-1.260416,112.071835,5735607.29165,620060.730034,-112.071835,30U,-4.663741,1.903331,0.079006,-0.038348,-0.01155,2.764866,19
1422953248720389,1,INS_SOLUTION_GOOD,51.758456,-1.260404,112.053827,5735605.25018,620061.608416,-112.053827,30U,-4.673844,1.915084,-0.103217,-0.037906,-0.007629,2.7633,19
1422953249157833,1,INS_SOLUTION_GOOD,51.758437,-1.260392,111.974087,5735603.13606,620062.507906,-111.974087,30U,-4.699194,1.910842,0.042513,-0.043032,-0.009739,2.760798,19
1422953251157571,1,INS_SOLUTION_GOOD,51.75835,-1.260337,111.975386,5735593.60678,620066.50405,-111.975386,30U,-4.80129,1.909146,0.083899,-0.039834,-0.014042,2.768811,20
1422953251595013,1,INS_SOLUTION_GOOD,51.758331,-1.260325,111.966493,5735591.51558,620067.39013,-111.966493,30U,-4.795455,1.881635,0.023881,-0.038978,-0.01657,2.772085,20
1422953252032455,1,INS_SOLUTION_GOOD,51.758312,-1.260313,111.948228,5735589.43255,620068.265482,-111.948228,30U,-4.769028,1.852117,0.009006,-0.041233,-0.013797,2.774866,20
1422953252469898,1,INS_SOLUTION_GOOD,51.758293,-1.260302,111.88788,5735587.30925,620069.103159,-111.88788,30U,-4.724238,1.826433,0.00885,-0.042195,-0.010354,2.778392,20
1422953252907340,1,INS_SOLUTION_GOOD,51.758275,-1.260291,111.8879,5735585.35724,620069.907033,-111.8879,30U,-4.650276,1.778068,0.006454,-0.041556,-0.010666,2.78171,20
1422953255282030,1,INS_SOLUTION_GOOD,51.758183,-1.260234,111.828043,5735575.12853,620074.094376,-111.828043,30U,-3.791388,1.626671,0.006463,-0.039758,-0.01435,2.734385,21
1422953255844455,1,INS_SOLUTION_GOOD,51.758165,-1.26022,111.822284,5735573.16603,620075.071398,-111.822284,30U,-3.338842,1.729002,0.01765,-0.036572,-0.015339,2.654884,21
1422953256406882,1,INS_SOLUTION_GOOD,51.758149,-1.260204,111.759293,5735571.43073,620076.194682,-111.759293,30U,-2.965935,2.007375,0.018977,-0.033068,-0.016202,2.53523,21
1422953257031799,1,INS_SOLUTION_GOOD,51.758133,-1.260185,111.745091,5735569.75299,620077.595699,-111.745091,30U,-2.354733,2.246502,0.019652,-0.012952,-0.019521,2.362882,21
1422953257719209,1,INS_SOLUTION_GOOD,51.758122,-1.260161,111.700839,5735568.47132,620079.239401,-111.700839,30U,-1.587124,2.329573,0.014782,-0.016543,-0.018941,2.152427,21
1422953260906291,1,INS_SOLUTION_GOOD,51.75812,-1.260023,111.618965,5735568.55428,620088.813194,-111.618965,30U,2.232762,3.404446,0.007464,0.021423,-0.013499,0.958304,22
1422953261406226,1,INS_SOLUTION_GOOD,51.758133,-1.26,111.618867,5735569.99117,620090.336549,-111.618867,30U,3.262187,2.925438,0.100805,0.013566,-0.0247,0.704021,22
1422953261906162,1,INS_SOLUTION_GOOD,51.75815,-1.259981,111.588685,5735571.89337,620091.583709,-111.588685,30U,4.225361,2.13574,0.084202,0.036697,-0.021386,0.444354,22
1422953262343603,1,INS_SOLUTION_GOOD,51.758168,-1.259971,111.52476,5735573.97334,620092.230811,-111.52476,30U,4.96222,1.267149,0.035492,0.040544,-0.019442,0.225882,22
1422953262718554,1,INS_SOLUTION_GOOD,51.758186,-1.259966,111.506,5735575.96503,620092.52029,-111.506,30U,5.453589,0.595731,0.097256,0.025907,-0.020589,0.094204,22
1422953264405834,1,INS_SOLUTION_GOOD,51.758277,-1.259965,111.420079,5735586.10699,620092.404175,-111.420079,30U,6.43735,0.000831,0.039339,0.008692,-0.014394,0.004429,23
1422953264718291,1,INS_SOLUTION_GOOD,51.758296,-1.259964,111.416599,5735588.18436,620092.362501,-111.416599,30U,6.551227,0.035397,0.024941,0.007573,-0.017551,0.007409,23
1422953265030751,1,INS_SOLUTION_GOOD,51.758315,-1.259964,111.403137,5735590.29422,620092.325116,-111.403137,30U,6.637468,0.055663,0.040791,0.006812,-0.015514,0.010373,23
1422953265343210,1,INS_SOLUTION_GOOD,51.758333,-1.259964,111.330421,5735592.3061,620092.303612,-111.330421,30U,6.69956,0.049359,0.031965,0.006571,-0.0148,0.010544,23
1422953265655668,1,INS_SOLUTION_GOOD,51.758352,-1.259964,111.321909,5735594.46039,620092.268251,-111.321909,30U,6.769548,0.03322,0.029505,0.003717,-0.017399,0.00924,23
1422953267155472,1,INS_SOLUTION_GOOD,51.758445,-1.259963,111.270401,5735604.80806,620092.063146,-111.270401,30U,7.051123,0.011476,0.011533,-0.006458,-0.014597,0.005136,24
1422953267467931,1,INS_SOLUTION_GOOD,51.758464,-1.259963,111.264561,5735606.92893,620092.015245,-111.264561,30U,7.094373,0.024469,0.013921,-0.008427,-0.014478,0.007072,24
1422953267780390,1,INS_SOLUTION_GOOD,51.758485,-1.259963,111.257818,5735609.20512,620091.970865,-111.257818,30U,7.135701,0.003319,0.006383,-0.003976,-0.009496,0.006304,24
1422953268092849,1,INS_SOLUTION_GOOD,51.758506,-1.259963,111.264059,5735611.49322,620091.918945,-111.264059,30U,7.169477,0.002987,-0.006174,-0.002767,-0.010973,0.005593,24
1422953268405308,1,INS_SOLUTION_GOOD,51.758525,-1.259962,111.252372,5735613.64754,620091.912322,-111.252372,30U,7.19551,-0.001126,-0.01888,0.00497,-0.009188,0.004616,24
1422953269842619,1,INS_SOLUTION_GOOD,51.758619,-1.259962,111.32474,5735624.06502,620091.675408,-111.32474,30U,7.322344,-0.057353,-0.027427,0.015927,-0.012401,6.282407,25
1422953270155079,1,INS_SOLUTION_GOOD,51.758639,-1.259962,111.347492,5735626.38419,620091.621107,-111.347492,30U,7.354598,-0.041433,0.00589,0.022691,-0.00904,6.281174,25
1422953270467538,1,INS_SOLUTION_GOOD,51.758659,-1.259962,111.35628,5735628.59261,620091.551775,-111.35628,30U,7.378183,-0.051126,-0.039343,0.018304,-0.009853,6.279875,25
1422953270779996,1,INS_SOLUTION_GOOD,51.758681,-1.259963,111.365229,5735630.95477,620091.473722,-111.365229,30U,7.3963,-0.089966,-0.028222,0.015324,-0.008245,6.279453,25
1422953271092456,1,INS_SOLUTION_GOOD,51.758702,-1.259963,111.392765,5735633.32156,620091.417312,-111.392765,30U,7.413426,-0.09566,-0.0347,0.012237,-0.006468,6.27883,25
1422953272779736,1,INS_SOLUTION_GOOD,51.758816,-1.259965,111.481708,5735646.07022,620090.964665,-111.481708,30U,7.772124,-0.102595,-0.0698,0.019576,-0.007499,6.275325,26
1422953273029701,1,INS_SOLUTION_GOOD,51.758835,-1.259965,111.471621,5735648.07656,620090.898235,-111.471621,30U,7.800541,-0.110823,-0.027808,0.017529,-0.004892,6.274044,26
1422953273342161,1,INS_SOLUTION_GOOD,51.758856,-1.259966,111.490643,5735650.41877,620090.803392,-111.490643,30U,7.823674,-0.136557,-0.080974,0.01637,-0.00128,6.27284,26
1422953273592128,1,INS_SOLUTION_GOOD,51.758874,-1.259966,111.518059,5735652.45128,620090.71835,-111.518059,30U,7.826491,-0.149655,-0.105161,0.018764,-0.003827,6.270357,26
1422953273904587,1,INS_SOLUTION_GOOD,51.758895,-1.259967,111.541216,5735654.79728,620090.610751,-111.541216,30U,7.828616,-0.181521,-0.069402,0.011563,-0.00051,6.267003,26
1422953275216915,1,INS_SOLUTION_GOOD,51.758987,-1.259969,111.614964,5735665.07065,620090.178373,-111.614964,30U,7.796053,-0.322585,-0.084954,0.008355,-0.001658,6.248649,27
1422953275529374,1,INS_SOLUTION_GOOD,51.75901,-1.259971,111.644189,5735667.55816,620090.007722,-111.644189,30U,7.778235,-0.37154,-0.084421,0.005396,-0.000747,6.242946,27
1422953275841834,1,INS_SOLUTION_GOOD,51.759031,-1.259973,111.672042,5735669.8845,620089.832759,-111.672042,30U,7.749319,-0.425751,-0.090589,0.000171,-0.001426,6.237172,27
1422953276091800,1,INS_SOLUTION_GOOD,51.759049,-1.259974,111.709087,5735671.87977,620089.706786,-111.709087,30U,7.729921,-0.468967,-0.073126,-0.002961,0.000457,6.230648,27
1422953276404259,1,INS_SOLUTION_GOOD,51.75907,-1.259976,111.744163,5735674.18783,620089.50379,-111.744163,30U,7.69401,-0.521927,-0.061002,-0.002179,-0.005048,6.223761,27
1422953277716587,1,INS_SOLUTION_GOOD,51.75916,-1.259989,111.888599,5735684.19103,620088.376443,-111.888599,30U,7.549563,-0.815877,-0.073213,-0.018031,-0.004734,6.187454,28
1422953278029046,1,INS_SOLUTION_GOOD,51.759181,-1.259993,111.910128,5735686.58546,620088.074523,-111.910128,30U,7.510698,-0.867942,0.002672,-0.025632,-0.002454,6.177595,28
1422953278341505,1,INS_SOLUTION_GOOD,51.759201,-1.259996,111.930349,5735688.82485,620087.747431,-111.930349,30U,7.471129,-0.924431,-0.15231,-0.031297,-0.002009,6.170271,28
1422953278653964,1,INS_SOLUTION_GOOD,51.759223,-1.260001,111.961285,5735691.20488,620087.381747,-111.961285,30U,7.469358,-0.986665,0.004561,-0.033696,-0.010101,6.164304,28
1422953278966423,1,INS_SOLUTION_GOOD,51.759243,-1.260005,111.964219,5735693.44306,620087.028483,-111.964219,30U,7.498153,-1.047003,-0.05102,-0.031434,-0.002911,6.159569,28
1422953280278751,1,INS_SOLUTION_GOOD,51.759333,-1.260024,112.18505,5735703.37388,620085.495794,-112.18505,30U,7.660183,-1.181227,-0.050933,-0.035966,-0.003303,6.1428,29
1422953280591210,1,INS_SOLUTION_GOOD,51.759355,-1.26003,112.208788,5735705.82619,620085.058822,-112.208788,30U,7.742236,-1.165127,-0.083748,-0.033365,-0.0021,6.140778,29
1422953280903669,1,INS_SOLUTION_GOOD,51.759376,-1.260035,112.235493,5735708.14881,620084.642181,-112.235493,30U,7.820005,-1.187001,-0.118916,-0.031976,-0.002364,6.141808,29
1422953281153637,1,INS_SOLUTION_GOOD,51.759395,-1.260038,112.200704,5735710.25362,620084.349055,-112.200704,30U,7.903615,-1.208773,-0.071808,-0.026497,-0.003197,6.142479,29
1422953281466095,1,INS_SOLUTION_GOOD,51.759416,-1.260044,112.224001,5735712.62963,620083.92865,-112.224001,30U,8.008551,-1.205771,-0.071031,-0.022339,-0.009009,6.143245,29
1422953282653440,1,INS_SOLUTION_GOOD,51.759506,-1.260064,112.256932,5735722.55452,620082.247573,-112.256932,30U,8.585168,-1.228332,0.01829,-0.011814,-0.018211,6.151415,30
1422953282903407,1,INS_SOLUTION_GOOD,51.759524,-1.260069,112.244742,5735724.62276,620081.902358,-112.244742,30U,8.719862,-1.244569,0.069192,-0.01213,-0.017558,6.154129,30
1422953283153374,1,INS_SOLUTION_GOOD,51.759545,-1.260072,112.213594,5735726.93675,620081.620646,-112.213594,30U,8.860012,-1.199448,0.044928,-0.01121,-0.015447,6.158332,30
1422953283403341,1,INS_SOLUTION_GOOD,51.759564,-1.260076,112.207126,5735729.06624,620081.284572,-112.207126,30U,8.952434,-1.17205,0.011475,-0.009203,-0.015393,6.162567,30
1422953283653309,1,INS_SOLUTION_GOOD,51.759585,-1.260081,112.201231,5735731.39571,620080.926862,-112.201231,30U,9.033403,-1.150466,0.031288,-0.009643,-0.014452,6.166934,30
1422953284778161,1,INS_SOLUTION_GOOD,51.759677,-1.260096,112.242078,5735741.53589,620079.647768,-112.242078,30U,9.129138,-0.943995,0.041952,-0.01744,-0.020861,6.191,31
1422953285028129,1,INS_SOLUTION_GOOD,51.759697,-1.260099,112.230576,5735743.72101,620079.376832,-112.230576,30U,9.137905,-0.889137,0.098564,-0.00889,-0.022485,6.194852,31
1422953285278096,1,INS_SOLUTION_GOOD,51.759718,-1.2601,112.337251,5735746.07207,620079.230756,-112.337251,30U,9.13412,-0.856593,-0.01074,-0.003069,-0.014882,6.195933,31
1422953285528063,1,INS_SOLUTION_GOOD,51.759737,-1.260103,112.340527,5735748.25711,620078.97299,-112.340527,30U,9.126648,-0.856965,-0.015648,0.00149,-0.013786,6.19711,31
1422953285778031,1,INS_SOLUTION_GOOD,51.759759,-1.260106,112.347934,5735750.6183,620078.69418,-112.347934,30U,9.090758,-0.849106,-0.01573,-0.00225,-0.014265,6.197276,31
1422953286902882,1,INS_SOLUTION_GOOD,51.759849,-1.26012,112.384568,5735760.6706,620077.517832,-112.384568,30U,8.957128,-0.795926,0.030899,-0.007101,-0.009197,6.200541,32
1422953287152850,1,INS_SOLUTION_GOOD,51.75987,-1.260122,112.422961,5735762.99623,620077.313152,-112.422961,30U,8.940456,-0.808401,-0.139293,-0.009597,-0.011294,6.202304,32
1422953287402817,1,INS_SOLUTION_GOOD,51.75989,-1.260125,112.441045,5735765.13659,620077.074547,-112.441045,30U,8.944684,-0.791,-0.005019,-0.003846,-0.015363,6.203338,32
1422953287652785,1,INS_SOLUTION_GOOD,51.75991,-1.260128,112.443903,5735767.4543,620076.812442,-112.443903,30U,8.940547,-0.776468,-0.009501,-0.013593,-0.022537,6.205881,32
1422953287902752,1,INS_SOLUTION_GOOD,51.75993,-1.26013,112.426413,5735769.592,620076.575791,-112.426413,30U,8.921399,-0.709736,0.004784,-0.013049,-0.009292,6.208551,32
1422953289090096,1,INS_SOLUTION_GOOD,51.760025,-1.26014,112.623895,5735780.21041,620075.648462,-112.623895,30U,8.833303,-0.588637,-0.089119,-0.00437,-0.017542,6.225588,33
1422953289340063,1,INS_SOLUTION_GOOD,51.760044,-1.260142,112.622984,5735782.32382,620075.462646,-112.622984,30U,8.816702,-0.531124,0.026199,-0.005304,-0.007263,6.227889,33
1422953289590032,1,INS_SOLUTION_GOOD,51.760065,-1.260144,112.647171,5735784.60595,620075.265689,-112.647171,30U,8.785179,-0.521239,-0.149896,-0.007851,-0.01539,6.232319,33
1422953289839998,1,INS_SOLUTION_GOOD,51.760084,-1.260146,112.657405,5735786.71014,620075.092977,-112.657405,30U,8.780155,-0.504269,0.012701,-0.011063,-0.011628,6.23429,33
1422953290089977,1,INS_SOLUTION_GOOD,51.760104,-1.260147,112.569785,5735789.00414,620074.9774,-112.569785,30U,8.763511,-0.466522,-0.103026,0.000918,-0.018969,6.236291,33
1422953291277310,1,INS_SOLUTION_GOOD,51.760197,-1.260154,112.622272,5735799.33364,620074.240463,-112.622272,30U,8.749839,-0.491247,-0.074655,-0.001443,-0.012622,6.234121,34
1422953291527276,1,INS_SOLUTION_GOOD,51.760216,-1.260156,112.633505,5735801.43006,620074.072066,-112.633505,30U,8.7513,-0.492575,-0.032383,-0.001506,-0.014542,6.233909,34
1422953291777243,1,INS_SOLUTION_GOOD,51.760237,-1.260157,112.641041,5735803.70238,620073.890129,-112.641041,30U,8.75842,-0.504597,-0.019866,-0.000695,-0.015957,6.234073,34
1422953292027211,1,INS_SOLUTION_GOOD,51.760255,-1.260158,112.741733,5735805.77505,620073.813256,-112.741733,30U,8.764013,-0.483063,-0.024564,0.0005,-0.016417,6.234164,34
1422953292277178,1,INS_SOLUTION_GOOD,51.760276,-1.26016,112.748354,5735808.05223,620073.633828,-112.748354,30U,8.776477,-0.475958,-0.000417,-0.000462,-0.026551,6.234684,34
1422953293464523,1,INS_SOLUTION_GOOD,51.760369,-1.260167,112.831229,5735818.36746,620072.907886,-112.831229,30U,8.712862,-0.476455,-0.093721,0.007884,-0.017989,6.232927,35
1422953293714491,1,INS_SOLUTION_GOOD,51.760389,-1.260168,112.836147,5735820.62429,620072.728763,-112.836147,30U,8.683065,-0.484712,0.011985,0.007862,-0.01854,6.233258,35
1422953293964457,1,INS_SOLUTION_GOOD,51.760408,-1.26017,112.837052,5735822.70121,620072.564384,-112.837052,30U,8.659156,-0.48162,-0.009754,0.007294,-0.018456,6.232509,35
1422953294214425,1,INS_SOLUTION_GOOD,51.760429,-1.260171,112.739527,5735825.01945,620072.450571,-112.739527,30U,8.638268,-0.478091,-0.009544,0.007525,-0.01766,6.232233,35
1422953294464392,1,INS_SOLUTION_GOOD,51.760447,-1.260173,112.741099,5735827.08642,620072.286862,-112.741099,30U,8.617284,-0.477008,-0.00183,0.006324,-0.016439,6.232106,35
1422953295839212,1,INS_SOLUTION_GOOD,51.760554,-1.260182,112.767197,5735838.98907,620071.364613,-112.767197,30U,8.523699,-0.560798,-0.013833,0.006405,-0.020611,6.222269,36
1422953296089179,1,INS_SOLUTION_GOOD,51.760575,-1.260183,112.689006,5735841.24271,620071.252323,-112.689006,30U,8.521582,-0.552646,0.012036,0.009169,-0.015671,6.221019,36
1422953296339145,1,INS_SOLUTION_GOOD,51.760593,-1.260185,112.69405,5735843.28211,620071.069937,-112.69405,30U,8.510686,-0.55449,-0.042091,0.010208,-0.017318,6.220546,36
1422953296589113,1,INS_SOLUTION_GOOD,51.760613,-1.260187,112.698476,5735845.48899,620070.870586,-112.698476,30U,8.502226,-0.564583,-0.001875,0.00923,-0.018134,6.21971,36
1422953296839080,1,INS_SOLUTION_GOOD,51.760631,-1.260189,112.700934,5735847.5243,620070.684759,-112.700934,30U,8.492653,-0.577297,0.007145,0.009666,-0.022693,6.219029,36
1422953298088916,1,INS_SOLUTION_GOOD,51.760727,-1.260198,112.791382,5735858.12547,620069.784086,-112.791382,30U,8.473537,-0.616803,-0.011891,0.007378,-0.017336,6.213145,37
1422953298338883,1,INS_SOLUTION_GOOD,51.760745,-1.2602,112.794464,5735860.15396,620069.586541,-112.794464,30U,8.466526,-0.624243,-0.010916,0.009291,-0.016293,6.212056,37
1422953298588851,1,INS_SOLUTION_GOOD,51.760765,-1.260203,112.799877,5735862.34922,620069.369766,-112.799877,30U,8.459198,-0.624568,-0.044012,0.008794,-0.015597,6.213234,37
1422953298838818,1,INS_SOLUTION_GOOD,51.760783,-1.260205,112.808686,5735864.37429,620069.17546,-112.808686,30U,8.454579,-0.575934,-0.029865,0.01194,-0.016557,6.217279,37
1422953299088785,1,INS_SOLUTION_GOOD,51.760803,-1.260205,112.508408,5735866.53848,620069.083924,-112.508408,30U,8.465856,-0.538691,-0.02251,0.013376,-0.020863,6.222568,37
1422953300276130,1,INS_SOLUTION_GOOD,51.760894,-1.260213,112.485509,5735876.64599,620068.325368,-112.485509,30U,8.360434,-0.466144,-0.007867,0.013578,-0.013848,6.229007,38
1422953300526097,1,INS_SOLUTION_GOOD,51.760912,-1.260215,112.491934,5735878.64483,620068.164218,-112.491934,30U,8.327493,-0.483798,-0.04081,0.01091,-0.014423,6.227894,38
1422953300776064,1,INS_SOLUTION_GOOD,51.760931,-1.260216,112.50089,5735880.80132,620067.988071,-112.50089,30U,8.294846,-0.503262,-0.003771,0.010449,-0.018206,6.224859,38
1422953301088523,1,INS_SOLUTION_GOOD,51.760953,-1.260218,112.528158,5735883.27602,620067.818759,-112.528158,30U,8.258316,-0.529491,0.022288,0.011159,-0.01975,6.219817,38
1422953301338490,1,INS_SOLUTION_GOOD,51.760973,-1.26022,112.522996,5735885.41361,620067.62746,-112.522996,30U,8.21981,-0.582862,-0.002355,0.015421,-0.014204,6.215313,38
1422953302650819,1,INS_SOLUTION_GOOD,51.761067,-1.260232,112.54594,5735895.95361,620066.56171,-112.54594,30U,7.754104,-0.719524,0.12473,-0.013967,-0.017388,6.196446,39
1422953302963277,1,INS_SOLUTION_GOOD,51.761088,-1.260235,112.552483,5735898.25375,620066.293624,-112.552483,30U,7.588349,-0.702338,-0.057415,-0.016093,-0.020646,6.194412,39
1422953303275737,1,INS_SOLUTION_GOOD,51.761109,-1.260238,112.529197,5735900.61103,620066.041027,-112.529197,30U,7.280696,-0.652645,0.012033,-0.016415,-0.021797,6.19632,39
1422953303588196,1,INS_SOLUTION_GOOD,51.761129,-1.26024,112.528738,5735902.74751,620065.799328,-112.528738,30U,6.997547,-0.624556,0.012229,-0.015281,-0.022639,6.196118,39
1422953303900655,1,INS_SOLUTION_GOOD,51.761148,-1.260243,112.527166,5735904.93637,620065.548532,-112.527166,30U,6.722466,-0.601839,-0.002824,-0.016866,-0.015019,6.1945,39
1422953305587934,1,INS_SOLUTION_GOOD,51.761239,-1.260254,112.599442,5735914.97951,620064.589466,-112.599442,30U,5.292641,-0.407022,-0.077782,-0.017848,-0.019627,6.209874,40
1422953306025376,1,INS_SOLUTION_GOOD,51.761259,-1.260256,112.616983,5735917.19989,620064.372273,-112.616983,30U,4.827392,-0.35911,-0.001917,-0.014734,-0.017727,6.21291,40
1422953306462819,1,INS_SOLUTION_GOOD,51.761277,-1.260257,112.601029,5735919.26412,620064.247533,-112.601029,30U,4.354212,-0.310151,-0.033142,-0.015872,-0.017021,6.218338,40
1422953306962753,1,INS_SOLUTION_GOOD,51.761296,-1.260259,112.620745,5735921.30363,620064.07322,-112.620745,30U,3.821493,-0.221544,-0.040048,-0.01356,-0.014235,6.221091,40
1422953307587671,1,INS_SOLUTION_GOOD,51.761315,-1.26026,112.622437,5735923.47774,620063.928278,-112.622437,30U,3.231707,-0.217304,-0.071211,-0.010969,-0.016066,6.217034,40
1422953320148525,1,INS_SOLUTION_GOOD,51.761405,-1.260271,112.463225,5735933.4392,620062.923796,-112.463225,30U,-0.021336,-0.026526,-0.047528,-0.006919,-0.006462,6.172254,41
1422953328522429,1,INS_SOLUTION_GOOD,51.761418,-1.260273,112.100893,5735934.89885,620062.800558,-112.100893,30U,1.307632,-0.181503,-0.01299,-0.006536,-0.001205,6.169066,41
1422953329522297,1,INS_SOLUTION_GOOD,51.761436,-1.260277,112.200832,5735936.85793,620062.443569,-112.200832,30U,2.480967,-0.354647,-0.000223,-0.007591,-0.004206,6.167445,41
1422953330209707,1,INS_SOLUTION_GOOD,51.761455,-1.260282,112.288762,5735938.9726,620062.082386,-112.288762,30U,3.364268,-0.441236,-0.014493,-0.007645,-0.004846,6.166244,41
1422953330772134,1,INS_SOLUTION_GOOD,51.761474,-1.260286,112.290711,5735941.05514,620061.754451,-112.290711,30U,4.113658,-0.538161,0.042842,-0.012444,-0.00556,6.165281,41
1422953332709380,1,INS_SOLUTION_GOOD,51.761563,-1.260305,112.466792,5735950.98211,620060.182151,-112.466792,30U,5.523417,-0.807845,-0.09282,-0.011536,0.000567,6.152039,42
1422953333084331,1,INS_SOLUTION_GOOD,51.761582,-1.260309,112.575222,5735952.99508,620059.848308,-112.575222,30U,5.401167,-0.848638,-0.067126,-0.017301,-0.012136,6.144607,42
1422953333459281,1,INS_SOLUTION_GOOD,51.7616,-1.260314,112.576245,5735955.0155,620059.475082,-112.576245,30U,5.279512,-0.876036,0.018255,-0.015165,-0.013206,6.133499,42
1422953333834232,1,INS_SOLUTION_GOOD,51.761618,-1.260319,112.553237,5735957.03925,620059.075469,-112.553237,30U,5.45826,-0.976158,-0.021243,-0.025142,0.003531,6.127628,42
1422953334209183,1,INS_SOLUTION_GOOD,51.761637,-1.260324,112.669864,5735959.17985,620058.712812,-112.669864,30U,5.609182,-0.984843,-0.039668,-0.014574,-0.009935,6.130262,42
1422953335958954,1,INS_SOLUTION_GOOD,51.761727,-1.260347,112.759025,5735969.14035,620056.847567,-112.759025,30U,5.616831,-0.954716,0.016747,-0.021078,-0.015109,6.130734,43
1422953336333904,1,INS_SOLUTION_GOOD,51.761746,-1.260352,112.719698,5735971.16622,620056.477913,-112.719698,30U,5.49019,-0.945331,0.057199,-0.020342,-0.012456,6.130238,43
1422953336771347,1,INS_SOLUTION_GOOD,51.761767,-1.260358,112.716252,5735973.50742,620056.01324,-112.716252,30U,5.171094,-0.895661,0.012817,-0.023931,-0.012087,6.13214,43
1422953337208791,1,INS_SOLUTION_GOOD,51.761785,-1.260362,112.634004,5735975.5809,620055.680757,-112.634004,30U,4.881168,-0.751515,0.015682,-0.029779,-0.012464,6.156748,43
1422953337646233,1,INS_SOLUTION_GOOD,51.761804,-1.260366,112.630178,5735977.68967,620055.357313,-112.630178,30U,4.734687,-0.450645,-0.003673,-0.037512,-0.012053,6.218901,43
1422953339895938,1,INS_SOLUTION_GOOD,51.76189,-1.260329,112.62824,5735987.28933,620057.699319,-112.62824,30U,3.613206,2.822441,-0.052519,-0.011853,-0.00346,0.714552,44
1422953340333380,1,INS_SOLUTION_GOOD,51.761903,-1.260305,112.561341,5735988.74719,620059.302424,-112.561341,30U,3.027069,3.633348,-0.022458,-0.013624,-0.011734,0.913081,44
1422953340770823,1,INS_SOLUTION_GOOD,51.761914,-1.260279,112.55813,5735989.97791,620061.021898,-112.55813,30U,2.291409,4.31127,0.074025,-0.03405,-0.00643,1.116544,44
1422953341208265,1,INS_SOLUTION_GOOD,51.76192,-1.26025,112.466627,5735990.78288,620063.038386,-112.466627,30U,1.52644,4.824406,-0.08405,-0.038253,-0.001076,1.29921,44
1422953341645708,1,INS_SOLUTION_GOOD,51.761925,-1.260218,112.487183,5735991.31639,620065.224195,-112.487183,30U,0.723681,5.143639,0.008288,-0.035488,-0.000461,1.458916,44
1422953343520463,1,INS_SOLUTION_GOOD,51.761913,-1.260072,112.505102,5735990.28234,620075.374572,-112.505102,30U,-1.714224,5.111111,-0.014445,-0.002289,-0.004407,1.905123,45
1422953343895413,1,INS_SOLUTION_GOOD,51.761907,-1.260044,112.519171,5735989.58707,620077.316948,-112.519171,30U,-2.188159,5.029439,0.046726,0.001493,-0.023442,1.991124,45
1422953344270365,1,INS_SOLUTION_GOOD,51.761898,-1.260015,112.4687,5735988.67144,620079.297144,-112.4687,30U,-2.669091,4.874389,0.184337,0.0026,-0.040382,2.080243,45
1422953344645315,1,INS_SOLUTION_GOOD,51.761889,-1.25999,112.395666,5735987.67011,620081.045142,-112.395666,30U,-3.17305,4.667548,0.165159,-0.006827,-0.033881,2.173768,45
1422953345020266,1,INS_SOLUTION_GOOD,51.761877,-1.259965,112.339657,5735986.41283,620082.81297,-112.339657,30U,-3.704712,4.439944,0.139505,-0.011431,-0.037682,2.275835,45
1422953346832529,1,INS_SOLUTION_GOOD,51.761796,-1.259872,111.925274,5735977.53668,620089.469483,-111.925274,30U,-5.944222,2.555056,0.14798,-0.026498,-0.029364,2.737413,46
1422953347207480,1,INS_SOLUTION_GOOD,51.761776,-1.259859,111.837153,5735975.38499,620090.401483,-111.837153,30U,-6.165108,2.321892,0.133037,-0.022877,-0.027107,2.778951,46
1422953347519940,1,INS_SOLUTION_GOOD,51.761758,-1.259849,111.796556,5735973.40897,620091.170188,-111.796556,30U,-6.306283,2.169197,0.124204,-0.021332,-0.021132,2.808313,46
1422953347832398,1,INS_SOLUTION_GOOD,51.76174,-1.259839,111.762958,5735971.39099,620091.892181,-111.762958,30U,-6.397756,2.066342,0.060265,-0.022552,-0.012056,2.830034,46
1422953348144857,1,INS_SOLUTION_GOOD,51.761723,-1.25983,111.770458,5735969.48973,620092.540925,-111.770458,30U,-6.458579,1.97091,-0.004733,-0.022262,-0.011535,2.840032,46
1422953349644661,1,INS_SOLUTION_GOOD,51.761634,-1.259785,111.716653,5735959.71616,620095.857192,-111.716653,30U,-6.717885,2.138189,0.026363,-0.018555,-0.012846,2.828949,47
1422953349957120,1,INS_SOLUTION_GOOD,51.761615,-1.259775,111.707309,5735957.57515,620096.600889,-111.707309,30U,-6.7709,2.19486,0.02245,-0.018068,-0.015738,2.82378,47
1422953350269579,1,INS_SOLUTION_GOOD,51.761595,-1.259764,111.669476,5735955.40502,620097.424119,-111.669476,30U,-6.82435,2.239871,0.048806,-0.014977,-0.015847,2.817943,47
1422953350582037,1,INS_SOLUTION_GOOD,51.761577,-1.259754,111.653964,5735953.36833,620098.156141,-111.653964,30U,-6.875467,2.300231,0.05386,-0.011256,-0.016562,2.812377,47
1422953350894496,1,INS_SOLUTION_GOOD,51.761557,-1.259743,111.636419,5735951.18171,620098.956866,-111.636419,30U,-6.916372,2.366569,0.071223,-0.011922,-0.01415,2.805952,47
1422953352269317,1,INS_SOLUTION_GOOD,51.76147,-1.259692,111.679928,5735941.64067,620102.734195,-111.679928,30U,-7.075527,2.596703,0.061018,-0.009104,-0.013924,2.78549,48
1422953352581775,1,INS_SOLUTION_GOOD,51.761451,-1.259681,111.669548,5735939.53287,620103.567596,-111.669548,30U,-7.105817,2.627092,0.008575,-0.005373,-0.012787,2.782476,48
1422953352894235,1,INS_SOLUTION_GOOD,51.761431,-1.259668,111.663834,5735937.27547,620104.4689,-111.663834,30U,-7.136409,2.672807,0.045455,-0.006131,-0.013908,2.778035,48
1422953353206694,1,INS_SOLUTION_GOOD,51.761412,-1.259656,111.651186,5735935.17094,620105.376791,-111.651186,30U,-7.146216,2.735028,0.024626,-0.007753,-0.01008,2.772384,48
1422953353519154,1,INS_SOLUTION_GOOD,51.761391,-1.259643,111.651804,5735932.90453,620106.312367,-111.651804,30U,-7.15474,2.780099,-0.008961,-0.006853,-0.01042,2.766347,48
1422953354831481,1,INS_SOLUTION_GOOD,51.761307,-1.259588,111.685702,5735923.59919,620110.337074,-111.685702,30U,-7.119273,3.012453,0.058932,-0.006715,-0.017,2.735667,49
1422953355143940,1,INS_SOLUTION_GOOD,51.761288,-1.259574,111.578209,5735921.5671,620111.364898,-111.578209,30U,-7.093177,3.089801,0.061828,-0.005215,-0.012087,2.726782,49
1422953355393907,1,INS_SOLUTION_GOOD,51.761271,-1.259562,111.571751,5735919.74532,620112.218728,-111.571751,30U,-7.075816,3.153527,0.008292,-0.003946,-0.01101,2.718264,49
1422953355706367,1,INS_SOLUTION_GOOD,51.761252,-1.259548,111.569493,5735917.64962,620113.225118,-111.569493,30U,-7.060572,3.218733,0.036422,-0.005017,-0.013776,2.709855,49
1422953355956334,1,INS_SOLUTION_GOOD,51.761236,-1.259536,111.55863,5735915.83668,620114.111844,-111.55863,30U,-7.049029,3.265187,0.035928,-0.005703,-0.011452,2.704373,49
1422953357268661,1,INS_SOLUTION_GOOD,51.761154,-1.259473,111.588422,5735906.78447,620118.697016,-111.588422,30U,-6.934031,3.420808,0.015192,1e-05,-0.013461,2.679215,50
1422953357518627,1,INS_SOLUTION_GOOD,51.761137,-1.25946,111.580152,5735905.00777,620119.632784,-111.580152,30U,-6.898366,3.465008,0.026175,0.000551,-0.010698,2.67334,50
1422953357768596,1,INS_SOLUTION_GOOD,51.761121,-1.259447,111.576983,5735903.23717,620120.580943,-111.576983,30U,-6.89292,3.504734,0.009121,-6.3e-05,-0.010357,2.666017,50
1422953358081057,1,INS_SOLUTION_GOOD,51.761103,-1.259431,111.59459,5735901.18412,620121.726456,-111.59459,30U,-6.882241,3.578322,-0.001038,-0.002168,-0.010368,2.657657,50
1422953358331022,1,INS_SOLUTION_GOOD,51.761087,-1.259417,111.59393,5735899.41957,620122.707476,-111.59393,30U,-6.870657,3.639222,0.003459,-0.001751,-0.012484,2.650329,50
1422953359643351,1,INS_SOLUTION_GOOD,51.761007,-1.259345,111.589878,5735890.69645,620127.890373,-111.589878,30U,-6.754137,3.9626,0.038335,-0.007949,-0.012488,2.607807,51
1422953359893318,1,INS_SOLUTION_GOOD,51.760991,-1.25933,111.58169,5735888.97072,620128.969806,-111.58169,30U,-6.716989,4.027958,0.011393,-0.010156,-0.009414,2.599005,51
1422953360205777,1,INS_SOLUTION_GOOD,51.760974,-1.259311,111.625009,5735887.09072,620130.337017,-111.625009,30U,-6.681348,4.101373,-0.015438,-0.010821,-0.009453,2.589515,51
1422953360455745,1,INS_SOLUTION_GOOD,51.760959,-1.259296,111.628125,5735885.38277,620131.453366,-111.628125,30U,-6.658782,4.179242,0.009844,-0.012326,-0.012223,2.581568,51
1422953360768203,1,INS_SOLUTION_GOOD,51.760941,-1.259277,111.622937,5735883.41674,620132.759911,-111.622937,30U,-6.641987,4.243041,0.013558,-0.008588,-0.012925,2.573894,51
1422953362018040,1,INS_SOLUTION_GOOD,51.760865,-1.259197,111.623737,5735875.19151,620138.473795,-111.623737,30U,-6.610196,4.480952,0.001572,-0.000758,-0.012726,2.543783,52
1422953362330499,1,INS_SOLUTION_GOOD,51.760847,-1.259176,111.510399,5735873.14229,620140.010199,-111.510399,30U,-6.586663,4.549018,0.015684,-0.00551,-0.011931,2.534971,52
1422953362642958,1,INS_SOLUTION_GOOD,51.760829,-1.259156,111.507261,5735871.20602,620141.434986,-111.507261,30U,-6.560296,4.625402,0.03031,-0.009999,-0.012595,2.526838,52
1422953362892926,1,INS_SOLUTION_GOOD,51.760814,-1.259138,111.501553,5735869.53288,620142.684771,-111.501553,30U,-6.536964,4.683889,0.0045,-0.008923,-0.012577,2.519816,52
1422953363205384,1,INS_SOLUTION_GOOD,51.760796,-1.259118,111.496796,5735867.60904,620144.143438,-111.496796,30U,-6.522945,4.738238,0.029521,-0.005865,-0.011015,2.511892,52
1422953364455220,1,INS_SOLUTION_GOOD,51.760724,-1.259028,111.289163,5735859.6934,620150.530811,-111.289163,30U,-6.453794,4.903868,0.01763,-0.003957,-0.010821,2.491263,53
1422953364767679,1,INS_SOLUTION_GOOD,51.760706,-1.259007,111.288029,5735857.79844,620152.055413,-111.288029,30U,-6.425163,4.950891,0.033861,-0.008279,-0.015456,2.48789,53
1422953365017646,1,INS_SOLUTION_GOOD,51.760691,-1.258988,111.274602,5735856.1581,620153.382245,-111.274602,30U,-6.40841,4.976909,0.05108,-0.011725,-0.012663,2.484796,53
1422953365330106,1,INS_SOLUTION_GOOD,51.760673,-1.258965,111.219296,5735854.14673,620155.044276,-111.219296,30U,-6.407311,4.97277,0.048742,-0.014911,-0.013733,2.480974,53
1422953365642565,1,INS_SOLUTION_GOOD,51.760656,-1.258943,111.208588,5735852.26894,620156.586494,-111.208588,30U,-6.376055,4.979028,0.005807,-0.018256,-0.008665,2.478972,53
1422953366892401,1,INS_SOLUTION_GOOD,51.760584,-1.258851,111.161385,5735844.41784,620163.113656,-111.161385,30U,-6.334602,4.922013,0.036009,-0.009839,-0.009179,2.477069,54
1422953367142369,1,INS_SOLUTION_GOOD,51.76057,-1.258833,111.176321,5735842.90062,620164.42598,-111.176321,30U,-6.288901,4.947656,-0.06034,-0.004838,-0.01192,2.476069,54
1422953367392336,1,INS_SOLUTION_GOOD,51.760555,-1.258814,111.180514,5735841.29879,620165.748518,-111.180514,30U,-6.261996,4.949508,0.050404,0.00028,-0.01468,2.4739,54
1422953367704795,1,INS_SOLUTION_GOOD,51.760538,-1.258793,111.169675,5735839.46172,620167.276513,-111.169675,30U,-6.234144,4.93718,0.019137,-0.002806,-0.011062,2.472223,54
1422953367954762,1,INS_SOLUTION_GOOD,51.760524,-1.258774,111.169669,5735837.878,620168.599877,-111.169669,30U,-6.20677,4.924718,-0.021338,-0.007729,-0.012107,2.471118,54
1422953369267090,1,INS_SOLUTION_GOOD,51.760451,-1.258679,111.26068,5735829.96133,620175.358104,-111.26068,30U,-6.14553,4.959699,0.01112,-0.008387,-0.012635,2.465154,55
1422953369517058,1,INS_SOLUTION_GOOD,51.760437,-1.25866,111.255745,5735828.39609,620176.687166,-111.255745,30U,-6.149787,4.959206,-0.020585,-0.010079,-0.014736,2.463553,55
1422953369829516,1,INS_SOLUTION_GOOD,51.760419,-1.258637,111.248865,5735826.46993,620178.327196,-111.248865,30U,-6.153732,4.97718,0.071582,-0.009434,-0.016934,2.461812,55
1422953370141975,1,INS_SOLUTION_GOOD,51.760402,-1.258615,111.296012,5735824.64563,620179.910312,-111.296012,30U,-6.130319,5.012708,0.02443,-0.010464,-0.011279,2.459572,55
1422953370391943,1,INS_SOLUTION_GOOD,51.760388,-1.258596,111.29642,5735823.08269,620181.251368,-111.29642,30U,-6.128299,5.021582,-0.022434,-0.008542,-0.013883,2.457998,55
1422953372266697,1,INS_SOLUTION_GOOD,51.760286,-1.25846,111.214458,5735811.98075,620190.908226,-111.214458,30U,-6.032454,5.139356,0.038756,-0.008664,-0.014059,2.438105,56
1422953372516665,1,INS_SOLUTION_GOOD,51.760272,-1.258441,111.207697,5735810.4485,620192.283192,-111.207697,30U,-6.004132,5.159513,0.001391,-0.009149,-0.011658,2.434122,56
1422953372829123,1,INS_SOLUTION_GOOD,51.760255,-1.258417,111.21017,5735808.57149,620193.982393,-111.21017,30U,-5.978046,5.182525,-0.016824,-0.009838,-0.015586,2.429944,56
1422953373141583,1,INS_SOLUTION_GOOD,51.760239,-1.258394,111.174779,5735806.83713,620195.580703,-111.174779,30U,-5.963478,5.211632,0.07362,-0.009302,-0.019352,2.425127,56
1422953373391550,1,INS_SOLUTION_GOOD,51.760225,-1.258374,111.158999,5735805.32363,620196.976282,-111.158999,30U,-5.962992,5.22074,0.057395,-0.009148,-0.018686,2.421275,56
1422953374703878,1,INS_SOLUTION_GOOD,51.760156,-1.258274,111.100759,5735797.8405,620204.074318,-111.100759,30U,-5.844864,5.382693,0.054044,-0.006991,-0.01853,2.398943,57
1422953374953845,1,INS_SOLUTION_GOOD,51.760143,-1.258254,111.085396,5735796.35757,620205.51184,-111.085396,30U,-5.819493,5.410778,0.04769,-0.003619,-0.01512,2.39334,57
1422953375266304,1,INS_SOLUTION_GOOD,51.760127,-1.25823,111.048604,5735794.66666,620207.181198,-111.048604,30U,-5.773559,5.446673,0.029054,-0.000828,-0.015188,2.385107,57
1422953375516271,1,INS_SOLUTION_GOOD,51.760114,-1.25821,111.038932,5735793.20724,620208.637957,-111.038932,30U,-5.719054,5.490939,0.024586,0.002224,-0.009942,2.376209,57
1422953375828731,1,INS_SOLUTION_GOOD,51.760098,-1.258186,111.042435,5735791.54463,620210.331955,-111.042435,30U,-5.639683,5.533788,-0.029775,0.003905,-0.010441,2.363415,57
1422953377141059,1,INS_SOLUTION_GOOD,51.760035,-1.258078,110.875587,5735784.64663,620217.898779,-110.875587,30U,-5.189702,5.821442,0.024272,0.013471,-0.01292,2.297825,58
1422953377391026,1,INS_SOLUTION_GOOD,51.760023,-1.258056,110.872633,5735783.3436,620219.447347,-110.872633,30U,-5.109808,5.850684,0.024491,0.014004,-0.011658,2.286724,58
1422953377703485,1,INS_SOLUTION_GOOD,51.760009,-1.258031,110.870448,5735781.87081,620221.243981,-110.870448,30U,-4.994485,5.8796,-0.012407,0.012228,-0.010324,2.273925,58
1422953378015944,1,INS_SOLUTION_GOOD,51.759995,-1.258004,110.779765,5735780.35965,620223.137414,-110.779765,30U,-4.844418,5.864587,-0.017567,0.010758,-0.011764,2.260324,58
1422953378328403,1,INS_SOLUTION_GOOD,51.759982,-1.257979,110.782229,5735778.97094,620224.92666,-110.782229,30U,-4.70777,5.834616,0.019112,0.007822,-0.013739,2.249473,58
1422953379703223,1,INS_SOLUTION_GOOD,51.759927,-1.257865,110.732536,5735772.97865,620232.936474,-110.732536,30U,-4.415757,5.600365,0.054868,0.001482,-0.014276,2.239738,59
1422953380015683,1,INS_SOLUTION_GOOD,51.759914,-1.257839,110.721273,5735771.59628,620234.775052,-110.721273,30U,-4.499462,5.679202,0.027771,0.001911,-0.013869,2.243795,59
1422953380328143,1,INS_SOLUTION_GOOD,51.759902,-1.257814,110.64803,5735770.29572,620236.51224,-110.64803,30U,-4.573719,5.705158,0.048686,0.004725,-0.012011,2.249143,59
1422953380640601,1,INS_SOLUTION_GOOD,51.759888,-1.257787,110.640232,5735768.86578,620238.37327,-110.640232,30U,-4.635794,5.712329,-0.004043,0.002933,-0.010153,2.25525,59
1422953380953060,1,INS_SOLUTION_GOOD,51.759875,-1.257761,110.639034,5735767.41873,620240.238656,-110.639034,30U,-4.681163,5.733992,0.021675,-0.000326,-0.00931,2.259426,59
1422953382327879,1,INS_SOLUTION_GOOD,51.759817,-1.257646,110.620469,5735761.20852,620248.334343,-110.620469,30U,-4.710356,5.902882,0.078953,-0.004485,-0.018973,2.250268,60
1422953382640339,1,INS_SOLUTION_GOOD,51.759804,-1.257619,110.596562,5735759.74221,620250.252919,-110.596562,30U,-4.717378,5.891897,0.074714,-0.002111,-0.010802,2.250778,60
1422953382952798,1,INS_SOLUTION_GOOD,51.75979,-1.257591,110.594092,5735758.27179,620252.167042,-110.594092,30U,-4.7334,5.868301,-0.027687,0.003511,-0.009745,2.25491,60
1422953383265259,1,INS_SOLUTION_GOOD,51.759778,-1.257566,110.572126,5735756.89377,620253.981223,-110.572126,30U,-4.767961,5.846303,0.031627,0.007152,-0.014237,2.260581,60
1422953383577716,1,INS_SOLUTION_GOOD,51.759764,-1.257539,110.562171,5735755.4008,620255.878806,-110.562171,30U,-4.849353,5.789044,0.036574,0.006576,-0.016539,2.273195,60
1422953385577454,1,INS_SOLUTION_GOOD,51.75967,-1.25738,110.453829,5735745.22671,620267.084731,-110.453829,30U,-5.704329,4.946792,-0.020361,-0.016363,-0.011245,2.435605,61
1422953385889913,1,INS_SOLUTION_GOOD,51.759653,-1.257357,110.452837,5735743.41429,620268.680683,-110.452837,30U,-5.85607,4.757222,0.009396,-0.014149,-0.010147,2.468023,61
1422953386202372,1,INS_SOLUTION_GOOD,51.759637,-1.257337,110.468945,5735741.64015,620270.113291,-110.468945,30U,-5.994368,4.557432,0.022175,-0.014857,-0.012951,2.500218,61
1422953386514831,1,INS_SOLUTION_GOOD,51.75962,-1.257317,110.461974,5735739.73478,620271.580477,-110.461974,30U,-6.132083,4.327584,0.005918,-0.011629,-0.010787,2.535977,61
1422953386827290,1,INS_SOLUTION_GOOD,51.759603,-1.257298,110.463296,5735737.90701,620272.886345,-110.463296,30U,-6.253945,4.087752,0.00916,-0.006977,-0.009801,2.569115,61
1422953388202111,1,INS_SOLUTION_GOOD,51.759521,-1.257227,110.475435,5735728.96772,620277.99893,-110.475435,30U,-6.589509,3.032926,-0.000608,-0.015539,-0.009628,2.715793,62
1422953388514570,1,INS_SOLUTION_GOOD,51.759502,-1.257214,110.479107,5735726.87945,620278.985449,-110.479107,30U,-6.608932,2.824175,-0.019047,-0.014717,-0.009042,2.744394,62
1422953388827029,1,INS_SOLUTION_GOOD,51.759485,-1.257202,110.484074,5735724.91438,620279.849328,-110.484074,30U,-6.615847,2.645622,0.007834,-0.009326,-0.00894,2.765997,62
1422953389139488,1,INS_SOLUTION_GOOD,51.759465,-1.257191,110.488802,5735722.76248,620280.685737,-110.488802,30U,-6.608633,2.522148,-0.016366,-0.000462,-0.014406,2.779366,62
1422953389451947,1,INS_SOLUTION_GOOD,51.759446,-1.257179,110.484648,5735720.66726,620281.530623,-110.484648,30U,-6.617278,2.437306,0.076394,-0.004062,-0.01348,2.789877,62
1422953390951750,1,INS_SOLUTION_GOOD,51.759356,-1.257131,110.432278,5735710.77745,620285.120349,-110.432278,30U,-6.53403,2.0704,0.043661,-0.002763,-0.016014,2.833924,63
1422953391264210,1,INS_SOLUTION_GOOD,51.759339,-1.257122,110.425323,5735708.84549,620285.780495,-110.425323,30U,-6.44822,2.04131,0.043377,-0.001678,-0.01777,2.834968,63
1422953391576668,1,INS_SOLUTION_GOOD,51.75932,-1.257112,110.412086,5735706.81416,620286.474877,-110.412086,30U,-6.350421,2.002344,0.038269,-0.006493,-0.013165,2.835549,63
1422953391951620,1,INS_SOLUTION_GOOD,51.759299,-1.257101,110.408626,5735704.44378,620287.282412,-110.408626,30U,-6.226578,1.945861,-0.017826,-0.00978,-0.011071,2.837562,63
1422953392326570,1,INS_SOLUTION_GOOD,51.759279,-1.25709,110.40581,5735702.29518,620288.120008,-110.40581,30U,-6.092298,1.883499,-0.01718,-0.013605,-0.010843,2.840696,63
1422953394076341,1,INS_SOLUTION_GOOD,51.759194,-1.257047,110.047359,5735692.84321,620291.342292,-110.047359,30U,-5.007778,1.45176,0.103275,-0.009565,-0.015709,2.863288,64
1422953394513783,1,INS_SOLUTION_GOOD,51.759175,-1.257038,110.027082,5735690.70677,620292.011599,-110.027082,30U,-4.815251,1.363809,0.03856,-0.012958,-0.01037,2.865512,64
1422953394951227,1,INS_SOLUTION_GOOD,51.759156,-1.257029,110.019964,5735688.63805,620292.651422,-110.019964,30U,-4.642976,1.310158,0.023072,-0.010379,-0.01065,2.864652,64
1422953395451161,1,INS_SOLUTION_GOOD,51.759136,-1.25702,110.044065,5735686.41829,620293.36069,-110.044065,30U,-4.30578,1.248142,0.020253,-0.009112,-0.011667,2.860488,64
1422953395951096,1,INS_SOLUTION_GOOD,51.759118,-1.257011,110.056467,5735684.47656,620294.021864,-110.056467,30U,-3.987239,1.163092,0.022937,-0.006089,-0.012974,2.858067,64
1422953398763227,1,INS_SOLUTION_GOOD,51.759031,-1.256971,110.083784,5735674.89207,620296.982405,-110.083784,30U,-2.782397,0.825422,0.052614,-0.016586,-0.02163,2.851992,65
1422953399513130,1,INS_SOLUTION_GOOD,51.759013,-1.256963,110.132381,5735672.9147,620297.612586,-110.132381,30U,-2.481176,0.725437,0.025615,-0.024251,-0.019707,2.854422,65
1422953400388015,1,INS_SOLUTION_GOOD,51.758996,-1.256955,110.211876,5735670.98092,620298.164753,-110.211876,30U,-1.946685,0.530796,0.034633,-0.03848,-0.020648,2.866307,65
1422953402012802,1,INS_SOLUTION_GOOD,51.758979,-1.256949,110.242789,5735669.05773,620298.645926,-110.242789,30U,-0.418831,0.064445,0.015791,-0.035101,-0.008049,2.889168,65
1422953412011493,1,INS_SOLUTION_GOOD,51.758976,-1.256936,110.093422,5735668.76334,620299.523757,-110.093422,30U,-0.003063,-0.019543,-0.006705,-0.038274,-0.005112,2.892208,65
1422953429509202,1,INS_SOLUTION_GOOD,51.758893,-1.25691,110.268806,5735659.55757,620301.568496,-110.268806,30U,-2.428462,0.552682,-0.025895,-0.012093,-0.005206,2.897788,66
1422953430259104,1,INS_SOLUTION_GOOD,51.758874,-1.256902,110.327747,5735657.47524,620302.138653,-110.327747,30U,-3.160295,0.734391,-0.025735,-0.013105,-0.001381,2.896607,66
1422953430884023,1,INS_SOLUTION_GOOD,51.758855,-1.256895,110.348584,5735655.36867,620302.692788,-110.348584,30U,-3.631488,0.873297,-0.045893,-0.015986,-0.004933,2.894314,66
1422953431446449,1,INS_SOLUTION_GOOD,51.758836,-1.256888,110.380873,5735653.27115,620303.271053,-110.380873,30U,-3.862983,0.935351,-0.023664,-0.011461,-0.007818,2.892975,66
1422953431946384,1,INS_SOLUTION_GOOD,51.758818,-1.256881,110.390705,5735651.31147,620303.794051,-110.390705,30U,-4.021627,0.970213,-0.024754,-0.003848,-0.010994,2.89238,66
1422953434196089,1,INS_SOLUTION_GOOD,51.758731,-1.256845,110.482891,5735641.66527,620306.519199,-110.482891,30U,-4.58433,1.231966,0.019962,0.001068,-0.012192,2.871937,67
1422953434633532,1,INS_SOLUTION_GOOD,51.758712,-1.256836,110.481752,5735639.62716,620307.124801,-110.481752,30U,-4.747765,1.311671,0.016114,-0.00452,-0.014203,2.865086,67
1422953435070976,1,INS_SOLUTION_GOOD,51.758693,-1.256828,110.457704,5735637.4834,620307.727482,-110.457704,30U,-4.975597,1.418635,0.020079,-0.016827,-0.015462,2.857516,67
1422953435508418,1,INS_SOLUTION_GOOD,51.758674,-1.25682,110.443299,5735635.36748,620308.391488,-110.443299,30U,-5.172963,1.5209,0.029655,-0.017303,-0.003743,2.851329,67
1422953435883368,1,INS_SOLUTION_GOOD,51.758656,-1.256811,110.456121,5735633.38311,620309.026681,-110.456121,30U,-5.349382,1.56825,-0.082627,-0.018963,-0.010237,2.846991,67
1422953437570647,1,INS_SOLUTION_GOOD,51.758569,-1.256769,110.556997,5735623.85885,620312.138089,-110.556997,30U,-5.888434,1.800818,-0.007851,-0.004354,-0.007402,2.838738,68
1422953437945599,1,INS_SOLUTION_GOOD,51.75855,-1.25676,110.563013,5735621.73988,620312.839476,-110.563013,30U,-5.962123,1.827511,-0.014347,-0.003132,-0.012042,2.838492,68
1422953438320549,1,INS_SOLUTION_GOOD,51.75853,-1.256749,110.553663,5735619.51707,620313.614646,-110.553663,30U,-6.004472,1.835668,0.0318,-0.003267,-0.011848,2.837289,68
1422953438633008,1,INS_SOLUTION_GOOD,51.758513,-1.256741,110.551771,5735617.61155,620314.249949,-110.551771,30U,-5.990847,1.840064,-0.01716,-0.005261,-0.011863,2.836976,68
1422953439007960,1,INS_SOLUTION_GOOD,51.758494,-1.256731,110.566261,5735615.51182,620314.962382,-110.566261,30U,-5.895901,1.809643,0.001258,-0.008527,-0.015913,2.835651,68
1422953440695238,1,INS_SOLUTION_GOOD,51.758406,-1.256687,110.524941,5735605.82018,620318.245665,-110.524941,30U,-5.71489,1.833833,0.056668,-0.026486,-0.00986,2.825713,69
1422953441070189,1,INS_SOLUTION_GOOD,51.758386,-1.256677,110.577587,5735603.66918,620318.981766,-110.577587,30U,-5.584702,1.807868,-0.054789,-0.023688,-0.009548,2.821256,69
1422953441445141,1,INS_SOLUTION_GOOD,51.758369,-1.256668,110.587123,5735601.69555,620319.671973,-110.587123,30U,-5.462302,1.781321,-0.009484,-0.019341,-0.010197,2.817089,69
1422953441820092,1,INS_SOLUTION_GOOD,51.75835,-1.256658,110.590677,5735599.66155,620320.391556,-110.590677,30U,-5.330329,1.749456,-0.042807,-0.015805,-0.008177,2.812352,69
1422953442195042,1,INS_SOLUTION_GOOD,51.758332,-1.256646,110.676269,5735597.65797,620321.246798,-110.676269,30U,-5.198077,1.74161,-0.000365,-0.010564,-0.010107,2.807679,69
1422953444194781,1,INS_SOLUTION_GOOD,51.758247,-1.256595,110.883837,5735588.29741,620325.050183,-110.883837,30U,-4.219157,1.477335,-0.033639,-0.004649,-0.011971,2.792314,70
1422953444694715,1,INS_SOLUTION_GOOD,51.758228,-1.256584,110.895898,5735586.24303,620325.830437,-110.895898,30U,-4.074953,1.444221,-0.032674,-0.003187,-0.011076,2.791065,70
1422953445194649,1,INS_SOLUTION_GOOD,51.75821,-1.256573,110.924956,5735584.25845,620326.639027,-110.924956,30U,-3.947543,1.407271,-0.022407,-0.00117,-0.015605,2.789443,70
1422953445694584,1,INS_SOLUTION_GOOD,51.758193,-1.256563,110.93887,5735582.36873,620327.35691,-110.93887,30U,-3.644425,1.269928,-0.01124,-0.001417,-0.021724,2.79278,70
1422953446257010,1,INS_SOLUTION_GOOD,51.758176,-1.256553,110.940876,5735580.48959,620328.096525,-110.940876,30U,-3.3103,1.115895,-0.020644,-0.005955,-0.018656,2.802129,70
1422953455068357,1,INS_SOLUTION_GOOD,51.758089,-1.256503,111.113847,5735570.92821,620331.79376,-111.113847,30U,0.002978,-0.038127,-0.043569,-0.023375,-0.014978,2.791716,71
1422953467004297,1,INS_SOLUTION_GOOD,51.758087,-1.2565,110.729772,5735570.70071,620332.03381,-110.729772,30U,0.00897,-0.009244,-0.010398,-0.023387,-0.015206,2.791917,71
1422953472691052,1,INS_SOLUTION_GOOD,51.758076,-1.256495,110.759512,5735569.43385,620332.384082,-110.759512,30U,-1.083667,0.397465,-0.001296,-0.025185,-0.008699,2.793853,71
1422953473878397,1,INS_SOLUTION_GOOD,51.758058,-1.256486,110.829143,5735567.46861,620333.054606,-110.829143,30U,-2.10733,0.763094,-0.004408,-0.027055,-0.006846,2.803786,71
1422953474628299,1,INS_SOLUTION_GOOD,51.758041,-1.256475,110.870336,5735565.56117,620333.852636,-110.870336,30U,-2.842606,1.013917,0.000682,-0.024403,-0.00915,2.8034,71
1422953477440431,1,INS_SOLUTION_GOOD,51.757956,-1.256425,110.969244,5735556.20957,620337.561632,-110.969244,30U,-2.994757,1.135037,-0.024685,-0.008313,-0.008738,2.782193,72
1422953478127841,1,INS_SOLUTION_GOOD,51.757939,-1.256414,110.945338,5735554.29574,620338.339175,-110.945338,30U,-2.629588,0.999608,-0.00963,-0.008691,-0.0142,2.780519,72
1422953478940234,1,INS_SOLUTION_GOOD,51.757921,-1.256403,110.95277,5735552.31946,620339.153518,-110.95277,30U,-2.243877,0.869781,0.002148,-0.011285,-0.017076,2.773278,72
1422953479877612,1,INS_SOLUTION_GOOD,51.757903,-1.256392,110.941704,5735550.36449,620339.918099,-110.941704,30U,-1.823687,0.721276,0.002507,-0.016186,-0.015204,2.768181,72
1422953481127448,1,INS_SOLUTION_GOOD,51.757886,-1.256383,110.988626,5735548.46295,620340.605039,-110.988626,30U,-1.134273,0.444134,-0.001168,-0.017062,-0.012122,2.769396,72
