timestamp,burst,ins_status,latitude,longitude,altitude,northing,easting,down,utm_zone,velocity_north,velocity_east,velocity_down,roll,pitch,yaw,serie
1439478213194257,1,INS_SOLUTION_GOOD,51.760896,-1.261591,108.009085,5735874.61696,619973.18345,-108.009085,30U,-0.123017,-0.363066,0.039733,0.042253,0.003775,4.435879,3
1439478224694407,1,INS_SOLUTION_GOOD,51.760892,-1.261612,108.05633,5735874.21393,619971.793238,-108.05633,30U,-0.073901,-0.213058,-0.017583,0.036855,0.003509,4.38941,3
1439478240819607,1,INS_SOLUTION_GOOD,51.760891,-1.261628,108.302328,5735874.0737,619970.708514,-108.302328,30U,-0.258556,-0.743779,-0.01069,0.038627,0.004292,4.376797,3
1439478242257125,1,INS_SOLUTION_GOOD,51.76089,-1.261655,108.515008,5735873.83041,619968.839463,-108.515008,30U,-0.464942,-1.29274,0.003808,0.03727,0.003552,4.358663,3
1439478243507146,1,INS_SOLUTION_GOOD,51.760885,-1.261684,108.607548,5735873.25933,619966.862977,-108.607548,30U,-0.549073,-1.575811,-0.005429,0.044678,0.009657,4.374635,3
1439478250694753,1,INS_SOLUTION_GOOD,51.760864,-1.261819,108.948951,5735870.69952,619957.535014,-108.948951,30U,-0.320235,-0.769275,0.046884,0.030928,-0.050764,4.300211,4
1439478252882282,1,INS_SOLUTION_GOOD,51.760857,-1.261846,108.88424,5735869.86193,619955.746586,-108.88424,30U,-0.632137,-0.804543,0.067891,0.025505,0.003792,4.020578,4
1439478254194805,1,INS_SOLUTION_GOOD,51.760843,-1.261867,108.912317,5735868.35902,619954.332233,-108.912317,30U,-1.638516,-0.969621,0.004483,0.006406,0.038133,3.695102,4
1439478255194814,1,INS_SOLUTION_GOOD,51.760827,-1.261879,109.000534,5735866.52031,619953.525219,-109.000534,30U,-2.316746,-0.628702,-0.041863,-0.00047,0.031423,3.371198,4
1439478256007325,1,INS_SOLUTION_GOOD,51.760806,-1.261883,109.049325,5735864.18752,619953.337382,-109.049325,30U,-3.331146,0.051968,-0.026517,-0.005206,0.017303,3.106666,4
1439478258382355,1,INS_SOLUTION_GOOD,51.76072,-1.261841,109.099916,5735854.71733,619956.427279,-109.099916,30U,-4.284074,1.908307,0.018562,-0.015368,-0.002798,2.727958,5
1439478258819863,1,INS_SOLUTION_GOOD,51.760703,-1.261829,109.095387,5735852.82296,619957.330683,-109.095387,30U,-4.431629,1.973504,0.0372,-0.016631,-0.007997,2.729063,5
1439478259257368,1,INS_SOLUTION_GOOD,51.760685,-1.261817,109.07977,5735850.81415,619958.198907,-109.07977,30U,-4.661588,2.043361,0.115417,-0.013989,0.002961,2.734092,5
1439478259694875,1,INS_SOLUTION_GOOD,51.760666,-1.261803,109.091943,5735848.74948,619959.164331,-109.091943,30U,-4.835799,2.128526,0.008785,-0.013625,-0.005029,2.732186,5
1439478260069880,1,INS_SOLUTION_GOOD,51.760649,-1.261792,109.080749,5735846.90859,619960.033359,-109.080749,30U,-4.959729,2.199568,0.026506,-0.015201,-0.002929,2.728593,5
1439478262007399,1,INS_SOLUTION_GOOD,51.760562,-1.26173,109.077629,5735837.3053,619964.495885,-109.077629,30U,-4.973656,2.207392,0.02098,-0.025168,-0.005133,2.735339,6
1439478262444905,1,INS_SOLUTION_GOOD,51.760543,-1.261718,109.117757,5735835.2185,619965.393095,-109.117757,30U,-4.892017,2.153966,0.053795,-0.021131,-0.004074,2.736612,6
1439478262819909,1,INS_SOLUTION_GOOD,51.760527,-1.261706,109.115828,5735833.4033,619966.238202,-109.115828,30U,-4.755414,2.093023,-0.021111,-0.012196,0.000801,2.735655,6
1439478263194911,1,INS_SOLUTION_GOOD,51.76051,-1.261695,109.13564,5735831.57404,619967.042169,-109.13564,30U,-4.639277,2.037232,-0.038275,-0.012037,-0.005154,2.735039,6
1439478263632418,1,INS_SOLUTION_GOOD,51.760492,-1.261682,109.137814,5735829.58272,619967.974076,-109.137814,30U,-4.510014,1.98352,0.076683,-0.015685,-0.008493,2.733179,6
1439478265819947,1,INS_SOLUTION_GOOD,51.760408,-1.261625,109.108212,5735820.37462,619972.153955,-109.108212,30U,-4.028814,1.655593,0.051242,-0.007319,0.001209,2.754513,7
1439478266257454,1,INS_SOLUTION_GOOD,51.760391,-1.261615,109.19996,5735818.50103,619972.891362,-109.19996,30U,-4.097627,1.640619,-0.022337,-0.006086,-0.002667,2.76616,7
1439478266757461,1,INS_SOLUTION_GOOD,51.760373,-1.261603,109.19757,5735816.45365,619973.75825,-109.19757,30U,-4.169313,1.654489,0.037068,0.002555,-0.004164,2.773508,7
1439478267194967,1,INS_SOLUTION_GOOD,51.760356,-1.261593,109.187436,5735814.55477,619974.540011,-109.187436,30U,-4.238786,1.644071,-0.002474,0.000801,-0.007019,2.777937,7
1439478267632471,1,INS_SOLUTION_GOOD,51.760339,-1.261582,109.178218,5735812.69978,619975.306153,-109.178218,30U,-4.271231,1.663772,0.064947,-0.000736,-0.003816,2.784674,7
1439478269819999,1,INS_SOLUTION_GOOD,51.760253,-1.261532,109.234691,5735803.20475,619978.991935,-109.234691,30U,-4.42463,1.510767,0.034572,0.001182,-0.007146,2.824262,8
1439478270195005,1,INS_SOLUTION_GOOD,51.760236,-1.261522,109.38273,5735801.35711,619979.700041,-109.38273,30U,-4.471121,1.459269,0.061866,-0.002021,-0.0046,2.837515,8
1439478270632512,1,INS_SOLUTION_GOOD,51.760218,-1.261513,109.377489,5735799.38975,619980.369317,-109.377489,30U,-4.547964,1.410599,-0.000242,0.002508,-0.003182,2.851783,8
1439478271070020,1,INS_SOLUTION_GOOD,51.760198,-1.261505,109.530793,5735797.17727,619981.004511,-109.530793,30U,-4.644157,1.389225,0.002489,0.009846,-0.006253,2.859022,8
1439478271507528,1,INS_SOLUTION_GOOD,51.760179,-1.261496,109.519794,5735795.12719,619981.660285,-109.519794,30U,-4.742175,1.368113,-0.004063,0.018863,-0.005958,2.860852,8
1439478273632561,1,INS_SOLUTION_GOOD,51.760092,-1.261454,109.493064,5735785.50884,619984.833735,-109.493064,30U,-3.511617,1.206332,0.020305,0.028521,-0.017822,2.81392,9
1439478274257571,1,INS_SOLUTION_GOOD,51.760074,-1.261444,109.50786,5735783.53493,619985.526265,-109.50786,30U,-2.896374,1.037537,-0.058274,0.03074,-0.011009,2.815424,9
1439478275007581,1,INS_SOLUTION_GOOD,51.760055,-1.261433,109.486845,5735781.35323,619986.330253,-109.486845,30U,-2.998437,1.021957,0.020944,0.03669,-0.010646,2.818463,9
1439478275632590,1,INS_SOLUTION_GOOD,51.760036,-1.261424,109.512666,5735779.31672,619987.02646,-109.512666,30U,-3.51518,1.170656,-0.016137,0.028372,-0.016987,2.820148,9
1439478276132597,1,INS_SOLUTION_GOOD,51.760019,-1.261415,109.507766,5735777.38156,619987.68503,-109.507766,30U,-3.973169,1.396713,0.127006,0.037835,-0.015534,2.814849,9
1439478278195128,1,INS_SOLUTION_GOOD,51.759934,-1.261365,109.479542,5735768.05333,619991.334182,-109.479542,30U,-4.886385,1.845509,0.095178,0.028292,-0.012641,2.780986,10
1439478278632632,1,INS_SOLUTION_GOOD,51.759915,-1.261354,109.467249,5735765.91395,619992.207055,-109.467249,30U,-4.941064,1.884366,0.065685,0.026737,-0.014903,2.782111,10
1439478279007639,1,INS_SOLUTION_GOOD,51.759898,-1.261343,109.444706,5735764.04322,619992.968557,-109.444706,30U,-5.000974,1.872652,0.003759,0.027895,-0.017064,2.782715,10
1439478279445143,1,INS_SOLUTION_GOOD,51.759878,-1.261332,109.444176,5735761.89483,619993.798652,-109.444176,30U,-5.083827,1.883971,0.09376,0.025063,-0.01755,2.789779,10
1439478279820142,1,INS_SOLUTION_GOOD,51.759861,-1.261321,109.420847,5735759.97155,619994.559692,-109.420847,30U,-5.137973,1.858737,0.07317,0.021638,-0.019269,2.798807,10
1439478281882662,1,INS_SOLUTION_GOOD,51.759764,-1.261272,109.462368,5735749.27302,619998.201443,-109.462368,30U,-5.14094,1.53232,0.058954,0.022444,-0.022307,2.855345,11
1439478282257666,1,INS_SOLUTION_GOOD,51.759746,-1.261264,109.442807,5735747.29372,619998.801827,-109.442807,30U,-5.13237,1.509237,0.0896,0.01849,-0.018826,2.857646,11
1439478282632672,1,INS_SOLUTION_GOOD,51.759728,-1.261256,109.423071,5735745.3633,619999.416994,-109.423071,30U,-5.116974,1.461611,0.04062,0.02064,-0.016053,2.860048,11
1439478283007678,1,INS_SOLUTION_GOOD,51.759711,-1.261248,109.402034,5735743.44291,620000.024886,-109.402034,30U,-5.078413,1.453905,-0.007,0.017131,-0.014899,2.861805,11
1439478283445186,1,INS_SOLUTION_GOOD,51.759691,-1.26124,109.434444,5735741.27327,620000.655236,-109.434444,30U,-5.045096,1.452655,0.053961,0.017439,-0.014383,2.864026,11
1439478285382710,1,INS_SOLUTION_GOOD,51.759604,-1.261201,109.464051,5735731.61839,620003.577779,-109.464051,30U,-4.857618,1.416591,0.030989,-0.002228,-0.014195,2.860679,12
1439478285820217,1,INS_SOLUTION_GOOD,51.759585,-1.261192,109.454204,5735729.50924,620004.249547,-109.454204,30U,-4.799506,1.434455,0.053068,-0.008505,-0.010756,2.856653,12
1439478286257725,1,INS_SOLUTION_GOOD,51.759566,-1.261183,109.513389,5735727.36584,620004.896815,-109.513389,30U,-4.744487,1.426592,-0.018103,-0.011636,-0.012426,2.857642,12
1439478286695234,1,INS_SOLUTION_GOOD,51.759547,-1.261174,109.504947,5735725.29617,620005.555887,-109.504947,30U,-4.708669,1.404742,-0.015475,-0.006899,-0.016988,2.858482,12
1439478287132740,1,INS_SOLUTION_GOOD,51.759528,-1.261166,109.478479,5735723.20743,620006.198642,-109.478479,30U,-4.672691,1.375947,0.054965,0.000932,-0.017224,2.858142,12
1439478289257774,1,INS_SOLUTION_GOOD,51.75944,-1.261126,109.626524,5735713.51964,620009.177399,-109.626524,30U,-4.310766,1.249296,-0.017537,-0.007755,-0.011385,2.855807,13
1439478289757784,1,INS_SOLUTION_GOOD,51.759422,-1.261117,109.62942,5735711.46689,620009.835756,-109.62942,30U,-3.960513,1.148356,-0.009851,-0.01096,-0.010372,2.853436,13
1439478290257790,1,INS_SOLUTION_GOOD,51.759404,-1.261109,109.686642,5735709.48233,620010.425457,-109.686642,30U,-3.808039,1.111215,-0.036825,-0.011931,-0.01106,2.850728,13
1439478290820298,1,INS_SOLUTION_GOOD,51.759385,-1.2611,109.690177,5735707.44064,620011.085122,-109.690177,30U,-3.539423,1.05654,0.00874,-0.009678,-0.010028,2.84932,13
1439478291382808,1,INS_SOLUTION_GOOD,51.759367,-1.261092,109.771907,5735705.482,620011.679009,-109.771907,30U,-3.271891,0.973818,-0.023015,-0.010212,-0.018038,2.846802,13
1439478296445377,1,INS_SOLUTION_GOOD,51.759294,-1.261047,109.359737,5735697.40543,620014.988262,-109.359737,30U,-0.59469,0.187247,-0.011298,-0.018575,-0.013622,2.813304,14
1439478304070480,1,INS_SOLUTION_GOOD,51.759286,-1.261039,109.039316,5735696.53877,620015.565487,-109.039316,30U,0.003186,-0.011002,-0.005888,-0.020089,-0.012699,2.814137,14
1439478308695543,1,INS_SOLUTION_GOOD,51.759269,-1.261032,109.153983,5735694.61167,620016.133488,-109.153983,30U,-1.87676,0.637493,-0.021732,-0.023631,-0.008708,2.805587,14
1439478309570556,1,INS_SOLUTION_GOOD,51.75925,-1.261022,109.174058,5735692.58683,620016.875069,-109.174058,30U,-2.689924,0.936582,-0.032841,-0.03092,-0.000414,2.794588,14
1439478310258066,1,INS_SOLUTION_GOOD,51.759232,-1.261011,109.22453,5735690.54413,620017.649206,-109.22453,30U,-3.24931,1.228484,-0.008797,-0.020958,-0.007021,2.776665,14
1439478312633099,1,INS_SOLUTION_GOOD,51.759149,-1.260955,109.308231,5735681.37233,620021.726163,-109.308231,30U,-4.346072,1.825933,-0.039465,-0.021811,-0.012748,2.750725,15
1439478313070602,1,INS_SOLUTION_GOOD,51.759131,-1.260944,109.334538,5735679.4038,620022.574717,-109.334538,30U,-4.576035,1.911752,-0.027826,-0.015415,-0.009577,2.747544,15
1439478313508110,1,INS_SOLUTION_GOOD,51.759112,-1.260931,109.339651,5735677.36325,620023.485005,-109.339651,30U,-4.796699,2.000802,-0.02361,-0.021084,-0.013518,2.741957,15
1439478313945616,1,INS_SOLUTION_GOOD,51.759094,-1.260918,109.334569,5735675.33121,620024.406219,-109.334569,30U,-4.992242,2.133871,0.006425,-0.020219,-0.015697,2.737375,15
1439478314320628,1,INS_SOLUTION_GOOD,51.759076,-1.260907,109.356463,5735673.39649,620025.26872,-109.356463,30U,-5.158623,2.264584,0.022464,-0.02093,-0.008486,2.727492,15
1439478316570662,1,INS_SOLUTION_GOOD,51.758964,-1.260822,109.505277,5735661.07158,620031.397399,-109.505277,30U,-5.773095,2.821625,-0.059843,-0.028335,-0.002423,2.684834,16
1439478317008153,1,INS_SOLUTION_GOOD,51.758941,-1.260804,109.531093,5735658.54447,620032.723774,-109.531093,30U,-5.862367,2.912752,-0.041132,-0.036308,-0.013504,2.680453,16
1439478317383158,1,INS_SOLUTION_GOOD,51.758923,-1.260785,109.320879,5735656.56633,620034.047712,-109.320879,30U,-5.927261,2.981201,0.03566,-0.039125,0.00225,2.679613,16
1439478317695664,1,INS_SOLUTION_GOOD,51.758906,-1.260772,109.352018,5735654.68133,620035.043521,-109.352018,30U,-6.000277,2.974428,-0.085149,-0.043583,-0.002806,2.682112,16
1439478318008169,1,INS_SOLUTION_GOOD,51.758888,-1.260758,109.373011,5735652.77338,620036.04212,-109.373011,30U,-6.067274,2.995608,-0.015643,-0.040379,-0.009371,2.686666,16
1439478319508194,1,INS_SOLUTION_GOOD,51.758804,-1.260693,109.513149,5735643.49479,620040.725345,-109.513149,30U,-6.359793,3.016073,-0.04561,-0.027171,-0.010073,2.699436,17
1439478319820700,1,INS_SOLUTION_GOOD,51.758787,-1.26068,109.512254,5735641.60805,620041.673604,-109.512254,30U,-6.351896,2.995728,-0.075781,-0.029907,-0.004889,2.699931,17
1439478320133204,1,INS_SOLUTION_GOOD,51.758769,-1.260666,109.566991,5735639.59763,620042.664715,-109.566991,30U,-6.314065,3.00784,-0.051092,-0.028975,-0.01008,2.702295,17
1439478320445709,1,INS_SOLUTION_GOOD,51.758752,-1.260654,109.5676,5735637.724,620043.598684,-109.5676,30U,-6.307413,2.948619,-0.021296,-0.025215,-0.002461,2.704023,17
1439478320758213,1,INS_SOLUTION_GOOD,51.758733,-1.26064,109.589706,5735635.73297,620044.583723,-109.589706,30U,-6.277778,2.930329,-0.095933,-0.02307,-0.00403,2.706597,17
1439478322258232,1,INS_SOLUTION_GOOD,51.758649,-1.260578,109.754598,5735626.44161,620049.089739,-109.754598,30U,-6.28026,2.90305,-0.01791,-0.036997,-0.007521,2.712131,18
1439478322570737,1,INS_SOLUTION_GOOD,51.758631,-1.260565,109.766652,5735624.44462,620050.059012,-109.766652,30U,-6.336636,2.881465,-0.02027,-0.033622,-0.009364,2.713375,18
1439478322883240,1,INS_SOLUTION_GOOD,51.758614,-1.260552,109.773044,5735622.56013,620050.972397,-109.773044,30U,-6.383326,2.888858,-0.010417,-0.035717,-0.010522,2.71588,18
1439478323258245,1,INS_SOLUTION_GOOD,51.758592,-1.260535,109.792874,5735620.14478,620052.206635,-109.792874,30U,-6.438278,2.907474,0.003343,-0.034095,-0.015485,2.719329,18
1439478323633249,1,INS_SOLUTION_GOOD,51.75857,-1.260519,109.784148,5735617.71065,620053.365894,-109.784148,30U,-6.518633,2.896772,0.057366,-0.033295,-0.017236,2.723691,18
1439478325008257,1,INS_SOLUTION_GOOD,51.758486,-1.260462,109.783168,5735608.55993,620057.549576,-109.783168,30U,-6.850401,2.826242,0.007267,-0.034318,-0.02511,2.747924,19
1439478325320759,1,INS_SOLUTION_GOOD,51.758468,-1.260448,109.757351,5735606.48385,620058.520068,-109.757351,30U,-6.866961,2.781017,0.108783,-0.038609,-0.004574,2.751297,19
1439478325633267,1,INS_SOLUTION_GOOD,51.758448,-1.260435,109.78051,5735604.3222,620059.465827,-109.78051,30U,-6.814484,2.76539,-0.111184,-0.042657,-0.01457,2.757404,19
1439478325945770,1,INS_SOLUTION_GOOD,51.75843,-1.260423,109.783237,5735602.303,620060.336799,-109.783237,30U,-6.790021,2.712828,0.037149,-0.045544,-0.009606,2.761682,19
1439478326258284,1,INS_SOLUTION_GOOD,51.75841,-1.260411,109.839401,5735600.14429,620061.225508,-109.839401,30U,-6.748547,2.66892,-0.051409,-0.041203,-0.008444,2.766839,19
1439478327695796,1,INS_SOLUTION_GOOD,51.758325,-1.260358,109.90929,5735590.76554,620065.10327,-109.90929,30U,-6.399456,2.487252,0.037988,-0.040797,-0.017207,2.769466,20
1439478328008304,1,INS_SOLUTION_GOOD,51.758307,-1.260347,109.904046,5735588.75436,620065.942669,-109.904046,30U,-6.282505,2.461616,0.004712,-0.041533,-0.01357,2.766748,20
1439478328320807,1,INS_SOLUTION_GOOD,51.75829,-1.260336,109.956063,5735586.89673,620066.701992,-109.956063,30U,-6.158174,2.415296,-0.038231,-0.039898,-0.011762,2.764202,20
1439478328633311,1,INS_SOLUTION_GOOD,51.758272,-1.260325,109.96723,5735584.9732,620067.514238,-109.96723,30U,-5.967991,2.352705,-0.035498,-0.04142,-0.012782,2.763187,20
1439478329008318,1,INS_SOLUTION_GOOD,51.758253,-1.260313,109.979018,5735582.7864,620068.437179,-109.979018,30U,-5.650169,2.238254,-0.036272,-0.041959,-0.014663,2.763441,20
1439478331445862,1,INS_SOLUTION_GOOD,51.758155,-1.260242,109.874913,5735572.06431,620073.568413,-109.874913,30U,-3.398252,1.938885,-0.012898,-0.0337,-0.012943,2.598416,21
1439478332008369,1,INS_SOLUTION_GOOD,51.758139,-1.260225,109.889545,5735570.3186,620074.785088,-109.889545,30U,-2.708064,2.109679,-0.032693,-0.017454,-0.016843,2.449964,21
1439478332570876,1,INS_SOLUTION_GOOD,51.758129,-1.260203,109.524801,5735569.28026,620076.312352,-109.524801,30U,-2.01333,2.227241,0.010305,-0.021569,-0.014551,2.274896,21
1439478333320886,1,INS_SOLUTION_GOOD,51.758119,-1.26018,109.604216,5735568.13958,620077.936603,-109.604216,30U,-1.226003,2.104406,0.019195,-0.017986,-0.02202,2.065255,21
1439478334508405,1,INS_SOLUTION_GOOD,51.758111,-1.260154,109.659718,5735567.32798,620079.792157,-109.659718,30U,-0.325907,0.88406,-0.007574,-0.011256,-0.018868,1.853091,21
1439478343696023,1,INS_SOLUTION_GOOD,51.758144,-1.260043,110.314464,5735571.1684,620087.309113,-110.314464,30U,4.591255,1.955031,-0.021982,0.024651,-0.018265,0.381815,22
1439478344133525,1,INS_SOLUTION_GOOD,51.758164,-1.260035,110.359926,5735573.40252,620087.874764,-110.359926,30U,5.44071,1.263279,-0.098172,0.018392,-0.012898,0.222736,22
1439478344508528,1,INS_SOLUTION_GOOD,51.758184,-1.260029,110.366309,5735575.58606,620088.232446,-110.366309,30U,5.984874,0.901658,0.01518,0.026711,-0.01877,0.143663,22
1439478344883534,1,INS_SOLUTION_GOOD,51.758204,-1.260025,110.35315,5735577.82781,620088.448981,-110.35315,30U,6.435693,0.585506,0.045387,0.03519,-0.010776,0.089965,22
1439478345196041,1,INS_SOLUTION_GOOD,51.758223,-1.260024,110.436331,5735579.92948,620088.476263,-110.436331,30U,6.783918,0.317355,-0.037468,0.024832,-0.008308,0.050408,22
1439478346571057,1,INS_SOLUTION_GOOD,51.758315,-1.260018,110.317981,5735590.22956,620088.587271,-110.317981,30U,7.952132,0.087013,0.006895,0.013204,-0.012186,0.016496,23
1439478346883562,1,INS_SOLUTION_GOOD,51.758337,-1.260018,110.322801,5735592.63543,620088.554754,-110.322801,30U,8.087844,0.053709,-0.01476,0.011834,-0.013372,0.01184,23
1439478347133564,1,INS_SOLUTION_GOOD,51.75836,-1.26001,109.663607,5735595.19909,620089.042665,-109.663607,30U,8.209917,0.048172,-0.028601,0.008738,-0.018864,0.00784,23
1439478347446069,1,INS_SOLUTION_GOOD,51.758382,-1.26001,109.649399,5735597.67686,620088.993051,-109.649399,30U,8.302579,0.008407,0.078184,0.008197,-0.016656,0.003097,23
1439478347696073,1,INS_SOLUTION_GOOD,51.758401,-1.26001,109.641505,5735599.83539,620088.939725,-109.641505,30U,8.316205,-0.017264,0.012276,0.007999,-0.019433,4.9e-05,23
1439478348883593,1,INS_SOLUTION_GOOD,51.758493,-1.260005,109.138786,5735609.99479,620089.017383,-109.138786,30U,8.357991,-0.011175,0.003878,-0.01129,-0.012476,0.00379,24
1439478349133598,1,INS_SOLUTION_GOOD,51.758514,-1.260002,108.789732,5735612.32717,620089.212168,-108.789732,30U,8.370461,0.035821,0.020168,-0.008188,-0.009345,0.005036,24
1439478349383597,1,INS_SOLUTION_GOOD,51.758532,-1.260002,108.789594,5735614.34025,620089.174647,-108.789594,30U,8.408588,0.048102,-0.01864,-0.002453,-0.008586,0.006498,24
1439478349633602,1,INS_SOLUTION_GOOD,51.758551,-1.260001,108.792389,5735616.52928,620089.136249,-108.792389,30U,8.434687,0.061678,0.003486,0.00318,-0.007068,0.007399,24
1439478349883606,1,INS_SOLUTION_GOOD,51.75857,-1.260001,108.796229,5735618.55649,620089.101691,-108.796229,30U,8.460407,0.067986,-0.039066,0.006583,-0.004018,0.007712,24
1439478351071125,1,INS_SOLUTION_GOOD,51.758662,-1.259998,108.502897,5735628.89557,620089.087295,-108.502897,30U,8.539732,0.04545,-0.016394,0.018662,-0.010347,0.005557,25
1439478351321129,1,INS_SOLUTION_GOOD,51.758681,-1.259998,108.502661,5735630.94615,620089.048281,-108.502661,30U,8.56865,0.028062,0.034499,0.019493,-0.009521,0.002154,25
1439478351571132,1,INS_SOLUTION_GOOD,51.758701,-1.259998,108.499226,5735633.17448,620088.995931,-108.499226,30U,8.584819,0.003195,-0.009006,0.013546,-0.007058,6.282435,25
1439478351821136,1,INS_SOLUTION_GOOD,51.758719,-1.259998,108.501856,5735635.23495,620088.941835,-108.501856,30U,8.591038,-0.020072,-0.04531,0.008908,-0.004954,6.280843,25
1439478352071140,1,INS_SOLUTION_GOOD,51.758741,-1.259997,108.375552,5735637.57628,620088.922502,-108.375552,30U,8.584287,-0.033677,-0.030888,0.003255,-0.007303,6.279872,25
1439478353508654,1,INS_SOLUTION_GOOD,51.758851,-1.259996,108.475535,5735649.84278,620088.687176,-108.475535,30U,8.569026,-0.058021,0.008262,0.014809,-0.004589,6.276,26
1439478353758657,1,INS_SOLUTION_GOOD,51.758869,-1.259997,108.480979,5735651.89692,620088.618849,-108.480979,30U,8.558713,-0.098022,-0.058821,0.010444,-0.002231,6.273107,26
1439478354008662,1,INS_SOLUTION_GOOD,51.758889,-1.259997,108.497129,5735654.12003,620088.538478,-108.497129,30U,8.552212,-0.119765,-0.040614,0.009557,-0.003929,6.270464,26
1439478354258666,1,INS_SOLUTION_GOOD,51.758908,-1.259996,108.421758,5735656.18658,620088.551758,-108.421758,30U,8.538877,-0.127425,-0.046163,0.005972,0.000474,6.267798,26
1439478354508673,1,INS_SOLUTION_GOOD,51.758928,-1.259997,108.441211,5735658.40276,620088.461093,-108.441211,30U,8.525195,-0.160718,-0.087135,0.007852,-0.001473,6.26457,26
1439478355696185,1,INS_SOLUTION_GOOD,51.759018,-1.259999,108.420282,5735668.47988,620088.045575,-108.420282,30U,8.561433,-0.317327,-0.063288,-0.001322,-0.000511,6.24631,27
1439478355946189,1,INS_SOLUTION_GOOD,51.759037,-1.26,108.436576,5735670.53257,620087.914134,-108.436576,30U,8.564965,-0.373159,-0.050503,-0.00632,-0.001704,6.241144,27
1439478356196192,1,INS_SOLUTION_GOOD,51.759057,-1.260002,108.320155,5735672.80304,620087.778254,-108.320155,30U,8.568629,-0.420202,-0.04863,-0.010407,0.000784,6.235129,27
1439478356446196,1,INS_SOLUTION_GOOD,51.759076,-1.260003,108.340426,5735674.85484,620087.621671,-108.340426,30U,8.566013,-0.471516,-0.083984,-0.011536,-0.00368,6.230528,27
1439478356696199,1,INS_SOLUTION_GOOD,51.759096,-1.260005,108.350926,5735677.07745,620087.440842,-108.350926,30U,8.562579,-0.523353,-0.049533,-0.018683,-0.001757,6.224425,27
1439478357883718,1,INS_SOLUTION_GOOD,51.759187,-1.260017,108.417529,5735687.15644,620086.374044,-108.417529,30U,8.535566,-0.822983,-0.038167,-0.025895,-0.008687,6.188265,28
1439478358133723,1,INS_BAD_GPS_AGREEMENT,51.759207,-1.26002,108.408842,5735689.36795,620086.094192,-108.408842,30U,8.526834,-0.888536,-0.056561,-0.032194,0.005077,6.180478,28
1439478358383726,1,INS_BAD_GPS_AGREEMENT,51.759225,-1.260023,108.439007,5735691.40551,620085.82176,-108.439007,30U,8.515015,-0.974507,-0.104679,-0.034334,-0.007931,6.173604,28
1439478358633730,1,INS_BAD_GPS_AGREEMENT,51.759245,-1.260027,108.439162,5735693.61231,620085.509252,-108.439162,30U,8.513417,-1.014192,0.07984,-0.032435,-0.005725,6.166477,28
1439478358883736,1,INS_BAD_GPS_AGREEMENT,51.759263,-1.260031,108.434995,5735695.64722,620085.207008,-108.434995,30U,8.50733,-1.062457,-0.056619,-0.029878,-0.001084,6.159648,28
1439478360071255,1,INS_SOLUTION_GOOD,51.759354,-1.260048,108.502306,5735705.74271,620083.816,-108.502306,30U,8.48079,-1.345969,-0.020441,-0.046656,-0.005345,6.134389,29
1439478360321257,1,INS_SOLUTION_GOOD,51.759373,-1.260052,108.509174,5735707.77052,620083.45452,-108.509174,30U,8.486124,-1.346117,0.070666,-0.039168,-0.002104,6.131675,29
1439478360571259,1,INS_SOLUTION_GOOD,51.759392,-1.260057,108.522798,5735709.96388,620083.056542,-108.522798,30U,8.477518,-1.333636,-0.075553,-0.036664,-0.00397,6.129675,29
1439478360821260,1,INS_SOLUTION_GOOD,51.759411,-1.260062,108.530558,5735711.98889,620082.685036,-108.530558,30U,8.477434,-1.347171,-0.015216,-0.033485,-0.004998,6.128554,29
1439478361071262,1,INS_SOLUTION_GOOD,51.759431,-1.260066,108.437489,5735714.24919,620082.331783,-108.437489,30U,8.489789,-1.347471,-0.017482,-0.03368,-0.009639,6.13161,29
1439478362258780,1,INS_SOLUTION_GOOD,51.759522,-1.260085,108.367343,5735724.33712,620080.81356,-108.367343,30U,8.631339,-1.030339,0.070721,-0.018596,-0.0192,6.168459,30
1439478362508790,1,INS_SOLUTION_GOOD,51.759542,-1.260088,108.33998,5735726.57948,620080.49624,-108.33998,30U,8.675179,-0.986161,0.123637,-0.018125,-0.017734,6.174827,30
1439478362758789,1,INS_SOLUTION_GOOD,51.759561,-1.260092,108.315926,5735728.65901,620080.215514,-108.315926,30U,8.712888,-0.948901,0.089149,-0.014862,-0.016274,6.179662,30
1439478363008793,1,INS_SOLUTION_GOOD,51.759581,-1.260095,108.29577,5735730.92051,620079.919527,-108.29577,30U,8.738028,-0.922799,0.093842,-0.011511,-0.015957,6.181365,30
1439478363258796,1,INS_SOLUTION_GOOD,51.7596,-1.260097,108.312204,5735732.99191,620079.734309,-108.312204,30U,8.760232,-0.923485,0.084057,-0.011535,-0.015549,6.182367,30
1439478364696314,1,INS_SOLUTION_GOOD,51.759714,-1.260116,108.163652,5735745.59592,620078.141558,-108.163652,30U,8.83361,-0.816206,0.13097,-0.013635,-0.018976,6.197013,31
1439478364946323,1,INS_SOLUTION_GOOD,51.759733,-1.260119,108.135793,5735747.70942,620077.901662,-108.135793,30U,8.820034,-0.778209,0.061816,-0.010083,-0.013583,6.200318,31
1439478365196323,1,INS_SOLUTION_GOOD,51.759752,-1.26012,108.271905,5735749.87736,620077.7701,-108.271905,30U,8.799464,-0.728343,0.035065,-0.005088,-0.01376,6.20491,31
1439478365446328,1,INS_SOLUTION_GOOD,51.759771,-1.260122,108.262072,5735751.98187,620077.547787,-108.262072,30U,8.788499,-0.703413,0.055501,-0.008903,-0.013267,6.20928,31
1439478365696331,1,INS_SOLUTION_GOOD,51.759792,-1.260125,108.251257,5735754.25815,620077.319608,-108.251257,30U,8.766739,-0.650019,0.043974,-0.003842,-0.015929,6.213337,31
1439478366883851,1,INS_SOLUTION_GOOD,51.759884,-1.260135,108.217329,5735764.51448,620076.372518,-108.217329,30U,8.69489,-0.572267,-0.07752,-0.004279,-0.011637,6.223806,32
1439478367133857,1,INS_SOLUTION_GOOD,51.759904,-1.260136,108.321019,5735766.74155,620076.24277,-108.321019,30U,8.689027,-0.551966,0.06585,0.002008,-0.015151,6.22333,32
1439478367383863,1,INS_SOLUTION_GOOD,51.759923,-1.260138,108.304918,5735768.8212,620076.058633,-108.304918,30U,8.678341,-0.569562,0.023754,-0.005836,-0.018195,6.221804,32
1439478367633864,1,INS_SOLUTION_GOOD,51.759943,-1.26014,108.280145,5735771.07069,620075.85184,-108.280145,30U,8.660868,-0.555102,0.092176,-0.005442,-0.010509,6.222462,32
1439478367883867,1,INS_SOLUTION_GOOD,51.759962,-1.260142,108.270601,5735773.14206,620075.667553,-108.270601,30U,8.628459,-0.551895,-0.08437,-0.000647,-0.006296,6.228457,32
1439478369071387,1,INS_SOLUTION_GOOD,51.760052,-1.260148,108.262218,5735783.21414,620075.007938,-108.262218,30U,8.313953,-0.32277,0.085061,-0.000634,-0.011155,6.25144,33
1439478369383893,1,INS_SOLUTION_GOOD,51.760075,-1.26015,108.258155,5735785.68779,620074.859389,-108.258155,30U,8.195582,-0.305304,-0.068897,0.003545,-0.014017,6.252433,33
1439478369633895,1,INS_SOLUTION_GOOD,51.760094,-1.260151,108.255323,5735787.8044,620074.734028,-108.255323,30U,8.107203,-0.295419,0.099504,0.005993,-0.014034,6.250452,33
1439478370008902,1,INS_SOLUTION_GOOD,51.760121,-1.260152,108.242101,5735790.85526,620074.542301,-108.242101,30U,7.974723,-0.344593,0.005298,0.009805,-0.017808,6.246325,33
1439478370383907,1,INS_SOLUTION_GOOD,51.760146,-1.260154,108.297543,5735793.65132,620074.360851,-108.297543,30U,7.847194,-0.386042,0.011955,0.010187,-0.015418,6.237357,33
1439478371696419,1,INS_SOLUTION_GOOD,51.760237,-1.260163,108.393373,5735803.76653,620073.52647,-108.393373,30U,7.724762,-0.573818,0.042432,0.005633,-0.015262,6.21393,34
1439478372008921,1,INS_SOLUTION_GOOD,51.76026,-1.260165,108.378192,5735806.2325,620073.282135,-108.378192,30U,7.727489,-0.569077,0.057495,0.005403,-0.015619,6.214095,34
1439478372321424,1,INS_SOLUTION_GOOD,51.760281,-1.260168,108.368682,5735808.55997,620073.059385,-108.368682,30U,7.744928,-0.576303,0.0093,0.000707,-0.02087,6.216898,34
1439478372571425,1,INS_SOLUTION_GOOD,51.760299,-1.26017,108.351644,5735810.56886,620072.866825,-108.351644,30U,7.747162,-0.542534,0.122641,-0.000438,-0.023366,6.219966,34
1439478372883931,1,INS_SOLUTION_GOOD,51.76032,-1.260172,108.314561,5735812.88716,620072.652465,-108.314561,30U,7.73324,-0.525669,0.005392,0.001928,-0.01149,6.224823,34
1439478374196448,1,INS_SOLUTION_GOOD,51.76041,-1.260182,108.295016,5735822.97118,620071.721018,-108.295016,30U,7.679839,-0.444413,0.072749,0.008784,-0.017801,6.233484,35
1439478374508952,1,INS_SOLUTION_GOOD,51.760432,-1.260184,108.27374,5735825.42232,620071.520349,-108.27374,30U,7.672211,-0.440157,0.064889,0.009461,-0.016449,6.234962,35
1439478374821458,1,INS_SOLUTION_GOOD,51.760453,-1.260186,108.257388,5735827.71927,620071.335266,-108.257388,30U,7.670297,-0.413904,0.04627,0.00871,-0.01642,6.236181,35
1439478375071462,1,INS_SOLUTION_GOOD,51.760472,-1.260186,108.11503,5735829.80151,620071.299185,-108.11503,30U,7.662752,-0.424098,0.054234,0.006699,-0.01696,6.234721,35
1439478375383971,1,INS_SOLUTION_GOOD,51.760493,-1.260188,108.097011,5735832.09529,620071.11424,-108.097011,30U,7.651556,-0.457032,0.074651,0.005767,-0.014151,6.232658,35
1439478376883993,1,INS_SOLUTION_GOOD,51.760596,-1.260197,107.946049,5735843.58267,620070.243223,-107.946049,30U,7.62487,-0.492236,0.015316,0.008961,-0.014565,6.226575,36
1439478377133997,1,INS_SOLUTION_GOOD,51.760614,-1.260197,108.009402,5735845.58053,620070.134883,-108.009402,30U,7.62467,-0.453262,0.045269,0.00976,-0.016667,6.230126,36
1439478377446502,1,INS_SOLUTION_GOOD,51.760634,-1.260199,107.99354,5735847.86359,620069.947381,-107.99354,30U,7.624123,-0.417088,0.059865,0.012678,-0.01996,6.23389,36
1439478377759007,1,INS_SOLUTION_GOOD,51.760656,-1.260201,107.967283,5735850.29801,620069.754846,-107.967283,30U,7.619061,-0.40033,0.088203,0.013994,-0.016897,6.234368,36
1439478378071513,1,INS_SOLUTION_GOOD,51.760678,-1.260203,108.008065,5735852.67615,620069.611827,-108.008065,30U,7.598552,-0.433285,0.024543,0.010081,-0.017967,6.231695,36
1439478379384023,1,INS_SOLUTION_GOOD,51.760768,-1.260209,107.649183,5735862.71134,620068.954089,-107.649183,30U,7.551768,-0.497854,0.04792,0.010495,-0.014352,6.22356,37
1439478379696528,1,INS_SOLUTION_GOOD,51.76079,-1.260211,107.636303,5735865.12083,620068.738485,-107.636303,30U,7.534857,-0.500968,0.04428,0.012871,-0.015901,6.221802,37
1439478380009031,1,INS_SOLUTION_GOOD,51.760811,-1.260213,107.620533,5735867.52304,620068.51848,-107.620533,30U,7.493501,-0.510258,0.034376,0.01856,-0.020083,6.220281,37
1439478380321535,1,INS_SOLUTION_GOOD,51.760832,-1.260216,107.598248,5735869.75594,620068.306766,-107.598248,30U,7.421376,-0.520976,0.09461,0.013607,-0.01845,6.21707,37
1439478380634036,1,INS_SOLUTION_GOOD,51.760853,-1.260218,107.575557,5735872.11103,620068.075548,-107.575557,30U,7.326999,-0.567989,-0.048014,0.009356,-0.013235,6.214754,37
1439478382071564,1,INS_SOLUTION_GOOD,51.760944,-1.260228,107.565356,5735882.25676,620067.116626,-107.565356,30U,6.845287,-0.53284,0.046244,0.009095,-0.018891,6.212014,38
1439478382384069,1,INS_SOLUTION_GOOD,51.760962,-1.260231,107.549932,5735884.2762,620066.910118,-107.549932,30U,6.639116,-0.521698,0.039103,0.007437,-0.02186,6.210642,38
1439478382696575,1,INS_SOLUTION_GOOD,51.760981,-1.260233,107.529869,5735886.34853,620066.697018,-107.529869,30U,6.358206,-0.534659,0.049895,0.017296,-0.015279,6.208215,38
1439478383009076,1,INS_SOLUTION_GOOD,51.760999,-1.260236,107.521201,5735888.33896,620066.481257,-107.521201,30U,6.102033,-0.470134,-0.020147,0.008501,-0.022616,6.204231,38
1439478383384079,1,INS_SOLUTION_GOOD,51.761018,-1.260238,107.549549,5735890.45473,620066.279618,-107.549549,30U,5.82331,-0.535939,0.087159,0.000523,-0.018486,6.202132,38
1439478385384109,1,INS_SOLUTION_GOOD,51.761109,-1.26025,107.546097,5735900.58611,620065.164968,-107.546097,30U,4.340612,-0.437343,0.025234,-0.015708,-0.02081,6.19023,39
1439478385884118,1,INS_SOLUTION_GOOD,51.761128,-1.260253,107.528688,5735902.65971,620064.902957,-107.528688,30U,3.974437,-0.407017,0.019693,-0.018076,-0.020319,6.193396,39
1439478386446628,1,INS_SOLUTION_GOOD,51.761147,-1.260256,107.55774,5735904.7207,620064.682739,-107.55774,30U,3.523041,-0.317459,0.009105,-0.01675,-0.016663,6.199992,39
1439478387071638,1,INS_SOLUTION_GOOD,51.761165,-1.260259,107.550442,5735906.80234,620064.435267,-107.550442,30U,2.997718,-0.288307,-0.056113,-0.015774,-0.020291,6.197825,39
1439478387821655,1,INS_SOLUTION_GOOD,51.761184,-1.26026,107.433211,5735908.8562,620064.28068,-107.433211,30U,2.370484,-0.210717,0.018287,-0.01239,-0.01936,6.20756,39
1439478398509306,1,INS_SOLUTION_GOOD,51.76127,-1.260268,107.103315,5735918.40831,620063.547741,-107.103315,30U,3.311505,-0.343879,-0.024443,-0.013422,-0.009134,6.200934,40
1439478399196816,1,INS_SOLUTION_GOOD,51.761291,-1.26027,107.022352,5735920.79216,620063.296857,-107.022352,30U,3.536543,-0.394331,0.019707,-0.016419,-0.011742,6.197489,40
1439478399759323,1,INS_SOLUTION_GOOD,51.761309,-1.260274,107.024842,5735922.78993,620063.034846,-107.024842,30U,3.623384,-0.387737,-0.028685,-0.016389,-0.008613,6.192762,40
1439478400321832,1,INS_SOLUTION_GOOD,51.761328,-1.260276,106.908556,5735924.85254,620062.830666,-106.908556,30U,3.706495,-0.391196,-0.022735,-0.014537,-0.009099,6.191606,40
1439478400946841,1,INS_SOLUTION_GOOD,51.761349,-1.260279,106.920693,5735927.15755,620062.52546,-106.920693,30U,3.709935,-0.39867,0.028243,-0.009034,-0.010906,6.192595,40
1439478405259387,1,INS_SOLUTION_GOOD,51.761442,-1.260292,106.741265,5735937.51869,620061.383383,-106.741265,30U,0.840515,-0.154745,-0.004099,-0.010611,-0.009765,6.188692,41
1439478414009527,1,INS_SOLUTION_GOOD,51.761449,-1.260291,106.667528,5735938.33737,620061.42899,-106.667528,30U,-0.002363,-0.042229,-0.004387,-0.013129,-0.008603,6.182693,41
1439478446947502,1,INS_SOLUTION_GOOD,51.761454,-1.260294,106.829761,5735938.83115,620061.27359,-106.829761,30U,0.488062,-0.075432,-0.009316,-0.008705,-0.007957,6.189503,41
1439478448822530,1,INS_SOLUTION_GOOD,51.76147,-1.260295,106.791172,5735940.66015,620061.139057,-106.791172,30U,1.698239,-0.218495,-0.030992,-0.012675,-0.004767,6.18251,41
1439478449760039,1,INS_SOLUTION_GOOD,51.761489,-1.260298,106.73599,5735942.71864,620060.895234,-106.73599,30U,2.837027,-0.351727,-0.023456,-0.009677,-0.0026,6.178235,41
1439478452322568,1,INS_SOLUTION_GOOD,51.76158,-1.260315,106.629401,5735952.78462,620059.479651,-106.629401,30U,4.526804,-0.652882,-0.051374,-0.015853,-0.003067,6.150239,42
1439478452760076,1,INS_SOLUTION_GOOD,51.761598,-1.260319,106.640907,5735954.80376,620059.132222,-106.640907,30U,4.691144,-0.69984,-0.02746,-0.018065,-0.01031,6.14508,42
1439478453197583,1,INS_SOLUTION_GOOD,51.761616,-1.260323,106.568204,5735956.83268,620058.811992,-106.568204,30U,4.813203,-0.742507,0.049054,-0.022421,6e-05,6.138934,42
1439478453635089,1,INS_SOLUTION_GOOD,51.761635,-1.260328,106.586478,5735958.96478,620058.42759,-106.586478,30U,4.920166,-0.788378,-0.027065,-0.014009,-0.008289,6.13846,42
1439478454072598,1,INS_SOLUTION_GOOD,51.761655,-1.260333,106.586853,5735961.14274,620058.028003,-106.586853,30U,5.030478,-0.762377,0.054782,-0.015457,-0.004923,6.137414,42
1439478456135132,1,INS_SOLUTION_GOOD,51.761746,-1.260355,106.503889,5735971.25358,620056.285852,-106.503889,30U,4.865617,-0.765539,0.063275,-0.021641,-0.010285,6.141324,43
1439478456572640,1,INS_SOLUTION_GOOD,51.761766,-1.260359,106.495309,5735973.39428,620055.898461,-106.495309,30U,4.911304,-0.759838,0.02065,-0.022705,-0.007265,6.144096,43
1439478457072647,1,INS_SOLUTION_GOOD,51.761788,-1.260365,106.442799,5735975.81946,620055.476455,-106.442799,30U,4.919777,-0.698188,-0.001849,-0.024808,-0.008155,6.160545,43
1439478457510157,1,INS_SOLUTION_GOOD,51.761807,-1.260369,106.441018,5735977.95659,620055.147407,-106.441018,30U,4.826652,-0.559803,0.017244,-0.032769,-0.012899,6.186127,43
1439478457947660,1,INS_SOLUTION_GOOD,51.761826,-1.260372,106.426253,5735980.04848,620054.88961,-106.426253,30U,4.704523,-0.322549,0.007822,-0.043416,-0.008957,6.245312,43
1439478460385195,1,INS_SOLUTION_GOOD,51.76191,-1.260325,106.415763,5735989.50923,620057.891651,-106.415763,30U,2.656691,3.193698,0.028475,-0.00697,-0.010428,0.915514,44
1439478460885204,1,INS_SOLUTION_GOOD,51.761921,-1.260299,106.404643,5735990.73064,620059.633612,-106.404643,30U,2.028724,3.863654,0.010888,-0.027498,-0.010482,1.139599,44
1439478461322709,1,INS_SOLUTION_GOOD,51.761927,-1.260272,106.410005,5735991.48138,620061.529149,-106.410005,30U,1.259244,4.366542,-0.011804,-0.012835,0.007046,1.328234,44
1439478461760213,1,INS_SOLUTION_GOOD,51.761931,-1.260243,106.439689,5735991.93804,620063.51812,-106.439689,30U,0.591017,4.687062,-0.015764,-0.031495,-0.002731,1.467582,44
1439478462260220,1,INS_SOLUTION_GOOD,51.761932,-1.260207,106.495621,5735992.14711,620065.985105,-106.495621,30U,0.013097,4.903626,-0.018789,-0.03915,-0.000979,1.59702,44
1439478464197737,1,INS_SOLUTION_GOOD,51.761913,-1.260064,106.63008,5735990.28748,620075.892121,-106.63008,30U,-2.098392,5.082427,0.015887,0.011904,-0.017716,1.980776,45
1439478464572741,1,INS_SOLUTION_GOOD,51.761905,-1.260036,106.603726,5735989.45133,620077.846781,-106.603726,30U,-2.563348,5.091667,0.133982,0.009666,-0.037793,2.050524,45
1439478464947747,1,INS_SOLUTION_GOOD,51.761896,-1.260008,106.52723,5735988.44267,620079.808194,-106.52723,30U,-3.032813,5.053713,0.257061,-0.007269,-0.034105,2.136451,45
1439478465322752,1,INS_SOLUTION_GOOD,51.761885,-1.259981,106.609588,5735987.25682,620081.689084,-106.609588,30U,-3.588042,4.819329,0.158477,-0.00866,-0.037566,2.233167,45
1439478465697758,1,INS_SOLUTION_GOOD,51.761871,-1.259955,106.533404,5735985.82221,620083.498969,-106.533404,30U,-4.183254,4.523062,0.225475,-0.012427,-0.036045,2.340572,45
1439478466947778,1,INS_SOLUTION_GOOD,51.761813,-1.259886,106.250003,5735979.40903,620088.42839,-106.250003,30U,-6.034564,3.058544,0.191216,-0.031982,-0.031425,2.684712,46
1439478467260284,1,INS_SOLUTION_GOOD,51.761796,-1.259873,106.199789,5735977.58375,620089.355188,-106.199789,30U,-6.309006,2.79987,0.192873,-0.026902,-0.025648,2.734116,46
1439478467572787,1,INS_SOLUTION_GOOD,51.761778,-1.259861,106.149662,5735975.54654,620090.262354,-106.149662,30U,-6.55092,2.582481,0.173599,-0.021711,-0.025233,2.771117,46
1439478467885294,1,INS_SOLUTION_GOOD,51.76176,-1.25985,106.097543,5735973.57582,620091.066786,-106.097543,30U,-6.708921,2.47263,0.160587,-0.023245,-0.015214,2.794826,46
1439478468197800,1,INS_SOLUTION_GOOD,51.76174,-1.259839,106.07916,5735971.43198,620091.903462,-106.07916,30U,-6.85476,2.361727,0.051363,-0.032725,-0.009349,2.81566,46
1439478469510320,1,INS_SOLUTION_GOOD,51.761655,-1.259793,106.184667,5735961.97369,620095.284443,-106.184667,30U,-7.488034,2.390359,0.108458,-0.023782,-0.012693,2.834434,47
1439478469822826,1,INS_SOLUTION_GOOD,51.761634,-1.259782,106.159427,5735959.72655,620096.064029,-106.159427,30U,-7.616613,2.447704,0.074709,-0.024911,-0.012083,2.830741,47
1439478470072833,1,INS_SOLUTION_GOOD,51.761616,-1.259773,106.141497,5735957.75056,620096.758041,-106.141497,30U,-7.719101,2.508496,0.099858,-0.024154,-0.014067,2.828609,47
1439478470385333,1,INS_SOLUTION_GOOD,51.761595,-1.259762,106.0998,5735955.43405,620097.550129,-106.0998,30U,-7.839084,2.568474,0.095823,-0.018615,-0.013253,2.82489,47
1439478470635335,1,INS_SOLUTION_GOOD,51.761577,-1.259753,106.076016,5735953.40064,620098.274761,-106.076016,30U,-7.932707,2.636377,0.093431,-0.016114,-0.012658,2.821013,47
1439478471822849,1,INS_SOLUTION_GOOD,51.761491,-1.259705,106.000138,5735943.92486,620101.780809,-106.000138,30U,-8.187114,2.915315,0.087443,-0.01251,-0.01363,2.799459,48
1439478472072852,1,INS_SOLUTION_GOOD,51.761472,-1.259694,106.01309,5735941.80861,620102.615584,-106.01309,30U,-8.229613,2.952626,0.077456,-0.006748,-0.010346,2.795019,48
1439478472322855,1,INS_SOLUTION_GOOD,51.761454,-1.259683,105.997073,5735939.84425,620103.379796,-105.997073,30U,-8.298293,3.015525,0.053649,-0.005627,-0.011565,2.79113,48
1439478472572856,1,INS_SOLUTION_GOOD,51.761434,-1.259672,105.97552,5735937.69335,620104.226577,-105.97552,30U,-8.409725,3.095706,0.09634,-0.006149,-0.009084,2.786345,48
1439478472822863,1,INS_SOLUTION_GOOD,51.761416,-1.259661,105.957179,5735935.68122,620105.030661,-105.957179,30U,-8.520599,3.196468,0.054786,-0.007296,-0.006225,2.780835,48
1439478473947881,1,INS_SOLUTION_GOOD,51.761327,-1.259603,105.958868,5735925.83052,620109.235462,-105.958868,30U,-8.905324,3.668271,0.079943,-0.006464,-0.014641,2.747818,49
1439478474197888,1,INS_SOLUTION_GOOD,51.761307,-1.25959,106.007707,5735923.69144,620110.199074,-106.007707,30U,-8.971451,3.778479,0.116012,-0.003726,-0.011328,2.738352,49
1439478474447887,1,INS_SOLUTION_GOOD,51.761286,-1.259576,105.984408,5735921.37769,620111.256799,-105.984408,30U,-9.025218,3.918916,0.061935,-0.001314,-0.007358,2.727886,49
1439478474697890,1,INS_SOLUTION_GOOD,51.761267,-1.259562,105.975726,5735919.23053,620112.264222,-105.975726,30U,-9.075557,4.04297,0.048758,-0.001741,-0.011079,2.718247,49
1439478474947899,1,INS_SOLUTION_GOOD,51.761246,-1.259546,105.953919,5735916.89148,620113.389758,-105.953919,30U,-9.123812,4.183562,0.079911,-0.002575,-0.008757,2.707319,49
1439478475947917,1,INS_SOLUTION_GOOD,51.761163,-1.259481,105.951919,5735907.81018,620118.132506,-105.951919,30U,-9.28719,4.722797,0.065365,0.001567,-0.011008,2.667064,50
1439478476135415,1,INS_SOLUTION_GOOD,51.761146,-1.25947,106.266963,5735905.93669,620118.93696,-106.266963,30U,-9.322285,4.807655,0.072667,-0.00017,-0.008183,2.661712,50
1439478476385415,1,INS_SOLUTION_GOOD,51.761126,-1.259453,106.257291,5735903.72579,620120.1531,-106.257291,30U,-9.33696,4.889484,0.030581,-0.00011,-0.008827,2.653043,50
1439478476572916,1,INS_SOLUTION_GOOD,51.761109,-1.259439,106.251183,5735901.88651,620121.185135,-106.251183,30U,-9.300448,4.98676,0.035166,-0.001864,-0.010247,2.644049,50
1439478476822918,1,INS_SOLUTION_GOOD,51.761089,-1.259421,106.240188,5735899.6894,620122.446925,-106.240188,30U,-9.26206,5.085416,0.063634,-0.002201,-0.012978,2.634746,50
1439478477760432,1,INS_SOLUTION_GOOD,51.761011,-1.259349,106.272434,5735891.11303,620127.62308,-106.272434,30U,-9.112167,5.416647,0.096336,-0.008714,-0.011255,2.600071,51
1439478477947937,1,INS_SOLUTION_GOOD,51.760994,-1.259333,106.258957,5735889.32235,620128.755455,-106.258957,30U,-9.064715,5.478433,0.022221,-0.010566,-0.008208,2.591917,51
1439478478197940,1,INS_SOLUTION_GOOD,51.760975,-1.259313,106.279781,5735887.16822,620130.190588,-106.279781,30U,-9.007765,5.570717,-0.002689,-0.011881,-0.010846,2.582356,51
1439478478447945,1,INS_SOLUTION_GOOD,51.760954,-1.259292,106.268757,5735884.87062,620131.704759,-106.268757,30U,-8.948543,5.650238,0.081843,-0.008795,-0.013017,2.571979,51
1439478478697949,1,INS_SOLUTION_GOOD,51.760935,-1.259272,106.250423,5735882.76321,620133.120934,-106.250423,30U,-8.898029,5.72515,0.070886,-0.00407,-0.012328,2.562306,51
1439478479697962,1,INS_SOLUTION_GOOD,51.760856,-1.259186,106.183781,5735874.12237,620139.299509,-106.183781,30U,-8.63787,6.020225,0.073483,-0.004951,-0.012296,2.526813,52
1439478479947967,1,INS_SOLUTION_GOOD,51.760836,-1.259163,106.16797,5735871.92554,620140.923832,-106.16797,30U,-8.565714,6.065823,0.081098,-0.008313,-0.013032,2.519367,52
1439478480197972,1,INS_SOLUTION_GOOD,51.760817,-1.259142,106.197966,5735869.91524,620142.44536,-106.197966,30U,-8.476865,6.088283,0.055232,-0.009194,-0.012568,2.513059,52
1439478480447975,1,INS_SOLUTION_GOOD,51.760797,-1.259119,106.184658,5735867.76352,620144.07901,-106.184658,30U,-8.366961,6.086978,0.034012,-0.007783,-0.011788,2.506349,52
1439478480697980,1,INS_SOLUTION_GOOD,51.760779,-1.259098,106.17445,5735865.80352,620145.586408,-106.17445,30U,-8.26666,6.078686,0.059376,-0.007227,-0.010888,2.500253,52
1439478481697999,1,INS_SOLUTION_GOOD,51.760707,-1.259009,106.213498,5735857.87131,620151.919813,-106.213498,30U,-7.842902,6.073362,0.092057,-0.016313,-0.017244,2.475208,53
1439478481948004,1,INS_SOLUTION_GOOD,51.760689,-1.258986,106.187925,5735855.88438,620153.548155,-106.187925,30U,-7.768019,6.055116,0.085574,-0.024715,-0.015505,2.476311,53
1439478482198007,1,INS_SOLUTION_GOOD,51.760673,-1.258963,106.103943,5735854.16557,620155.167085,-106.103943,30U,-7.743438,6.004143,0.074453,-0.022176,-0.011515,2.478086,53
1439478482448011,1,INS_SOLUTION_GOOD,51.760655,-1.25894,106.089083,5735852.19104,620156.768321,-106.089083,30U,-7.740991,5.966842,0.023268,-0.023018,-0.008058,2.480182,53
1439478482698013,1,INS_SOLUTION_GOOD,51.760638,-1.25892,106.087025,5735850.36643,620158.244527,-106.087025,30U,-7.766324,5.963453,0.045975,-0.027997,-0.019652,2.483243,53
1439478483760535,1,INS_SOLUTION_GOOD,51.760565,-1.258826,106.275567,5735842.378,620164.900644,-106.275567,30U,-7.796165,5.933989,0.046899,-0.001071,-0.015458,2.484306,54
1439478484010536,1,INS_SOLUTION_GOOD,51.760547,-1.258804,106.250734,5735840.39224,620166.492624,-106.250734,30U,-7.779683,5.935995,0.093353,-0.007356,-0.011084,2.482646,54
1439478484260541,1,INS_SOLUTION_GOOD,51.760531,-1.258782,106.353601,5735838.65493,620168.063907,-106.353601,30U,-7.743626,5.953602,0.001754,-0.015271,-0.010545,2.481149,54
1439478484510545,1,INS_SOLUTION_GOOD,51.760513,-1.258759,106.347583,5735836.68235,620169.661084,-106.347583,30U,-7.727075,5.966327,0.023691,-0.018237,-0.014648,2.479201,54
1439478484760548,1,INS_SOLUTION_GOOD,51.760496,-1.258738,106.33136,5735834.86357,620171.137275,-106.33136,30U,-7.727852,5.970911,0.142006,-0.012819,-0.02118,2.477955,54
1439478485823061,1,INS_SOLUTION_GOOD,51.760424,-1.258644,106.238007,5735826.99069,620177.844453,-106.238007,30U,-7.723257,6.152258,0.132004,-0.011004,-0.014756,2.461912,55
1439478486073059,1,INS_SOLUTION_GOOD,51.760406,-1.258621,106.211445,5735825.02282,620179.501286,-106.211445,30U,-7.719743,6.227508,0.053521,-0.012511,-0.008911,2.456997,55
1439478486323066,1,INS_SOLUTION_GOOD,51.76039,-1.258597,106.281101,5735823.34198,620181.163816,-106.281101,30U,-7.688738,6.265663,0.038186,-0.010706,-0.015606,2.453719,55
1439478486573064,1,INS_SOLUTION_GOOD,51.760372,-1.258574,106.259724,5735821.38654,620182.838494,-106.259724,30U,-7.649607,6.260048,0.097549,-0.007902,-0.015846,2.448836,55
1439478486823065,1,INS_SOLUTION_GOOD,51.760356,-1.258552,106.237599,5735819.59852,620184.384603,-106.237599,30U,-7.562871,6.259382,0.086391,-0.011798,-0.011019,2.445015,55
1439478488010583,1,INS_BAD_GPS_AGREEMENT,51.760277,-1.258443,106.288259,5735811.03164,620192.104917,-106.288259,30U,-7.176321,6.101191,0.050617,-0.013517,-0.011655,2.430679,56
1439478488260585,1,INS_BAD_GPS_AGREEMENT,51.760262,-1.258422,106.282089,5735809.35588,620193.608804,-106.282089,30U,-7.088448,6.098753,0.027819,-0.014395,-0.017812,2.425658,56
1439478488510589,1,INS_BAD_GPS_AGREEMENT,51.760245,-1.258399,106.260332,5735807.55843,620195.23702,-106.260332,30U,-7.029962,6.107753,0.127718,-0.012356,-0.019578,2.419164,56
1439478488760592,1,INS_BAD_GPS_AGREEMENT,51.76023,-1.258377,106.23194,5735805.91516,620196.743188,-106.23194,30U,-6.966694,6.122493,0.12465,-0.010468,-0.017408,2.412958,56
1439478489010595,1,INS_BAD_GPS_AGREEMENT,51.760214,-1.258354,106.207167,5735804.15322,620198.379889,-106.207167,30U,-6.89239,6.140132,0.090345,-0.010508,-0.017898,2.405402,56
1439478490135611,1,INS_BAD_GPS_AGREEMENT,51.76015,-1.258252,106.326019,5735797.15048,620205.646126,-106.326019,30U,-6.377668,6.290436,0.062369,-0.002997,-0.016133,2.356041,57
1439478490385619,1,INS_BAD_GPS_AGREEMENT,51.760136,-1.25823,106.31248,5735795.66994,620207.192181,-106.31248,30U,-6.276795,6.292404,0.073319,-0.001662,-0.014088,2.347067,57
1439478490635621,1,INS_BAD_GPS_AGREEMENT,51.760121,-1.258206,106.298557,5735794.09494,620208.866612,-106.298557,30U,-6.155316,6.289468,0.006241,-0.00497,-0.010004,2.339264,57
1439478490885624,1,INS_BAD_GPS_AGREEMENT,51.760108,-1.258184,106.297735,5735792.66518,620210.407126,-106.297735,30U,-6.058361,6.271685,0.006939,-0.004176,-0.011711,2.33231,57
1439478491135628,1,INS_BAD_GPS_AGREEMENT,51.760094,-1.258159,106.290539,5735791.09418,620212.182046,-106.290539,30U,-5.963814,6.255199,0.039431,-0.002511,-0.010579,2.324409,57
1439478492385644,1,INS_SOLUTION_GOOD,51.76003,-1.258047,106.309684,5735784.18352,620220.068935,-106.309684,30U,-5.540018,6.267008,0.024435,0.016866,-0.011045,2.28493,58
1439478492635649,1,INS_SOLUTION_GOOD,51.760017,-1.258024,106.304578,5735782.79284,620221.732574,-106.304578,30U,-5.459255,6.276966,0.016896,0.014199,-0.008851,2.277848,58
1439478492948155,1,INS_SOLUTION_GOOD,51.760002,-1.257995,106.303976,5735781.10715,620223.780066,-106.303976,30U,-5.376317,6.275861,0.016425,0.010849,-0.012095,2.27092,58
1439478493260659,1,INS_SOLUTION_GOOD,51.759987,-1.257968,106.309957,5735779.51266,620225.671185,-106.309957,30U,-5.303866,6.26068,0.026025,0.007996,-0.011908,2.264426,58
1439478493510664,1,INS_SOLUTION_GOOD,51.759975,-1.257944,106.303309,5735778.18367,620227.326585,-106.303309,30U,-5.223215,6.228128,0.026727,0.004245,-0.01199,2.260412,58
1439478494823186,1,INS_SOLUTION_GOOD,51.759915,-1.257829,106.324579,5735771.73697,620235.4643,-106.324579,30U,-5.109191,6.11249,0.077072,0.00525,-0.014173,2.256387,59
1439478495073190,1,INS_SOLUTION_GOOD,51.759903,-1.257806,106.348021,5735770.4441,620237.064881,-106.348021,30U,-5.079636,6.096122,0.023458,0.008796,-0.009975,2.253567,59
1439478495385698,1,INS_SOLUTION_GOOD,51.759889,-1.257779,106.346,5735768.97383,620238.928876,-106.346,30U,-5.02247,6.100202,0.000186,-0.001265,-0.012627,2.250246,59
1439478495635700,1,INS_SOLUTION_GOOD,51.759878,-1.257756,106.337753,5735767.7075,620240.540618,-106.337753,30U,-5.033942,6.066364,0.037524,0.00498,-0.008218,2.248958,59
1439478495948205,1,INS_SOLUTION_GOOD,51.759863,-1.257728,106.338602,5735766.1527,620242.520652,-106.338602,30U,-5.03102,6.043528,-0.054615,0.001842,-0.010512,2.252369,59
1439478497260729,1,INS_SOLUTION_GOOD,51.759803,-1.257615,106.404589,5735759.68624,620250.46484,-106.404589,30U,-5.171947,5.913244,-0.002579,0.001856,-0.005381,2.279586,60
1439478497510732,1,INS_SOLUTION_GOOD,51.759791,-1.257593,106.412958,5735758.37531,620252.026325,-106.412958,30U,-5.199095,5.85127,-0.013939,0.00359,-0.009724,2.28589,60
1439478497823237,1,INS_SOLUTION_GOOD,51.759777,-1.257568,106.413714,5735756.85492,620253.808504,-106.413714,30U,-5.2187,5.77996,0.028209,0.004438,-0.016423,2.295012,60
1439478498073241,1,INS_SOLUTION_GOOD,51.759765,-1.257545,106.557057,5735755.58967,620255.44349,-106.557057,30U,-5.240744,5.717686,0.073842,0.006808,-0.015819,2.302447,60
1439478498385751,1,INS_SOLUTION_GOOD,51.759751,-1.25752,106.545006,5735754.05481,620257.184678,-106.545006,30U,-5.27215,5.64238,0.029996,-0.000418,-0.021667,2.312705,60
1439478499698256,1,INS_SOLUTION_GOOD,51.759688,-1.257416,106.599528,5735747.14679,620264.537061,-106.599528,30U,-5.535656,5.111543,0.041152,-0.015498,-0.016371,2.388804,61
1439478500010759,1,INS_SOLUTION_GOOD,51.759671,-1.257393,106.582437,5735745.39283,620266.189107,-106.582437,30U,-5.673545,4.942499,-0.057544,-0.018736,-0.008831,2.419053,61
1439478500260760,1,INS_SOLUTION_GOOD,51.759662,-1.257373,106.15047,5735744.3971,620267.588925,-106.15047,30U,-5.759624,4.795048,0.028025,-0.017016,-0.01098,2.442675,61
1439478500573269,1,INS_SOLUTION_GOOD,51.759645,-1.257351,106.144668,5735742.57165,620269.134903,-106.144668,30U,-5.892294,4.584373,0.001945,-0.018234,-0.01309,2.478231,61
1439478500885770,1,INS_SOLUTION_GOOD,51.759629,-1.257332,106.134858,5735740.81642,620270.516561,-106.134858,30U,-6.019132,4.362031,0.013779,-0.013325,-0.009612,2.511925,61
1439478502260789,1,INS_BAD_GPS_AGREEMENT,51.759551,-1.257255,106.120154,5735732.24868,620275.983814,-106.120154,30U,-6.57024,3.269143,0.050368,-0.02052,-0.00935,2.676948,62
1439478502573292,1,INS_BAD_GPS_AGREEMENT,51.759532,-1.257241,106.11665,5735730.15883,620277.044134,-106.11665,30U,-6.650571,3.041744,-0.007285,-0.022382,-0.009599,2.709942,62
1439478502885797,1,INS_BAD_GPS_AGREEMENT,51.759514,-1.257228,106.114779,5735728.1736,620277.973584,-106.114779,30U,-6.731967,2.838032,0.008595,-0.021389,-0.008006,2.73709,62
1439478503198303,1,INS_SOLUTION_GOOD,51.759495,-1.257215,106.095032,5735726.08221,620278.912359,-106.095032,30U,-6.793704,2.707152,-0.002811,-0.016272,-0.006787,2.755921,62
1439478503510809,1,INS_SOLUTION_GOOD,51.759476,-1.257203,106.098438,5735723.9204,620279.813187,-106.098438,30U,-6.865904,2.58487,-0.012465,-0.007611,-0.00745,2.773436,62
1439478504948333,1,INS_SOLUTION_GOOD,51.759388,-1.257151,105.9101,5735714.28212,620283.638683,-105.9101,30U,-6.971097,2.169175,0.031146,-0.004389,-0.01466,2.83266,63
1439478505260844,1,INS_SOLUTION_GOOD,51.759371,-1.257143,105.65814,5735712.43013,620284.208366,-105.65814,30U,-6.938348,2.114603,0.06218,-0.004581,-0.014091,2.838797,63
1439478505573345,1,INS_SOLUTION_GOOD,51.759351,-1.257133,105.639892,5735710.2276,620284.928555,-105.639892,30U,-6.929496,2.076431,0.051297,-0.003588,-0.016393,2.841645,63
1439478505885849,1,INS_SOLUTION_GOOD,51.759333,-1.257124,105.615485,5735708.16547,620285.598764,-105.615485,30U,-6.929119,2.044039,0.081597,-0.007599,-0.012293,2.844092,63
1439478506198355,1,INS_SOLUTION_GOOD,51.759313,-1.257115,105.302476,5735706.0017,620286.326808,-105.302476,30U,-6.921854,2.033063,0.036098,-0.011192,-0.008707,2.847011,63
1439478507510876,1,INS_BAD_GPS_AGREEMENT,51.759231,-1.257075,105.969537,5735696.91235,620289.289284,-105.969537,30U,-7.293134,2.050667,0.006411,-0.014625,-0.000186,2.859564,64
1439478507823383,1,INS_BAD_GPS_AGREEMENT,51.759211,-1.257066,105.987638,5735694.73311,620289.957776,-105.987638,30U,-7.336071,2.084589,-0.091236,-0.013323,-0.012766,2.859075,64
1439478508135880,1,INS_BAD_GPS_AGREEMENT,51.75919,-1.257056,105.986003,5735692.38642,620290.679665,-105.986003,30U,-7.413839,2.062675,0.042859,-0.014027,-0.007077,2.862973,64
1439478508448382,1,INS_BAD_GPS_AGREEMENT,51.759168,-1.257047,105.986723,5735690.01894,620291.392711,-105.986723,30U,-7.483103,2.047194,-0.023458,-0.014703,-0.00704,2.866944,64
1439478508760886,1,INS_BAD_GPS_AGREEMENT,51.759148,-1.257038,105.989465,5735687.78035,620292.056552,-105.989465,30U,-7.544764,2.029239,-0.009425,-0.010614,-0.005781,2.87116,64
1439478510073405,1,INS_BAD_GPS_AGREEMENT,51.759058,-1.257,105.960699,5735677.76429,620294.902952,-105.960699,30U,-7.710844,1.9569,0.014511,-0.008382,-0.013116,2.885354,65
1439478510385907,1,INS_BAD_GPS_AGREEMENT,51.759037,-1.256992,105.953641,5735675.4613,620295.54099,-105.953641,30U,-7.735675,1.96506,0.069163,-0.012092,-0.017492,2.882619,65
1439478510635911,1,INS_BAD_GPS_AGREEMENT,51.759019,-1.256984,105.934895,5735673.46324,620296.104463,-105.934895,30U,-7.740811,1.982935,0.071911,-0.020558,-0.014861,2.880703,65
1439478510948415,1,INS_BAD_GPS_AGREEMENT,51.758996,-1.256975,105.919218,5735671.00412,620296.806649,-105.919218,30U,-7.728192,2.005462,0.046864,-0.034961,-0.017861,2.877969,65
1439478511260920,1,INS_BAD_GPS_AGREEMENT,51.758975,-1.256966,105.99246,5735668.68598,620297.500966,-105.99246,30U,-7.701824,2.036168,0.023496,-0.032069,0.000235,2.87587,65
1439478512885943,1,INS_BAD_GPS_AGREEMENT,51.758864,-1.256919,106.040491,5735656.41601,620300.991816,-106.040491,30U,-7.557508,1.951018,-0.043977,-0.014474,-0.006697,2.876444,66
1439478513135948,1,INS_BAD_GPS_AGREEMENT,51.758847,-1.256912,106.050889,5735654.46751,620301.54495,-106.050889,30U,-7.52892,1.956913,-0.010313,-0.01193,-0.010094,2.873836,66
1439478513448452,1,INS_BAD_GPS_AGREEMENT,51.758825,-1.256903,106.051322,5735652.07966,620302.228555,-106.051322,30U,-7.491464,1.949125,-0.010637,-0.002654,-0.011943,2.870867,66
1439478513760958,1,INS_BAD_GPS_AGREEMENT,51.758805,-1.256895,106.05124,5735649.86189,620302.867524,-106.05124,30U,-7.396181,1.953256,0.0245,0.000394,-0.015903,2.867263,66
1439478514073463,1,INS_SOLUTION_GOOD,51.758784,-1.256884,106.170307,5735647.59417,620303.626078,-106.170307,30U,-7.310837,1.913878,0.020947,-0.000891,-0.011929,2.871475,66
1439478515448482,1,INS_SOLUTION_GOOD,51.758697,-1.256845,105.846803,5735637.92192,620306.555204,-105.846803,30U,-6.947221,1.825569,0.050486,-0.021127,-0.021636,2.869109,67
1439478515760992,1,INS_SOLUTION_GOOD,51.758678,-1.256837,105.821821,5735635.86727,620307.152899,-105.821821,30U,-6.851943,1.835384,0.064747,-0.017875,-0.004465,2.862756,67
1439478516073493,1,INS_BAD_GPS_AGREEMENT,51.758659,-1.256829,105.836161,5735633.71015,620307.794669,-105.836161,30U,-6.738369,1.8126,-0.110724,-0.021616,-0.014121,2.85903,67
1439478516385999,1,INS_BAD_GPS_AGREEMENT,51.758641,-1.256821,105.833129,5735631.71716,620308.386355,-105.833129,30U,-6.633273,1.827776,0.044352,-0.011761,-0.004273,2.856459,67
1439478516698505,1,INS_BAD_GPS_AGREEMENT,51.758622,-1.256813,105.846311,5735629.62742,620309.015452,-105.846311,30U,-6.523958,1.79165,-0.086612,-0.009149,-0.007223,2.852492,67
1439478518261035,1,INS_BAD_GPS_AGREEMENT,51.758534,-1.256772,105.879887,5735619.92979,620312.020329,-105.879887,30U,-6.031766,1.759568,0.05748,-0.002318,-0.014059,2.833686,68
1439478518636038,1,INS_BAD_GPS_AGREEMENT,51.758514,-1.256763,105.873683,5735617.67694,620312.742192,-105.873683,30U,-5.926491,1.743362,-0.009579,-0.004916,-0.013142,2.831969,68
1439478519011047,1,INS_BAD_GPS_AGREEMENT,51.758494,-1.256753,105.873072,5735615.46071,620313.451582,-105.873072,30U,-5.828352,1.71454,0.009824,-0.007795,-0.015714,2.831387,68
1439478519386051,1,INS_BAD_GPS_AGREEMENT,51.758475,-1.256744,105.863562,5735613.39256,620314.114532,-105.863562,30U,-5.751581,1.681609,0.000143,-0.013393,-0.015966,2.830356,68
1439478519761058,1,INS_BAD_GPS_AGREEMENT,51.758455,-1.256735,105.855338,5735611.23739,620314.807222,-105.855338,30U,-5.693196,1.669186,0.027235,-0.015924,-0.014585,2.82666,68
1439478521448584,1,INS_BAD_GPS_AGREEMENT,51.758367,-1.256691,105.873709,5735601.48165,620318.078892,-105.873709,30U,-5.887354,1.794753,0.009923,-0.019412,-0.006801,2.820248,69
1439478521823584,1,INS_BAD_GPS_AGREEMENT,51.758348,-1.256682,105.875907,5735599.36505,620318.778228,-105.875907,30U,-5.958754,1.815088,-0.044427,-0.016125,-0.004188,2.818928,69
1439478522136089,1,INS_BAD_GPS_AGREEMENT,51.758331,-1.256673,105.889877,5735597.46531,620319.408476,-105.889877,30U,-6.006605,1.845496,0.002077,-0.010555,-0.006661,2.816417,69
1439478522448588,1,INS_BAD_GPS_AGREEMENT,51.758313,-1.256665,105.896543,5735595.55274,620320.047582,-105.896543,30U,-6.044205,1.865877,-0.008643,-0.002882,-0.004392,2.813918,69
1439478522823590,1,INS_BAD_GPS_AGREEMENT,51.758294,-1.256655,105.907834,5735593.38921,620320.777811,-105.907834,30U,-6.071282,1.894125,-0.049502,-0.00387,-0.011061,2.810649,69
1439478524198610,1,INS_SOLUTION_GOOD,51.75822,-1.256599,107.10178,5735585.26322,620324.812381,-107.10178,30U,-6.218914,2.045405,-0.063219,-0.001741,-0.008578,2.80467,70
1439478524511114,1,INS_SOLUTION_GOOD,51.758202,-1.25659,107.12014,5735583.27553,620325.519185,-107.12014,30U,-6.313238,2.083545,-0.039789,-0.000908,-0.014135,2.804854,70
1439478524823618,1,INS_SOLUTION_GOOD,51.758185,-1.25658,107.127369,5735581.38242,620326.192695,-107.127369,30U,-6.414506,2.107733,0.008681,-0.001242,-0.016372,2.804524,70
1439478525136124,1,INS_SOLUTION_GOOD,51.758166,-1.25657,107.137482,5735579.31723,620326.972313,-107.137482,30U,-6.495082,2.134017,-0.017635,-0.004477,-0.013126,2.804204,70
1439478525448628,1,INS_SOLUTION_GOOD,51.758147,-1.25656,107.146121,5735577.2526,620327.709986,-107.146121,30U,-6.518508,2.161019,-0.027894,-0.007064,-0.011611,2.80372,70
1439478526948652,1,INS_SOLUTION_GOOD,51.758062,-1.256511,106.796679,5735567.82514,620331.307474,-106.796679,30U,-6.65671,2.358721,0.003754,-0.027056,-0.007401,2.785161,71
1439478527198655,1,INS_BAD_GPS_AGREEMENT,51.75805,-1.256502,107.587335,5735566.50907,620331.997398,-107.587335,30U,-6.69321,2.398951,-0.068163,-0.024812,-0.009857,2.781601,71
1439478527511161,1,INS_BAD_GPS_AGREEMENT,51.75803,-1.25649,107.611001,5735564.37724,620332.82228,-107.611001,30U,-6.747999,2.432467,-0.024135,-0.021771,-0.013598,2.778658,71
1439478527823668,1,INS_BAD_GPS_AGREEMENT,51.758012,-1.25648,107.622082,5735562.37077,620333.601802,-107.622082,30U,-6.738577,2.458229,-0.038088,-0.015727,-0.009177,2.776241,71
1439478528136171,1,INS_BAD_GPS_AGREEMENT,51.757993,-1.256468,107.645263,5735560.24131,620334.435109,-107.645263,30U,-6.674484,2.435782,-0.095145,-0.013956,-0.009232,2.773591,71
1439478529636193,1,INS_BAD_GPS_AGREEMENT,51.757906,-1.256417,107.769184,5735550.638,620338.19846,-107.769184,30U,-6.271474,2.279359,-0.03745,-0.01372,-0.014891,2.773117,72
1439478529948699,1,INS_BAD_GPS_AGREEMENT,51.757888,-1.256407,107.783956,5735548.66154,620338.969718,-107.783956,30U,-6.197941,2.238161,-0.051698,-0.018175,-0.011996,2.772482,72
1439478530323708,1,INS_BAD_GPS_AGREEMENT,51.757868,-1.256395,107.807901,5735546.46818,620339.825618,-107.807901,30U,-6.105768,2.207173,-0.079865,-0.019467,-0.012464,2.77309,72
1439478530636209,1,INS_BAD_GPS_AGREEMENT,51.75785,-1.256385,107.830592,5735544.54458,620340.572261,-107.830592,30U,-6.025243,2.179198,-0.062155,-0.019171,-0.012977,2.774222,72
