timestamp,burst,ins_status,latitude,longitude,altitude,northing,easting,down,utm_zone,velocity_north,velocity_east,velocity_down,roll,pitch,yaw,serie
1403772882718129,1,INS_SOLUTION_GOOD,51.765551,-1.258509,113.383264,5736397.348991,620173.520547,-113.383264,30U,1.342183,3.599947,0.03888,-0.033927,-0.000114,1.230938,1
1403772883218141,1,INS_SOLUTION_GOOD,51.765557,-1.258482,113.380399,5736398.084521,620175.395036,-113.380399,30U,1.441469,3.950549,-0.004005,-0.025767,0.003864,1.229489,1
1403772883718150,1,INS_SOLUTION_GOOD,51.765564,-1.258452,113.383987,5736398.876654,620177.412537,-113.383987,30U,1.541655,4.212277,-0.070292,-0.024258,0.007687,1.227603,1
1403772884218156,1,INS_SOLUTION_GOOD,51.765571,-1.258421,113.399949,5736399.719303,620179.551101,-113.399949,30U,1.62909,4.41526,-0.012964,-0.013501,0.001891,1.230026,1
1403772884655658,1,INS_SOLUTION_GOOD,51.765577,-1.258393,113.41319,5736400.486295,620181.503543,-113.41319,30U,1.650884,4.579066,0.009036,-0.012808,-0.001234,1.230655,1
1403772886655679,1,INS_SOLUTION_GOOD,51.765609,-1.258257,113.402114,5736404.240461,620190.78964,-113.402114,30U,1.782613,4.686883,0.063237,0.006936,-0.000688,1.204437,2
1403772887093189,1,INS_SOLUTION_GOOD,51.765616,-1.258227,113.40722,5736405.104134,620192.829868,-113.40722,30U,1.861696,4.711196,0.063854,0.006664,-0.010478,1.203543,2
1403772887530697,1,INS_SOLUTION_GOOD,51.765624,-1.258197,113.39993,5736406.028482,620194.84814,-113.39993,30U,1.863745,4.778625,0.044798,0.006808,-0.009503,1.201954,2
1403772887968205,1,INS_SOLUTION_GOOD,51.765632,-1.258167,113.378939,5736406.9157,620196.93772,-113.378939,30U,1.928134,4.822383,0.045593,0.006403,-0.009443,1.202956,2
1403772888405715,1,INS_SOLUTION_GOOD,51.765639,-1.258136,113.35452,5736407.809739,620199.056617,-113.35452,30U,1.948405,4.88437,0.039752,0.013398,-0.010615,1.202298,2
1403772890280754,1,INS_SOLUTION_GOOD,51.765673,-1.258001,113.259986,5736411.737411,620208.268261,-113.259986,30U,1.960217,5.034291,-0.076809,0.001172,0.001694,1.214562,3
1403772890718260,1,INS_SOLUTION_GOOD,51.765679,-1.257969,113.266378,5736412.560391,620210.430621,-113.266378,30U,1.953623,5.018009,0.023792,0.005348,-0.010076,1.215888,3
1403772891093266,1,INS_SOLUTION_GOOD,51.765686,-1.257942,113.246782,5736413.338715,620212.321269,-113.246782,30U,1.896266,5.034135,0.070654,0.006074,-0.010946,1.213405,3
1403772891530775,1,INS_SOLUTION_GOOD,51.765694,-1.25791,113.242799,5736414.238419,620214.500021,-113.242799,30U,1.961558,5.015438,0.002065,0.012521,-0.013234,1.211186,3
1403772891905780,1,INS_SOLUTION_GOOD,51.7657,-1.257882,113.218047,5736415.020975,620216.395399,-113.218047,30U,1.946476,5.038214,0.141336,0.020923,-0.020433,1.208363,3
1403772893780809,1,INS_SOLUTION_GOOD,51.765733,-1.257747,113.115453,5736418.904777,620225.609102,-113.115453,30U,1.951394,5.070644,0.139888,0.012774,-0.014957,1.213756,4
1403772894218315,1,INS_SOLUTION_GOOD,51.765741,-1.257715,113.072507,5736419.817525,620227.825925,-113.072507,30U,1.973748,5.108134,0.046928,0.012336,-0.006534,1.210739,4
1403772894593323,1,INS_SOLUTION_GOOD,51.765748,-1.257687,113.07928,5736420.63489,620229.729649,-113.07928,30U,2.0103,5.152472,0.01018,0.00815,-0.009895,1.208701,4
1403772894968341,1,INS_SOLUTION_GOOD,51.765755,-1.257658,113.057892,5736421.45221,620231.68267,-113.057892,30U,2.041731,5.228666,0.060965,0.012909,-0.015579,1.207518,4
1403772895343334,1,INS_SOLUTION_GOOD,51.765762,-1.25763,113.020631,5736422.284454,620233.664191,-113.020631,30U,2.087204,5.309269,0.103535,0.010964,-0.011887,1.206941,4
1403772897093361,1,INS_SOLUTION_GOOD,51.765796,-1.257493,112.896392,5736426.252965,620242.984998,-112.896392,30U,2.181052,5.573034,0.018394,0.01018,-0.013747,1.204277,5
1403772897468367,1,INS_SOLUTION_GOOD,51.765803,-1.257462,112.866048,5736427.14097,620245.078685,-112.866048,30U,2.20015,5.571541,0.104738,0.013257,-0.016665,1.200668,5
1403772897843372,1,INS_SOLUTION_GOOD,51.76581,-1.257432,112.79151,5736428.015748,620247.145003,-112.79151,30U,2.205418,5.563929,0.121241,-0.00068,-0.019119,1.198429,5
1403772898218378,1,INS_SOLUTION_GOOD,51.765818,-1.257403,112.745377,5736428.863917,620249.122136,-112.745377,30U,2.214529,5.54477,0.152075,0.001905,-0.00084,1.202849,5
1403772898655886,1,INS_SOLUTION_GOOD,51.765826,-1.257368,112.76613,5736429.876915,620251.519925,-112.76613,30U,2.178909,5.531341,0.04255,0.009307,-0.016633,1.204657,5
1403772900343401,1,INS_SOLUTION_GOOD,51.76586,-1.257232,112.624718,5736433.811722,620260.816449,-112.624718,30U,2.151573,5.510051,-0.025408,-0.010231,-0.000435,1.208205,6
1403772900718405,1,INS_SOLUTION_GOOD,51.765866,-1.257205,112.587064,5736434.585138,620262.710444,-112.587064,30U,2.139404,5.491243,0.054521,0.002477,-0.011918,1.207955,6
1403772901093409,1,INS_SOLUTION_GOOD,51.765873,-1.257174,112.555368,5736435.44686,620264.774859,-112.555368,30U,2.149168,5.478158,0.118633,0.005162,-0.018137,1.207281,6
1403772901468412,1,INS_SOLUTION_GOOD,51.765881,-1.257144,112.506155,5736436.315165,620266.840013,-112.506155,30U,2.146215,5.50331,0.06526,0.002402,-0.008199,1.204794,6
1403772901843418,1,INS_SOLUTION_GOOD,51.765888,-1.257114,112.464071,5736437.18443,620268.903418,-112.464071,30U,2.183922,5.514498,0.093103,0.001928,-0.013727,1.205934,6
1403772903530950,1,INS_SOLUTION_GOOD,51.765921,-1.256979,112.238881,5736441.077818,620278.122961,-112.238881,30U,2.195357,5.65324,0.094206,0.00177,-0.012407,1.20929,7
1403772903905960,1,INS_SOLUTION_GOOD,51.765929,-1.256948,112.204162,5736441.961746,620280.250288,-112.204162,30U,2.179944,5.650453,0.077084,0.005204,-0.00627,1.208411,7
1403772904280968,1,INS_SOLUTION_GOOD,51.765936,-1.256919,112.189382,5736442.800893,620282.259107,-112.189382,30U,2.17803,5.639721,0.076559,0.005587,-0.012926,1.208854,7
1403772904655975,1,INS_BAD_GPS_AGREEMENT,51.765943,-1.256888,112.162576,5736443.697203,620284.369015,-112.162576,30U,2.181719,5.624259,0.099635,0.001804,-0.013783,1.208042,7
1403772905030982,1,INS_BAD_GPS_AGREEMENT,51.765951,-1.256857,112.123845,5736444.581344,620286.481837,-112.123845,30U,2.184806,5.608231,0.095243,0.002607,-0.006061,1.207801,7
1403772906718508,1,INS_BAD_GPS_AGREEMENT,51.765984,-1.256721,112.074018,5736448.526106,620295.777795,-112.074018,30U,2.191915,5.609524,0.062896,0.014037,-0.018112,1.206184,8
1403772907093506,1,INS_BAD_GPS_AGREEMENT,51.765992,-1.25669,112.032049,5736449.40779,620297.88073,-112.032049,30U,2.178754,5.561661,0.092519,0.019117,-0.017347,1.206967,8
1403772907468509,1,INS_BAD_GPS_AGREEMENT,51.765999,-1.25666,111.994331,5736450.216049,620299.937644,-111.994331,30U,2.138726,5.496782,0.050181,0.018898,-0.017136,1.206538,8
1403772907843512,1,INS_BAD_GPS_AGREEMENT,51.766006,-1.25663,111.956793,5736451.078991,620301.991938,-111.956793,30U,2.131558,5.428824,0.136113,0.011694,-0.01532,1.206673,8
1403772908218519,1,INS_BAD_GPS_AGREEMENT,51.766013,-1.256602,111.921873,5736451.884727,620303.915319,-111.921873,30U,2.111485,5.351695,0.098194,0.014431,-0.016868,1.206629,8
1403772910093559,1,INS_SOLUTION_GOOD,51.766047,-1.256463,111.730865,5736455.898708,620313.387098,-111.730865,30U,2.00935,4.816536,0.082397,0.013095,-0.012201,1.191712,9
1403772910531067,1,INS_SOLUTION_GOOD,51.766054,-1.256433,111.712687,5736456.725611,620315.423057,-111.712687,30U,1.853113,4.624529,0.066773,0.01941,-0.019531,1.192796,9
1403772910968578,1,INS_SOLUTION_GOOD,51.766061,-1.256405,111.6653,5736457.575936,620317.37754,-111.6653,30U,1.774909,4.365829,0.066344,0.020535,-0.015596,1.196648,9
1403772911406086,1,INS_SOLUTION_GOOD,51.766068,-1.256378,111.6327,5736458.365958,620319.239156,-111.6327,30U,1.63061,4.178489,0.069456,0.037259,-0.026156,1.207428,9
1403772911906095,1,INS_SOLUTION_GOOD,51.766075,-1.256348,111.584882,5736459.172865,620321.239138,-111.584882,30U,1.396114,3.979227,0.163859,0.032994,-0.021222,1.242844,9
1403772914468623,1,INS_SOLUTION_GOOD,51.766068,-1.25621,111.451075,5736458.63387,620330.829159,-111.451075,30U,-2.632652,3.351985,0.068454,0.004567,-0.018483,2.258411,10
1403772914968631,1,INS_SOLUTION_GOOD,51.766054,-1.256187,111.397622,5736457.110021,620332.424865,-111.397622,30U,-3.46619,2.928955,0.141061,-0.004701,0.007016,2.464736,10
1403772915406149,1,INS_SOLUTION_GOOD,51.766039,-1.256169,111.394995,5736455.487982,620333.67413,-111.394995,30U,-4.015223,2.567997,-0.065045,-0.003332,-0.00161,2.592872,10
1403772915843640,1,INS_SOLUTION_GOOD,51.766021,-1.256155,111.303772,5736453.55655,620334.697441,-111.303772,30U,-4.427835,2.335877,0.070468,0.000693,-0.004812,2.669009,10
1403772916281146,1,INS_SOLUTION_GOOD,51.766004,-1.256141,111.276109,5736451.658231,620335.700214,-111.276109,30U,-4.708975,2.237184,0.032736,-0.002081,-0.000177,2.71109,10
1403772918093675,1,INS_SOLUTION_GOOD,51.765921,-1.256082,111.184408,5736442.525049,620340.007389,-111.184408,30U,-5.261134,2.399911,0.094007,-0.005384,-0.001594,2.723733,11
1403772918468682,1,INS_SOLUTION_GOOD,51.765904,-1.25607,111.171673,5736440.637267,620340.920301,-111.171673,30U,-5.328089,2.456069,0.036702,-0.007543,-0.003752,2.718971,11
1403772918781184,1,INS_SOLUTION_GOOD,51.765887,-1.256057,111.298322,5736438.826557,620341.850287,-111.298322,30U,-5.410063,2.514391,0.080237,-0.007378,-0.015909,2.7175,11
1403772919156191,1,INS_SOLUTION_GOOD,51.765869,-1.256043,111.248495,5736436.771949,620342.850245,-111.248495,30U,-5.498373,2.504545,0.093808,-0.00666,0.003353,2.719296,11
1403772919531199,1,INS_SOLUTION_GOOD,51.765851,-1.25603,111.29399,5736434.788425,620343.826204,-111.29399,30U,-5.49869,2.510123,-0.004352,-0.003899,-3.1e-05,2.723721,11
1403772921218737,1,INS_SOLUTION_GOOD,51.765766,-1.25597,111.304018,5736425.494286,620348.163146,-111.304018,30U,-5.467028,2.403214,0.010201,-0.00303,0.001373,2.732113,12
1403772921593738,1,INS_SOLUTION_GOOD,51.765748,-1.255957,111.249034,5736423.45561,620349.108117,-111.249034,30U,-5.472242,2.391635,0.048927,-0.006608,-0.004556,2.733361,12
1403772921968742,1,INS_SOLUTION_GOOD,51.765729,-1.255944,111.195164,5736421.393249,620350.067671,-111.195164,30U,-5.499874,2.395569,0.149872,-0.0125,-0.007278,2.734327,12
1403772922343745,1,INS_SOLUTION_GOOD,51.76571,-1.255931,111.131174,5736419.321887,620351.027717,-111.131174,30U,-5.517379,2.381859,0.136551,-0.009384,0.000819,2.734937,12
1403772922718750,1,INS_SOLUTION_GOOD,51.765692,-1.255918,111.371341,5736417.357773,620351.963795,-111.371341,30U,-5.544859,2.389147,0.064808,-0.011794,-0.003883,2.739434,12
1403772924406276,1,INS_SOLUTION_GOOD,51.765606,-1.255861,111.357907,5736407.893339,620356.121537,-111.357907,30U,-5.667187,2.246637,0.082017,0.0068,-0.00187,2.764957,13
1403772924781284,1,INS_SOLUTION_GOOD,51.765588,-1.255849,111.382723,5736405.844857,620356.958838,-111.382723,30U,-5.64081,2.217422,0.114916,0.011572,-0.000179,2.764926,13
1403772925156291,1,INS_SOLUTION_GOOD,51.765568,-1.255837,111.346474,5736403.732854,620357.852547,-111.346474,30U,-5.592153,2.207631,0.024355,0.0153,0.0001,2.760373,13
1403772925531297,1,INS_SOLUTION_GOOD,51.765549,-1.255824,111.408983,5736401.539948,620358.815644,-111.408983,30U,-5.555669,2.250593,0.117843,0.016595,-0.002017,2.752169,13
1403772925906300,1,INS_SOLUTION_GOOD,51.76553,-1.255811,111.37164,5736399.460217,620359.732746,-111.37164,30U,-5.523005,2.283285,0.096997,0.015578,0.000368,2.741829,13
1403772927593828,1,INS_SOLUTION_GOOD,51.765446,-1.255752,111.581837,5736390.265849,620364.076886,-111.581837,30U,-5.528416,2.398705,0.010294,0.020552,-0.006306,2.728401,14
1403772927968836,1,INS_SOLUTION_GOOD,51.765427,-1.255738,111.545716,5736388.19115,620365.046205,-111.545716,30U,-5.521489,2.420689,0.086333,0.021604,0.000998,2.72633,14
1403772928343842,1,INS_SOLUTION_GOOD,51.765408,-1.255725,111.527548,5736386.119664,620366.014896,-111.527548,30U,-5.4883,2.407976,0.04379,0.02992,-0.002695,2.724943,14
1403772928718849,1,INS_SOLUTION_GOOD,51.765391,-1.255712,111.646368,5736384.193359,620366.949944,-111.646368,30U,-5.385518,2.383381,0.076379,0.033833,0.001025,2.722875,14
1403772929093852,1,INS_SOLUTION_GOOD,51.765373,-1.255699,111.632827,5736382.189575,620367.897477,-111.632827,30U,-5.286934,2.35535,0.013571,0.029746,-0.000593,2.720865,14
1403772930843878,1,INS_SOLUTION_GOOD,51.765289,-1.25564,111.79791,5736373.01102,620372.218622,-111.79791,30U,-5.105965,2.303587,-0.083885,0.031995,0.001948,2.715511,15
1403772931218882,1,INS_SOLUTION_GOOD,51.765273,-1.255628,111.79824,5736371.197215,620373.084082,-111.79824,30U,-5.076992,2.278906,0.047695,0.031844,0.002841,2.717644,15
1403772931593890,1,INS_SOLUTION_GOOD,51.765256,-1.255613,111.89593,5736369.325566,620374.136302,-111.89593,30U,-5.032777,2.262173,0.011764,0.027933,-0.002304,2.715762,15
1403772931968897,1,INS_SOLUTION_GOOD,51.765239,-1.255601,111.884554,5736367.435769,620375.048527,-111.884554,30U,-5.029683,2.272087,0.063982,0.018074,0.010099,2.714695,15
1403772932343903,1,INS_SOLUTION_GOOD,51.765221,-1.255588,111.904362,5736365.548831,620375.959304,-111.904362,30U,-4.996756,2.262833,0.016825,0.014941,-0.002282,2.714145,15
1403772934218930,1,INS_SOLUTION_GOOD,51.765139,-1.255528,111.801032,5736356.435992,620380.306244,-111.801032,30U,-4.973794,2.329573,0.157491,0.017254,-0.025044,2.710087,16
1403772934593936,1,INS_SOLUTION_GOOD,51.765121,-1.255514,111.753653,5736354.493101,620381.338564,-111.753653,30U,-5.117228,2.305642,0.136019,0.013789,-0.011773,2.709418,16
1403772934968941,1,INS_SOLUTION_GOOD,51.765103,-1.255501,111.722552,5736352.562339,620382.282567,-111.722552,30U,-5.167296,2.364379,0.074378,0.006776,-0.015184,2.712673,16
1403772935343950,1,INS_SOLUTION_GOOD,51.765086,-1.255488,111.689063,5736350.610882,620383.221956,-111.689063,30U,-5.202942,2.353424,0.101945,0.014817,-0.012501,2.713811,16
1403772935718957,1,INS_SOLUTION_GOOD,51.765067,-1.255476,111.621949,5736348.598644,620384.076429,-111.621949,30U,-5.197158,2.365727,0.023576,0.014846,-0.01273,2.712561,16
1403772937468984,1,INS_SOLUTION_GOOD,51.764985,-1.255417,111.703142,5736339.581879,620388.383264,-111.703142,30U,-5.196686,2.274301,0.119355,0.01341,-0.004985,2.719268,17
1403772937843988,1,INS_SOLUTION_GOOD,51.764968,-1.255405,111.695361,5736337.639983,620389.30365,-111.695361,30U,-5.151677,2.286244,-0.072076,0.010833,-0.014649,2.718871,17
1403772938218993,1,INS_SOLUTION_GOOD,51.764951,-1.255393,111.678794,5736335.809126,620390.167873,-111.678794,30U,-5.129124,2.277358,0.110057,0.010566,-0.018997,2.716572,17
1403772938593999,1,INS_SOLUTION_GOOD,51.764934,-1.255378,111.837893,5736333.929718,620391.221189,-111.837893,30U,-5.100468,2.292435,0.043007,0.005979,-0.009911,2.714759,17
1403772938969007,1,INS_SOLUTION_GOOD,51.764917,-1.255365,111.825236,5736332.018232,620392.138295,-111.825236,30U,-5.074129,2.290561,0.003957,0.007209,-0.011106,2.715165,17
1403772940781541,1,INS_SOLUTION_GOOD,51.764833,-1.255305,111.739666,5736322.802018,620396.498465,-111.739666,30U,-5.281111,2.304538,0.070981,0.012083,-0.014841,2.721876,18
1403772941156544,1,INS_SOLUTION_GOOD,51.764815,-1.255293,111.717704,5736320.817671,620397.430367,-111.717704,30U,-5.294468,2.319513,0.015108,0.009235,-0.01404,2.722154,18
1403772941531548,1,INS_SOLUTION_GOOD,51.764797,-1.25528,111.703279,5736318.827804,620398.359433,-111.703279,30U,-5.286507,2.330731,0.060978,0.009989,-0.018717,2.724197,18
1403772941906554,1,INS_SOLUTION_GOOD,51.764779,-1.255267,111.674414,5736316.84201,620399.281981,-111.674414,30U,-5.255755,2.29602,0.027267,0.01131,-0.012881,2.723287,18
1403772942281557,1,INS_SOLUTION_GOOD,51.764762,-1.255255,111.66487,5736314.982412,620400.149384,-111.66487,30U,-5.185,2.286905,-0.012198,0.00681,-0.016986,2.721814,18
1403772944031601,1,INS_SOLUTION_GOOD,51.764679,-1.255197,111.200238,5736305.892408,620404.412872,-111.200238,30U,-5.029343,2.194511,0.059588,0.004628,-0.018164,2.720593,19
1403772944406595,1,INS_SOLUTION_GOOD,51.764662,-1.255185,111.172383,5736304.012187,620405.292647,-111.172383,30U,-4.973342,2.190975,0.062447,0.007544,-0.014958,2.719732,19
1403772944844104,1,INS_SOLUTION_GOOD,51.764644,-1.25517,111.2701,5736302.009967,620406.379638,-111.2701,30U,-4.901882,2.160458,0.051653,0.012963,-0.019345,2.717485,19
1403772945281610,1,INS_SOLUTION_GOOD,51.764625,-1.255156,111.24401,5736299.983252,620407.335828,-111.24401,30U,-4.859354,2.140886,0.103091,0.018264,-0.031267,2.713469,19
1403772945656615,1,INS_SOLUTION_GOOD,51.764607,-1.255146,111.034757,5736297.955189,620408.128697,-111.034757,30U,-4.815082,2.17499,0.197508,0.012879,-0.019708,2.7076,19
1403772947531644,1,INS_SOLUTION_GOOD,51.764528,-1.25508,110.888995,5736289.234334,620412.845755,-110.888995,30U,-4.323375,2.076065,0.017943,-0.004013,-0.023476,2.691161,20
1403772947969147,1,INS_SOLUTION_GOOD,51.764511,-1.255068,110.862145,5736287.423581,620413.759499,-110.862145,30U,-3.99308,1.888994,0.044,-0.004689,-0.021787,2.691995,20
1403772948469156,1,INS_SOLUTION_GOOD,51.764494,-1.255055,110.832655,5736285.546484,620414.699963,-110.832655,30U,-3.597626,1.685155,-0.003886,-0.002119,-0.007243,2.692325,20
1403772948969166,1,INS_SOLUTION_GOOD,51.764478,-1.25504,110.963542,5736283.795595,620415.725299,-110.963542,30U,-3.21848,1.496952,-0.059676,-0.002083,-0.008732,2.695153,20
1403772949594178,1,INS_SOLUTION_GOOD,51.76446,-1.255024,111.162774,5736281.85455,620416.941461,-111.162774,30U,-3.011135,1.334907,-0.018036,0.003463,-0.021881,2.72602,20
1403772952344219,1,INS_SOLUTION_GOOD,51.764373,-1.255014,111.100373,5736272.152966,620417.845605,-111.100373,30U,-3.700926,-1.769826,-0.018193,-0.011233,-0.011116,3.584826,21
1403772952844227,1,INS_SOLUTION_GOOD,51.764355,-1.255029,110.946868,5736270.164084,620416.844098,-110.946868,30U,-3.559026,-2.562221,0.02362,-0.009045,-0.015661,3.754661,21
1403772953344234,1,INS_SOLUTION_GOOD,51.76434,-1.25505,110.919926,5736268.368543,620415.459403,-110.919926,30U,-3.419558,-3.166517,-0.143719,-0.016579,0.000934,3.858122,21
1403772953781739,1,INS_SOLUTION_GOOD,51.764325,-1.25507,110.602048,5736266.694539,620414.103835,-110.602048,30U,-3.380546,-3.495564,0.049751,-0.021381,-0.013182,3.929449,21
1403772954219248,1,INS_SOLUTION_GOOD,51.764312,-1.255093,110.586098,5736265.189499,620412.52736,-110.586098,30U,-3.305475,-3.802276,0.015358,-0.011449,0.004581,3.982955,21
1403772956094289,1,INS_SOLUTION_GOOD,51.764254,-1.255203,110.211243,5736258.634967,620405.098349,-110.211243,30U,-3.334241,-4.268294,0.026352,0.006818,-0.003173,4.024967,22
1403772956469297,1,INS_SOLUTION_GOOD,51.764243,-1.255227,110.207639,5736257.308217,620403.509319,-110.207639,30U,-3.423973,-4.263014,-0.064708,0.003676,2.1e-05,4.030088,22
1403772956844303,1,INS_SOLUTION_GOOD,51.76423,-1.25525,110.037906,5736255.862793,620401.922367,-110.037906,30U,-3.4053,-4.351545,0.022737,0.016781,-0.005929,4.033105,22
1403772957281811,1,INS_SOLUTION_GOOD,51.764217,-1.255277,110.036964,5736254.380299,620400.12075,-110.036964,30U,-3.383602,-4.424706,0.020613,0.009985,-0.011363,4.03505,22
1403772957656817,1,INS_SOLUTION_GOOD,51.764205,-1.2553,109.874531,5736252.97992,620398.551567,-109.874531,30U,-3.477932,-4.423955,-0.015744,0.009047,0.0164,4.036408,22
1403772959406832,1,INS_SOLUTION_GOOD,51.764149,-1.255414,109.83067,5736246.555332,620390.795256,-109.83067,30U,-3.56481,-4.542898,-0.075291,0.01649,0.002846,4.031681,23
1403772959781838,1,INS_SOLUTION_GOOD,51.764137,-1.255437,109.758709,5736245.20674,620389.288349,-109.758709,30U,-3.596576,-4.501042,-0.024882,0.010247,-0.007834,4.028983,23
1403772960156843,1,INS_SOLUTION_GOOD,51.764125,-1.255462,109.742776,5736243.798892,620387.606799,-109.742776,30U,-3.590502,-4.530214,0.02086,0.010309,0.001047,4.027001,23
1403772960531847,1,INS_BAD_GPS_AGREEMENT,51.764112,-1.255487,109.742637,5736242.383715,620385.921213,-109.742637,30U,-3.617159,-4.528124,-0.074917,0.012247,0.006145,4.026914,23
1403772960906855,1,INS_BAD_GPS_AGREEMENT,51.7641,-1.255512,109.763003,5736240.969355,620384.227873,-109.763003,30U,-3.633029,-4.53875,-0.054922,0.020007,0.003923,4.025935,23
1403772962656891,1,INS_SOLUTION_GOOD,51.764043,-1.255625,109.768204,5736234.474891,620376.577589,-109.768204,30U,-3.604701,-4.717563,-0.002313,0.002522,0.020371,4.030977,24
1403772963031899,1,INS_SOLUTION_GOOD,51.764031,-1.25565,109.825676,5736233.040198,620374.848137,-109.825676,30U,-3.642984,-4.629537,-0.164904,0.002175,-0.001062,4.035404,24
1403772963406908,1,INS_SOLUTION_GOOD,51.764018,-1.255674,109.800062,5736231.584773,620373.26134,-109.800062,30U,-3.596525,-4.610264,0.013013,0.008557,-0.000267,4.036548,24
1403772963781911,1,INS_SOLUTION_GOOD,51.764005,-1.255696,109.842291,5736230.134477,620371.721507,-109.842291,30U,-3.577377,-4.57203,0.005412,0.004956,-0.001818,4.03696,24
1403772964156914,1,INS_SOLUTION_GOOD,51.763993,-1.255721,109.850113,5736228.740259,620370.023396,-109.850113,30U,-3.546276,-4.534045,-0.023751,0.012717,-0.016097,4.037966,24
1403772965969432,1,INS_SOLUTION_GOOD,51.763935,-1.255836,109.954721,5736222.110172,620362.275103,-109.954721,30U,-3.405303,-4.370914,-0.024897,-0.003647,0.003685,4.04,25
1403772966344441,1,INS_SOLUTION_GOOD,51.763924,-1.25586,109.973593,5736220.775899,620360.650051,-109.973593,30U,-3.39216,-4.381805,-0.062904,-0.003667,-0.00064,4.041865,25
1403772966781950,1,INS_SOLUTION_GOOD,51.763911,-1.255885,110.054714,5736219.289625,620358.936323,-110.054714,30U,-3.45217,-4.432562,-0.072454,-0.00527,0.000837,4.044971,25
1403772967156957,1,INS_SOLUTION_GOOD,51.763899,-1.25591,110.075734,5736217.936356,620357.270643,-110.075734,30U,-3.480683,-4.500039,-0.033275,-0.006418,-0.000248,4.04929,25
1403772967531964,1,INS_SOLUTION_GOOD,51.763887,-1.255934,110.130562,5736216.569482,620355.668807,-110.130562,30U,-3.482863,-4.553362,-0.099934,-0.005356,-0.002749,4.053633,25
1403772969282001,1,INS_SOLUTION_GOOD,51.763832,-1.256049,110.213476,5736210.245218,620347.856616,-110.213476,30U,-3.512529,-4.650443,-0.011304,-0.010317,-0.002808,4.057229,26
1403772969657009,1,INS_SOLUTION_GOOD,51.76382,-1.256074,110.230029,5736208.864618,620346.164588,-110.230029,30U,-3.523233,-4.676379,-0.048791,-0.007978,-0.00866,4.060437,26
1403772970032016,1,INS_SOLUTION_GOOD,51.763808,-1.2561,110.233289,5736207.479362,620344.41281,-110.233289,30U,-3.527997,-4.723447,0.037384,-0.003384,-0.01251,4.062377,26
1403772970407015,1,INS_SOLUTION_GOOD,51.763795,-1.256126,110.213354,5736206.089513,620342.65037,-110.213354,30U,-3.549845,-4.740398,-0.105273,-0.008643,0.005649,4.066302,26
1403772970782018,1,INS_SOLUTION_GOOD,51.763784,-1.25615,110.307894,5736204.788126,620341.032254,-110.307894,30U,-3.519604,-4.691122,-0.113328,-0.004692,-0.013176,4.070365,26
1403772972594540,1,INS_SOLUTION_GOOD,51.763729,-1.256269,110.27658,5736198.512991,620332.95628,-110.27658,30U,-3.232069,-4.4298,0.073717,0.00777,-0.007783,4.061754,27
1403772972969546,1,INS_SOLUTION_GOOD,51.763718,-1.256293,110.262562,5736197.211113,620331.317458,-110.262562,30U,-3.326738,-4.400565,-0.119221,-0.003097,0.001289,4.055054,27
1403772973344556,1,INS_SOLUTION_GOOD,51.763707,-1.256317,110.308455,5736195.906127,620329.678986,-110.308455,30U,-3.332223,-4.422404,0.097173,0.003799,0.001681,4.05145,27
1403772973782064,1,INS_SOLUTION_GOOD,51.763694,-1.256342,110.412099,5736194.432646,620328.006499,-110.412099,30U,-3.366671,-4.402207,-0.176034,-0.002489,-0.00076,4.052293,27
1403772974157072,1,INS_SOLUTION_GOOD,51.763682,-1.256366,110.438034,5736193.111661,620326.355013,-110.438034,30U,-3.396297,-4.440225,0.008107,0.005985,-0.000862,4.054949,27
1403772975969610,1,INS_SOLUTION_GOOD,51.763626,-1.256484,110.621781,5736186.671179,620318.389698,-110.621781,30U,-3.468876,-4.612583,-0.04708,0.004396,-0.004165,4.060984,28
1403772976407119,1,INS_SOLUTION_GOOD,51.763612,-1.256513,110.638898,5736185.101413,620316.403701,-110.638898,30U,-3.418215,-4.608931,-0.070679,-0.000406,4.9e-05,4.062886,28
1403772976782124,1,INS_SOLUTION_GOOD,51.763601,-1.256536,110.65198,5736183.825273,620314.868511,-110.65198,30U,-3.392846,-4.578327,-0.064693,0.00327,0.002569,4.064865,28
1403772977219632,1,INS_SOLUTION_GOOD,51.763588,-1.256565,110.688292,5736182.288919,620312.907053,-110.688292,30U,-3.35353,-4.525915,-0.121713,0.005907,0.000496,4.066699,28
1403772977594635,1,INS_SOLUTION_GOOD,51.763576,-1.256589,110.681182,5736180.928172,620311.295588,-110.681182,30U,-3.330181,-4.463273,0.002265,0.015785,-0.00981,4.067133,28
1403772979532151,1,INS_SOLUTION_GOOD,51.763517,-1.256702,110.873655,5736174.225452,620303.628144,-110.873655,30U,-3.522463,-3.649109,-0.023275,-0.009758,-0.002829,3.937899,29
1403772979969657,1,INS_SOLUTION_GOOD,51.763503,-1.256725,110.895298,5736172.617952,620302.083539,-110.895298,30U,-3.579518,-3.585453,-0.046044,-0.021517,-0.008394,3.926187,29
1403772980407163,1,INS_SOLUTION_GOOD,51.763489,-1.256748,110.90785,5736171.016029,620300.53017,-110.90785,30U,-3.509644,-3.686465,0.014073,-0.027639,-0.008648,3.954903,29
1403772980844673,1,INS_SOLUTION_GOOD,51.763475,-1.256771,110.960738,5736169.43985,620298.955194,-110.960738,30U,-3.334873,-3.879525,-0.020862,-0.034001,-0.000863,4.011032,29
1403772981282183,1,INS_SOLUTION_GOOD,51.763463,-1.256796,110.989659,5736168.055653,620297.312108,-110.989659,30U,-3.100284,-4.071614,-0.115307,-0.032414,0.002052,4.068267,29
1403772983282225,1,INS_SOLUTION_GOOD,51.763416,-1.256923,111.12187,5736162.554933,620288.631537,-111.12187,30U,-2.506938,-4.520108,-0.156793,-0.021259,0.009405,4.202326,30
1403772983719732,1,INS_SOLUTION_GOOD,51.763405,-1.256952,111.17978,5736161.334934,620286.702822,-111.17978,30U,-2.620989,-4.568607,-0.106842,-0.018742,0.006781,4.187764,30
1403772984094740,1,INS_SOLUTION_GOOD,51.763396,-1.256977,111.221509,5736160.28275,620284.975086,-111.221509,30U,-2.71201,-4.647052,-0.086647,-0.016006,0.003324,4.180619,30
1403772984469747,1,INS_SOLUTION_GOOD,51.763387,-1.257003,111.254969,5736159.199275,620283.218409,-111.254969,30U,-2.771164,-4.73633,-0.06828,-0.015367,0.006067,4.177071,30
1403772984844755,1,INS_SOLUTION_GOOD,51.763376,-1.257029,111.230039,5736158.000244,620281.417336,-111.230039,30U,-2.854057,-4.802157,-0.13718,-0.020731,0.007638,4.178665,30
1403772986594770,1,INS_SOLUTION_GOOD,51.763331,-1.257156,111.3495,5736152.705447,620272.799197,-111.3495,30U,-2.936825,-5.214322,-0.069727,-0.032015,0.006686,4.193827,31
1403772986969775,1,INS_SOLUTION_GOOD,51.763321,-1.257185,111.388295,5736151.534825,620270.836499,-111.388295,30U,-2.977329,-5.253377,-0.187737,-0.031807,0.01061,4.195097,31
1403772987344778,1,INS_SOLUTION_GOOD,51.76331,-1.257214,111.442852,5736150.360061,620268.854083,-111.442852,30U,-2.967623,-5.316927,-0.151151,-0.028549,0.007608,4.199067,31
1403772987719781,1,INS_SOLUTION_GOOD,51.7633,-1.257242,111.356666,5736149.134755,620266.968362,-111.356666,30U,-2.972191,-5.377659,-0.145848,-0.030652,0.003563,4.203047,31
1403772988094786,1,INS_SOLUTION_GOOD,51.76329,-1.257271,111.394989,5736147.952238,620264.940837,-111.394989,30U,-3.002464,-5.435303,-0.083293,-0.033203,0.001722,4.208598,31
1403772989719818,1,INS_SOLUTION_GOOD,51.763245,-1.2574,111.350077,5736142.796755,620256.195885,-111.350077,30U,-2.825514,-5.60065,-0.120961,0.002407,0.011292,4.241179,32
1403772990032324,1,INS_SOLUTION_GOOD,51.763237,-1.257426,111.390232,5736141.851783,620254.423596,-111.390232,30U,-2.810353,-5.617403,-0.221913,-0.006327,0.013743,4.248747,32
1403772990344831,1,INS_SOLUTION_GOOD,51.763229,-1.257452,111.445099,5736140.921233,620252.640191,-111.445099,30U,-2.73171,-5.668858,-0.170642,-0.006034,0.011664,4.256718,32
1403772990719842,1,INS_SOLUTION_GOOD,51.76322,-1.257482,111.499035,5736139.856163,620250.614824,-111.499035,30U,-2.675448,-5.717625,-0.193014,-0.01671,0.010048,4.267203,32
1403772991032345,1,INS_SOLUTION_GOOD,51.763212,-1.257508,111.546575,5736138.953335,620248.804036,-111.546575,30U,-2.652984,-5.754053,-0.120949,-0.015017,0.008986,4.278377,32
1403772992657377,1,INS_SOLUTION_GOOD,51.763176,-1.257646,111.650381,5736134.66632,620239.392186,-111.650381,30U,-2.207357,-5.962603,-0.140705,-0.009857,0.006253,4.356855,33
1403772992969884,1,INS_SOLUTION_GOOD,51.76317,-1.257674,111.688678,5736133.93247,620237.495746,-111.688678,30U,-2.157891,-5.982564,-0.045643,0.001284,0.00983,4.368114,33
1403772993344887,1,INS_SOLUTION_GOOD,51.763162,-1.257707,111.736519,5736133.086298,620235.233846,-111.736519,30U,-2.035583,-6.020311,-0.170466,0.012791,0.012839,4.380968,33
1403772993657395,1,INS_SOLUTION_GOOD,51.763156,-1.257732,111.533431,5736132.282487,620233.482827,-111.533431,30U,-1.987971,-6.028441,-0.113918,0.017213,0.009236,4.391841,33
1403772993969896,1,INS_SOLUTION_GOOD,51.76315,-1.25776,111.570657,5736131.614685,620231.565682,-111.570657,30U,-1.90293,-6.052334,-0.113115,0.02167,0.012018,4.402864,33
1403772995594917,1,INS_SOLUTION_GOOD,51.763121,-1.257901,111.619797,5736128.169306,620221.914553,-111.619797,30U,-1.9006,-6.030868,-0.08004,0.036475,0.001706,4.404527,34
1403772995907421,1,INS_SOLUTION_GOOD,51.763116,-1.257929,111.636649,5736127.520002,620219.998344,-111.636649,30U,-1.915463,-6.030853,-0.07174,0.039162,0.003751,4.402317,34
1403772996282426,1,INS_SOLUTION_GOOD,51.763109,-1.257961,111.659483,5736126.779529,620217.842934,-111.659483,30U,-1.948254,-6.014949,-0.170454,0.034028,0.012371,4.400875,34
1403772996594930,1,INS_SOLUTION_GOOD,51.763103,-1.257989,111.597994,5736126.0179,620215.9524,-111.597994,30U,-1.932666,-6.022869,-0.152398,0.034524,0.011385,4.400283,34
1403772996907433,1,INS_SOLUTION_GOOD,51.763097,-1.258016,111.639303,5736125.35458,620214.040943,-111.639303,30U,-1.928814,-6.030512,-0.089926,0.02756,0.00616,4.400909,34
1403772998532454,1,INS_SOLUTION_GOOD,51.763069,-1.258158,111.661884,5736121.907409,620204.378512,-111.661884,30U,-1.843711,-5.967722,-0.08688,0.013711,-0.000839,4.407808,35
1403772998844960,1,INS_SOLUTION_GOOD,51.763062,-1.258185,111.610976,5736121.149861,620202.532824,-111.610976,30U,-1.845138,-5.856873,0.020361,0.008098,0.000406,4.404445,35
1403772999219970,1,INS_SOLUTION_GOOD,51.763056,-1.258215,111.623951,5736120.433948,620200.454981,-111.623951,30U,-1.828698,-5.798264,-0.057339,0.009346,0.004106,4.400198,35
1403772999594980,1,INS_SOLUTION_GOOD,51.763049,-1.258247,111.620067,5736119.620612,620198.295368,-111.620067,30U,-1.861398,-5.737796,-0.043242,0.006031,0.006759,4.395417,35
1403772999969985,1,INS_SOLUTION_GOOD,51.763043,-1.258278,111.65197,5736118.858826,620196.141704,-111.65197,30U,-1.891709,-5.688861,-0.106296,0.008061,0.003469,4.389129,35
1403773001657520,1,INS_SOLUTION_GOOD,51.763012,-1.258415,111.729747,5736115.242426,620186.79979,-111.729747,30U,-2.064046,-5.59638,-0.097329,0.004642,-0.001801,4.35711,36
1403773002032528,1,INS_SOLUTION_GOOD,51.763005,-1.258445,111.733544,5736114.399351,620184.689905,-111.733544,30U,-2.104124,-5.610191,-0.052757,0.00419,0.007701,4.349718,36
1403773002407534,1,INS_SOLUTION_GOOD,51.762998,-1.258476,111.770673,5736113.543978,620182.591498,-111.770673,30U,-2.11557,-5.535173,-0.048415,0.002416,0.007637,4.342428,36
1403773002845036,1,INS_SOLUTION_GOOD,51.76299,-1.25851,111.905267,5736112.542188,620180.246715,-111.905267,30U,-2.113357,-5.338207,-0.082247,0.009526,0.007557,4.332767,36
1403773003220039,1,INS_SOLUTION_GOOD,51.762983,-1.258538,111.937286,5736111.741165,620178.369332,-111.937286,30U,-2.070986,-5.200429,-0.05958,0.012081,0.006462,4.327221,36
1403773005345062,1,INS_SOLUTION_GOOD,51.762948,-1.258673,112.081586,5736107.596673,620169.14226,-112.081586,30U,-1.406194,-3.431477,-0.049573,-0.001779,0.004179,4.314443,37
1403773005907575,1,INS_SOLUTION_GOOD,51.76294,-1.2587,112.103543,5736106.757849,620167.321909,-112.103543,30U,-1.302811,-3.219008,-0.054187,-0.013338,0.001861,4.330306,37
1403773006532589,1,INS_BAD_GPS_AGREEMENT,51.762934,-1.258728,112.136381,5736106.009246,620165.384237,-112.136381,30U,-1.007741,-3.089653,0.008785,-0.001811,0.010058,4.424665,37
1403773007220105,1,INS_BAD_GPS_AGREEMENT,51.76293,-1.258758,112.187048,5736105.525655,620163.286751,-112.187048,30U,-0.287834,-3.117862,-0.023181,0.001241,0.013487,4.633944,37
1403773007907609,1,INS_SOLUTION_GOOD,51.762931,-1.25879,112.262529,5736105.559277,620161.13459,-112.262529,30U,0.648985,-3.088669,-0.064852,0.028742,0.021353,4.926613,37
1403773010595150,1,INS_SOLUTION_GOOD,51.762995,-1.258876,112.241218,5736112.578036,620154.972704,-112.241218,30U,4.355846,-0.569937,-0.025701,0.010749,-0.026379,6.18625,38
1403773011095160,1,INS_SOLUTION_GOOD,51.763016,-1.258878,112.189076,5736114.83873,620154.806047,-112.189076,30U,4.702025,0.065375,0.121526,0.005528,-0.017761,0.024339,38
1403773011532667,1,INS_SOLUTION_GOOD,51.763034,-1.258876,112.162369,5736116.926439,620154.878685,-112.162369,30U,4.935775,0.299949,0.04296,0.002335,-0.019239,0.078904,38
1403773011970178,1,INS_SOLUTION_GOOD,51.763054,-1.258874,112.124611,5736119.146083,620155.015285,-112.124611,30U,5.140893,0.523223,0.080391,0.002061,-0.008739,0.113553,38
1403773012407687,1,INS_SOLUTION_GOOD,51.763075,-1.25887,112.116182,5736121.455182,620155.221554,-112.116182,30U,5.33614,0.63493,0.050379,0.001287,-0.014692,0.133467,38
1403773014220221,1,INS_BAD_GPS_AGREEMENT,51.763166,-1.25885,112.005363,5736131.58991,620156.374957,-112.005363,30U,5.915345,0.731619,-0.030902,0.010322,-0.011831,0.132475,39
1403773014657721,1,INS_BAD_GPS_AGREEMENT,51.763189,-1.258845,111.959902,5736134.159231,620156.658831,-111.959902,30U,5.949924,0.638479,0.138318,0.019608,-0.002796,0.119977,39
1403773015032724,1,INS_BAD_GPS_AGREEMENT,51.763209,-1.258841,111.959569,5736136.420828,620156.851526,-111.959569,30U,5.947059,0.568708,-0.033949,0.032522,-0.010173,0.110331,39
1403773015407727,1,INS_BAD_GPS_AGREEMENT,51.76323,-1.258838,111.939849,5736138.69066,620157.020963,-111.939849,30U,5.957114,0.6199,0.018146,0.040253,-0.006177,0.109229,39
1403773015782732,1,INS_BAD_GPS_AGREEMENT,51.763249,-1.258834,112.173009,5736140.869181,620157.243397,-112.173009,30U,5.990843,0.591981,0.00797,0.025053,-0.002715,0.10902,39
1403773017470258,1,INS_SOLUTION_GOOD,51.763342,-1.25882,112.058195,5736151.17345,620157.919998,-112.058195,30U,6.159555,0.489321,-0.002887,0.03668,-0.008772,0.094234,40
1403773017845264,1,INS_SOLUTION_GOOD,51.763362,-1.258816,112.036596,5736153.467234,620158.151209,-112.036596,30U,6.233271,0.51843,-0.020018,0.034986,-0.005468,0.091969,40
1403773018220266,1,INS_SOLUTION_GOOD,51.763382,-1.258814,112.037198,5736155.721943,620158.27447,-112.037198,30U,6.282591,0.512861,0.034505,0.027122,-0.004485,0.089875,40
1403773018595275,1,INS_SOLUTION_GOOD,51.763403,-1.25881,111.98204,5736158.024898,620158.479708,-111.98204,30U,6.301622,0.469441,-0.073162,0.014694,-0.008375,0.087493,40
1403773018907781,1,INS_SOLUTION_GOOD,51.763421,-1.258808,111.976324,5736160.049523,620158.58057,-111.976324,30U,6.336889,0.431224,0.062269,0.014061,-0.011213,0.084363,40
1403773020532806,1,INS_BAD_GPS_AGREEMENT,51.763514,-1.258798,111.811498,5736170.393688,620159.031335,-111.811498,30U,6.476879,0.342105,0.041531,0.015057,-0.006738,0.066867,41
1403773020845308,1,INS_BAD_GPS_AGREEMENT,51.763533,-1.258796,111.797154,5736172.470806,620159.084475,-111.797154,30U,6.491879,0.297015,0.033531,0.01178,-0.003067,0.058627,41
1403773021220316,1,INS_BAD_GPS_AGREEMENT,51.763554,-1.258795,111.797834,5736174.811001,620159.12512,-111.797834,30U,6.505363,0.232619,0.050556,0.009034,-0.006437,0.049479,41
1403773021595325,1,INS_BAD_GPS_AGREEMENT,51.763575,-1.258792,111.770701,5736177.161708,620159.284476,-111.770701,30U,6.511003,0.159446,0.023396,0.010081,-0.005499,0.038555,41
1403773021907833,1,INS_BAD_GPS_AGREEMENT,51.763594,-1.258791,111.769653,5736179.24826,620159.280707,-111.769653,30U,6.532463,0.109356,0.066824,0.006306,-0.012343,0.027558,41
1403773023407862,1,INS_SOLUTION_GOOD,51.763678,-1.258793,111.140878,5736188.644625,620158.915773,-111.140878,30U,6.610094,-0.063926,0.116326,-0.004845,-0.019595,0.003127,42
1403773023782869,1,INS_SOLUTION_GOOD,51.763697,-1.258793,110.932579,5736190.751298,620158.878589,-110.932579,30U,6.617589,-0.130824,0.123135,-0.003323,-0.011076,6.281803,42
1403773024095377,1,INS_SOLUTION_GOOD,51.763716,-1.258793,110.908495,5736192.867426,620158.790018,-110.908495,30U,6.618437,-0.126282,0.080146,-0.004224,-0.005784,6.277612,42
1403773024407882,1,INS_SOLUTION_GOOD,51.763735,-1.258794,110.893688,5736194.984661,620158.691893,-110.893688,30U,6.62052,-0.187342,0.040033,-0.004342,-0.013478,6.272431,42
1403773024782889,1,INS_SOLUTION_GOOD,51.763755,-1.258795,110.821748,5736197.161365,620158.563281,-110.821748,30U,6.611262,-0.22201,0.044431,-0.001909,-0.003914,6.265527,42
1403773026345417,1,INS_SOLUTION_GOOD,51.763846,-1.2588,110.777849,5736207.307183,620158.000112,-110.777849,30U,6.47754,-0.317352,0.034293,-0.002016,-0.019768,6.2482,43
1403773026720424,1,INS_SOLUTION_GOOD,51.763866,-1.2588,110.726746,5736209.517132,620157.954317,-110.726746,30U,6.482715,-0.353933,0.243616,-0.009655,-0.003235,6.245165,43
1403773027032927,1,INS_SOLUTION_GOOD,51.763885,-1.258801,110.711095,5736211.587386,620157.794554,-110.711095,30U,6.47789,-0.36748,-0.058925,-0.009446,-0.00797,6.244163,43
1403773027345433,1,INS_SOLUTION_GOOD,51.763903,-1.258803,110.699533,5736213.654561,620157.631689,-110.699533,30U,6.461956,-0.354019,0.118617,-0.008436,-0.00628,6.244018,43
1403773027782940,1,INS_SOLUTION_GOOD,51.763927,-1.258804,110.780113,5736216.305663,620157.486709,-110.780113,30U,6.368533,-0.366123,-0.004915,-0.003559,-0.00324,6.241536,43
1403773029407960,1,INS_SOLUTION_GOOD,51.764018,-1.258813,110.707746,5736226.416938,620156.637218,-110.707746,30U,6.009615,-0.398894,0.021811,0.002204,-0.000248,6.23263,44
1403773029782962,1,INS_SOLUTION_GOOD,51.764038,-1.258814,110.668952,5736228.614946,620156.5014,-110.668952,30U,5.94965,-0.451027,0.003109,0.003809,-0.000886,6.226829,44
1403773030220464,1,INS_SOLUTION_GOOD,51.764061,-1.258817,110.665345,5736231.214674,620156.241311,-110.665345,30U,5.902864,-0.453544,-0.011345,-0.000958,-0.001742,6.220586,44
1403773030595469,1,INS_SOLUTION_GOOD,51.764082,-1.258818,110.593568,5736233.506583,620156.091101,-110.593568,30U,5.900614,-0.455333,0.03155,-0.004113,-0.010614,6.217251,44
1403773030970472,1,INS_SOLUTION_GOOD,51.764102,-1.258821,110.567374,5736235.745749,620155.856951,-110.567374,30U,5.913352,-0.464236,0.083017,0.016006,-0.011653,6.215443,44
1403773032658005,1,INS_SOLUTION_GOOD,51.764192,-1.258832,110.521,5736245.752364,620154.841567,-110.521,30U,5.940716,-0.51037,0.062461,-0.020527,-0.020297,6.213846,45
1403773033033011,1,INS_SOLUTION_GOOD,51.764212,-1.258835,110.480711,5736247.999938,620154.582086,-110.480711,30U,5.946061,-0.519882,0.193501,-0.030641,-0.014112,6.208305,45
1403773033408018,1,INS_SOLUTION_GOOD,51.764232,-1.258838,110.397002,5736250.120809,620154.351935,-110.397002,30U,5.914089,-0.557008,0.100122,-0.022603,0.000604,6.203497,45
1403773033783027,1,INS_SOLUTION_GOOD,51.764251,-1.258839,110.60999,5736252.26162,620154.206645,-110.60999,30U,5.884289,-0.597191,-0.016237,-0.003854,-0.010852,6.197231,45
1403773034158034,1,INS_SOLUTION_GOOD,51.764271,-1.258843,110.581731,5736254.492713,620153.923323,-110.581731,30U,5.878398,-0.634081,0.024027,0.000669,0.004763,6.189544,45
1403773035845570,1,INS_SOLUTION_GOOD,51.764361,-1.25886,110.832407,5736264.433998,620152.497185,-110.832407,30U,5.83896,-0.744774,0.011947,-0.000583,-0.004477,6.174676,46
1403773036220576,1,INS_SOLUTION_GOOD,51.76438,-1.258864,110.824441,5736266.529963,620152.18395,-110.824441,30U,5.843463,-0.721719,-0.015063,-0.001997,-0.005281,6.175181,46
1403773036658082,1,INS_SOLUTION_GOOD,51.764402,-1.258867,110.947339,5736269.074461,620151.852274,-110.947339,30U,5.83868,-0.743729,0.032244,-0.006596,-0.004632,6.174426,46
1403773037033089,1,INS_SOLUTION_GOOD,51.764422,-1.258872,110.940236,5736271.286801,620151.51983,-110.940236,30U,5.844011,-0.721235,-0.004468,-0.00846,-0.005135,6.177132,46
1403773037408094,1,INS_SOLUTION_GOOD,51.764442,-1.258875,110.934778,5736273.500888,620151.199979,-110.934778,30U,5.846553,-0.706699,0.020845,-0.002914,-0.00408,6.18043,46
1403773039158118,1,INS_SOLUTION_GOOD,51.764535,-1.258891,111.037331,5736283.742344,620149.87487,-111.037331,30U,5.759627,-0.692247,-0.322334,0.000884,-0.0009,6.180768,47
1403773039533119,1,INS_SOLUTION_GOOD,51.764555,-1.258894,111.17138,5736285.975984,620149.632985,-111.17138,30U,5.72308,-0.697603,0.096935,0.00338,0.001577,6.179081,47
1403773039908124,1,INS_SOLUTION_GOOD,51.764574,-1.258898,111.179636,5736288.137031,620149.319304,-111.179636,30U,5.692116,-0.689906,-0.10091,0.000979,-0.004715,6.175374,47
1403773040283125,1,INS_SOLUTION_GOOD,51.764594,-1.258901,111.181793,5736290.288311,620148.997294,-111.181793,30U,5.680249,-0.741911,0.048039,-0.00214,-0.000846,6.17254,47
1403773040658127,1,INS_SOLUTION_GOOD,51.764612,-1.258903,111.334627,5736292.365528,620148.821559,-111.334627,30U,5.712085,-0.702171,-0.05136,0.000832,-0.004789,6.171356,47
1403773042408159,1,INS_SOLUTION_GOOD,51.764703,-1.258921,111.31113,5736302.39472,620147.330302,-111.31113,30U,5.69628,-0.711642,-0.375208,0.010077,0.005936,6.174481,48
1403773042783165,1,INS_SOLUTION_GOOD,51.764721,-1.258925,111.353861,5736304.37543,620147.022585,-111.353861,30U,5.643596,-0.718827,0.122002,0.017863,-0.006716,6.174908,48
1403773043158169,1,INS_SOLUTION_GOOD,51.76474,-1.258929,111.335733,5736306.500948,620146.70278,-111.335733,30U,5.600613,-0.690238,-0.129688,0.006347,0.00967,6.170404,48
1403773043533175,1,INS_SOLUTION_GOOD,51.764759,-1.258932,111.392147,5736308.670759,620146.439223,-111.392147,30U,5.55566,-0.767437,-0.187114,0.001876,-0.002821,6.169479,48
1403773043908182,1,INS_SOLUTION_GOOD,51.764779,-1.258936,111.398575,5736310.779805,620146.114634,-111.398575,30U,5.567256,-0.725086,0.006125,0.005989,0.002101,6.163973,48
1403773045720719,1,INS_SOLUTION_GOOD,51.76487,-1.258956,111.44721,5736320.905556,620144.50585,-111.44721,30U,5.552922,-0.974395,-0.022674,0.01295,-0.003289,6.126968,49
1403773046095727,1,INS_SOLUTION_GOOD,51.764889,-1.258961,111.45331,5736323.001417,620144.085678,-111.45331,30U,5.527057,-0.992158,0.019493,0.012882,-0.002184,6.118567,49
1403773046470734,1,INS_BAD_GPS_AGREEMENT,51.764908,-1.258967,111.55039,5736325.142128,620143.619283,-111.55039,30U,5.489375,-1.05405,-0.04989,0.008176,-0.001828,6.108173,49
1403773046845738,1,INS_BAD_GPS_AGREEMENT,51.764927,-1.258973,111.559294,5736327.213411,620143.162417,-111.559294,30U,5.456254,-1.100305,0.003156,0.015137,-0.001794,6.098443,49
1403773047283242,1,INS_BAD_GPS_AGREEMENT,51.764948,-1.25898,111.571908,5736329.588062,620142.609589,-111.571908,30U,5.404631,-1.110001,-0.037741,0.012502,0.004832,6.089807,49
1403773049158264,1,INS_BAD_GPS_AGREEMENT,51.765037,-1.259012,111.629377,5736339.414397,620140.204255,-111.629377,30U,5.186153,-1.181353,-0.164677,0.011777,0.0059,6.07721,50
1403773049533273,1,INS_BAD_GPS_AGREEMENT,51.765055,-1.259017,111.733073,5736341.441699,620139.797391,-111.733073,30U,5.094667,-1.171358,-0.051886,0.008024,0.000239,6.077943,50
1403773049970781,1,INS_BAD_GPS_AGREEMENT,51.765075,-1.259024,111.760256,5736343.64267,620139.240428,-111.760256,30U,4.968852,-1.13453,-0.057863,0.005635,-0.004164,6.077546,50
1403773050408288,1,INS_BAD_GPS_AGREEMENT,51.765095,-1.259032,111.774972,5736345.787126,620138.693169,-111.774972,30U,4.838427,-1.107677,-0.027602,0.002058,0.001531,6.0775,50
1403773050845797,1,INS_SOLUTION_GOOD,51.765114,-1.259039,111.843768,5736347.887624,620138.145647,-111.843768,30U,4.699381,-1.089371,-0.084584,0.002441,0.001498,6.073729,50
1403773053345835,1,INS_SOLUTION_GOOD,51.765201,-1.259076,111.941754,5736357.548545,620135.313324,-111.941754,30U,2.803688,-1.010717,-0.021302,-0.014504,0.008738,5.964601,51
1403773054158355,1,INS_SOLUTION_GOOD,51.765218,-1.259087,111.919545,5736359.456887,620134.556365,-111.919545,30U,1.803484,-0.68887,0.060172,-0.008237,0.014959,5.953133,51
1403773055845891,1,INS_SOLUTION_GOOD,51.765234,-1.259097,111.756898,5736361.21746,620133.799276,-111.756898,30U,1.221089,-0.491436,0.039253,0.000743,0.027853,5.960261,51
1403773056970908,1,INS_SOLUTION_GOOD,51.765253,-1.259104,111.858816,5736363.292072,620133.253412,-111.858816,30U,2.339455,-0.54572,-0.014895,0.017835,0.021928,6.10189,51
1403773057720919,1,INS_SOLUTION_GOOD,51.765271,-1.259104,112.140427,5736365.251311,620133.197524,-112.140427,30U,2.941053,-0.088429,0.003023,0.028311,0.005399,0.014729,51
1403773060470965,1,INS_SOLUTION_GOOD,51.765352,-1.259045,112.229724,5736374.391411,620137.077922,-112.229724,30U,3.060174,2.841316,0.071969,-0.01084,-0.005616,0.781413,52
1403773060908472,1,INS_SOLUTION_GOOD,51.765364,-1.259023,112.519551,5736375.707962,620138.569599,-112.519551,30U,2.849991,3.161874,-0.007557,-0.005935,-0.016676,0.849978,52
1403773061408479,1,INS_SOLUTION_GOOD,51.765376,-1.258999,112.487005,5736377.13945,620140.172862,-112.487005,30U,2.723033,3.380093,0.050954,-0.015853,-0.016413,0.90851,52
1403773061908484,1,INS_SOLUTION_GOOD,51.765388,-1.258973,112.580878,5736378.486592,620141.925126,-112.580878,30U,2.575506,3.539416,0.1115,-0.01535,-0.002779,0.944447,52
1403773062408488,1,INS_SOLUTION_GOOD,51.765399,-1.258948,112.589226,5736379.806891,620143.657594,-112.589226,30U,2.489542,3.5741,-0.051177,-0.014377,-0.008073,0.963743,52
1403773064783518,1,INS_SOLUTION_GOOD,51.76545,-1.258826,112.824384,5736385.682894,620151.899594,-112.824384,30U,2.128389,3.050067,0.129194,-0.070043,-0.00994,0.972035,53
1403773065346028,1,INS_SOLUTION_GOOD,51.765461,-1.258803,112.8295,5736386.878119,620153.52444,-112.8295,30U,1.835222,2.676428,0.044612,-0.081342,-0.015454,0.986672,53
1403773066033544,1,INS_SOLUTION_GOOD,51.765471,-1.258778,112.797808,5736388.020542,620155.193352,-112.797808,30U,1.463076,2.226754,0.014446,-0.085882,-0.013504,1.011229,53
1403773066846061,1,INS_SOLUTION_GOOD,51.76548,-1.258753,112.623153,5736389.067125,620156.888646,-112.623153,30U,0.940215,1.579681,0.036938,-0.086693,-0.013246,1.036709,53
1403773070596128,1,INS_SOLUTION_GOOD,51.765487,-1.258732,112.403537,5736389.876247,620158.355148,-112.403537,30U,-0.010418,-0.048097,-0.019043,-0.086212,-0.010263,1.060632,53
